title,latitude,longitude,city,state,category_title,price,stars,star_rating
Galbraith Lake Campground,68.45331,-149.48328,Galbraith Lake,Alaska,BLM,FREE,5,2.5
Downtown Chicken,64.07135,-141.94254,Chicken,Alaska,Parking Lot,FREE,5,2.5
Otto Lake,63.8453,-149.017,Healy,Alaska,BLM,FREE,5,2.5
Tesoro Gas Station,63.3379,-143.0089,Tok,Alaska,Parking Lot,FREE,5,2.5
Lakeview Campground,62.964214,-141.63992,Northway,Alaska,Dept. Fish & Wildlife,FREE,5,2.5
Deadman Lake Campground,62.88887,-141.5415,Northway,Alaska,Dept. Fish & Wildlife,FREE,5,2.5
Hay Lake Campground,60.242027,-123.420815,Fort Liard,Northwest Territories,City Park,FREE,5,2.5
Clements Lake Recreation Site,56.048153,-129.90248,Premier,British Columbia,State Forest,FREE,5,2.5
White Swan Park Campground,54.062767,-124.846466,Fraser Lake,British Columbia,City Park,FREE,5,2.5
Abraham Lake,52.289303,-116.375725,Cline River,Alberta,Unknown/Other,FREE,5,2.5
Stoney Nakoda Resort & Casino,51.101135,-115.01563,Kananaskis,Alberta,Parking Lot,FREE,5,2.5
Grey Eagle Resort & Casino,51.007023,-114.1462,Calgary,Alberta,Parking Lot,FREE,5,2.5
Terzaghi Dam Campsite,50.788074,-122.21826,Pavilion,British Columbia,Utility,FREE,5,2.5
Lodgepole Lake,50.517,-120.521,Logan Lake,British Columbia,Provincial Recreation Site,FREE,5,2.5
N'kwala Recreation Site,50.159477,-121.04671,Thompson-Nicola N,British Columbia,Provincial Recreation Site,FREE,5,2.5
Co-op Cardlock Gas Station & RV Dump,50.139923,-101.64819,Moosomin,Saskatchewan,Dump Station,FREE,5,2.5
James Lake Recreation Site,49.95566,-119.25068,Kelowna,British Columbia,BLM,FREE,5,2.5
West Hawk Lake Dump Station,49.74784,-95.21859,Whiteshell,Manitoba,Dump Station,FREE,5,2.5
Home Hardware Building Centre,49.531956,-115.749016,Cranbrook,British Columbia,Parking Lot,FREE,5,2.5
Fernie Alpine Resort,49.463066,-115.085846,Fernie,British Columbia,Parking Lot,FREE,5,2.5
Silver Skagit Road Turnout,49.35956,-121.47164,Hope,British Columbia,Unknown/Other,FREE,5,2.5
Osoyoos West Bench,49.010036,-119.489876,Osoyoos,British Columbia,Crown Land,FREE,5,2.5
Hozomeen Campground,48.985214,-121.07122,Rockport,Washington,National Park,FREE,5,2.5
Boundary Dam Campground,48.984337,-117.35088,Metaline Falls,Washington,Utility,FREE,5,2.5
Moyie River Road,48.824722,-116.16628,Bonners Ferry,Idaho,National Forest,FREE,5,2.5
Carden Cove,48.751396,-86.40206,Marathon,Ontario,City Park,FREE,5,2.5
Upper Bobcat,48.630913,-120.15831,Winthrop,Washington,Dept. Fish & Wildlife,FREE,5,2.5
Sherry Creek Campground,48.598846,-117.547325,Colville,Washington,Dept. Natural Resources,FREE,5,2.5
Walmart,48.552456,-117.91537,Colville,Washington,Parking Lot,FREE,5,2.5
Crawfish Lake Campground,48.48376,-119.21458,Tonasket,Washington,National Forest,FREE,5,2.5
Middle Fork Flathead River,48.464127,-114.0726,Columbia Falls,Montana,National Forest,FREE,5,2.5
Leader Lake Campground,48.361717,-119.69728,Okanogan,Washington,Dept. Natural Resources,FREE,5,2.5
North Bootlegger Campground,48.36032,-111.326485,Shelby,Montana,Bureau of Reclamation,FREE,5,2.5
Zip's Loop Dispersed,48.26324,-113.41638,Essex,Montana,National Forest,FREE,5,2.5
Walmart,48.11091,-123.36043,Port Angeles,Washington,Parking Lot,FREE,5,2.5
Hot Springs Road Turnout,48.047813,-123.58763,Port Angeles,Washington,National Forest,FREE,5,2.5
Fernan Saddle,47.722263,-116.6082,Coeur d'Alene,Idaho,National Forest,FREE,5,2.5
Walmart,47.702816,-117.031296,Post Falls,Idaho,Parking Lot,FREE,5,2.5
Davenport Sports Complex,47.66247,-118.14545,Davenport,Washington,Parking Lot,FREE,5,2.5
Ankeny #1,47.62847,-119.32849,Coulee City,Washington,Dept. Fish & Wildlife,FREE,5,2.5
Old River Road,47.59577,-116.24412,Linfor,Idaho,National Forest,FREE,5,2.5
Nelson Creek Recreation Area,47.558,-106.226,Circle,Montana,Army Corps Of Engineers,FREE,5,2.5
Rose Lake,47.553364,-116.45539,Cataldo,Idaho,BLM,FREE,5,2.5
Owl Creek Packer Camp,47.44029,-113.6076,Condon,Montana,National Forest,FREE,5,2.5
Indian Camp Campground,47.290363,-120.956055,Cle Elum,Washington,Dept. Natural Resources,FREE,5,2.5
Liberty Recreation Site,47.246246,-120.68249,Liberty,Washington,BLM,FREE,5,2.5
Quincy Lake,47.140934,-119.926025,Quincy,Washington,Dept. Fish & Wildlife,FREE,5,2.5
Burke Lake West,47.13759,-119.93163,Quincy,Washington,Dept. Fish & Wildlife,FREE,5,2.5
Winchester Lake #1,47.10726,-119.61841,Ephrata,Washington,Dept. Fish & Wildlife,FREE,5,2.5
Lost Meadow,47.062515,-121.21982,Cle Elum,Washington,National Forest,FREE,5,2.5
Kiwanis Park,47.055,-109.46,Lewistown,Montana,City Park,FREE,5,2.5
Caliche Lake,47.033318,-119.928345,Quincy,Washington,Dept. Fish & Wildlife,FREE,5,2.5
Gold Creek,46.987343,-113.67741,Missoula,Montana,BLM,FREE,5,2.5
Scoria Pit,46.945442,-103.588615,Medora,North Dakota,National Forest,FREE,5,2.5
Middle Waddel Campground,46.938988,-123.07792,Olympia,Washington,Dept. Natural Resources,FREE,5,2.5
Painted Canyon Visitor Center,46.895164,-103.380974,Belfield,North Dakota,Parking Lot,FREE,5,2.5
Ayer Boat Basin,46.585907,-118.36833,Prescott,Washington,Army Corps Of Engineers,FREE,5,2.5
Texas Rapids,46.563152,-118.099556,LaCrosse,Washington,Army Corps Of Engineers,FREE,5,2.5
Ahtanum Campground,46.52,-121.013,Yakima,Washington,Dept. Natural Resources,FREE,5,2.5
Sparrow Rapids Campground,46.50439,-88.947334,Trout Creek,Michigan,National Forest,FREE,5,2.5
Tree Phones Campground,46.49761,-121.1204,Yakima,Washington,Dept. Natural Resources,FREE,5,2.5
Sunday Lake Overnight Parking,46.478695,-89.93629,Wakefield,Michigan,Private Property,FREE,5,2.5
Kewadin Casino Hotel,46.47364,-84.32266,Sault Ste. Marie,Michigan,Parking Lot,FREE,5,2.5
Caboose Park RV Parking,46.32001,-117.98166,Dayton,Washington,City Park,FREE,5,2.5
Flint Creek Campground,46.2374,-113.306526,Philipsburg,Montana,National Forest,FREE,5,2.5
Captain Clark,46.075,-107.722,Custer,Montana,Dept. Fish & Wildlife,FREE,5,2.5
Otter Creek,45.854694,-109.91602,Big Timber,Montana,Dept. Fish & Wildlife,FREE,5,2.5
Cliffs Park,45.71362,-120.71229,Goldendale,Washington,Army Corps Of Engineers,FREE,5,2.5
The Shire,45.69227,-64.7072,New Horton,New Brunswick,Private Property,FREE,5,2.5
Glen Campground,45.467163,-112.6669,Twin Bridges,Montana,Dept. Fish & Wildlife,FREE,5,2.5
Spring Creek Campground,45.357105,-118.312035,La Grande,Oregon,National Forest,FREE,5,2.5
Odawa Casino Resort,45.349953,-84.97788,Petoskey,Michigan,Parking Lot,FREE,5,2.5
Seven Devils Campground,45.34745,-116.5172,Riggins,Idaho,National Forest,FREE,5,2.5
Cow Creek Campground & Picnic Area,45.31076,-106.24535,Ashland,Montana,National Forest,FREE,5,2.5
French Prairie Rest Area Northbound,45.271885,-122.77509,Aurora,Oregon,Rest Area,FREE,5,2.5
Ruby Reservoir Recreation Area,45.226006,-112.11872,Alder,Montana,BLM,FREE,5,2.5
Evergreen Aviation & Space Museum,45.205185,-123.14241,Mcminnville,Oregon,Parking Lot,FREE,5,2.5
Inner Basin,45.15989,-109.38952,Red Lodge,Montana,National Forest,FREE,5,2.5
Beaverhead Campground,44.996456,-112.85501,Dillon,Montana,Bureau of Reclamation,FREE,5,2.5
Homecoming Beach,44.989716,-112.87814,Dillon,Montana,Bureau of Reclamation,FREE,5,2.5
Bear Tooth Pass,44.92715,-109.52885,Cody,Wyoming,National Forest,FREE,5,2.5
Tongue River Campground,44.848,-107.306,Dayton,Wyoming,Dept. Fish & Wildlife,FREE,5,2.5
Lower Burnt Ranch,44.742615,-120.36146,Mitchell,Oregon,BLM,FREE,5,2.5
Little Sunlight Camping Area,44.717552,-109.59112,Cody,Wyoming,National Forest,FREE,5,2.5
Belle Fourche Dam & Reservoir,44.70014,-103.7305,Belle Fourche,South Dakota,Bureau of Reclamation,FREE,5,2.5
Targhee Creek Trailhead,44.669067,-111.31581,Island Park,Idaho,National Forest,FREE,5,2.5
Bill Frome County Park,44.6499,-111.438255,Island Park,Idaho,County Park,FREE,5,2.5
East Creek Campground,44.563843,-112.66086,Lima,Montana,National Forest,FREE,5,2.5
Miller City Park,44.523,-98.994,Miller,South Dakota,City Park,FREE,5,2.5
Cascade Chevron,44.504642,-116.03036,Cascade,Idaho,Dump Station,FREE,5,2.5
Fish Creek Road,44.48509,-111.28181,Island Park,Idaho,National Forest,FREE,5,2.5
Jones Pond,44.45675,-74.18813,Vermontville,New York,State Forest,FREE,5,2.5
Cyrus Horse Camp,44.44759,-121.10366,Culver,Oregon,National Forest,FREE,5,2.5
Lake Preston City Park,44.359703,-97.3702,Lake Preston,South Dakota,City Park,FREE,5,2.5
Henry's Fork RV Dump Station,44.355583,-111.4123,Island Park,Idaho,Dump Station,FREE,5,2.5
Harrington Loop Road,44.250557,-121.496735,Sisters,Oregon,National Forest,FREE,5,2.5
Richland Dam Recreation Area,44.147793,-100.40743,Pierre,South Dakota,National Forest,FREE,5,2.5
Birch Creek Campground,44.12306,-112.88997,Leadore,Idaho,BLM,FREE,5,2.5
Oxford Casino,44.114777,-70.44393,Oxford,Maine,Parking Lot,FREE,5,2.5
Badlands Rock,43.943516,-121.0257,Bend,Oregon,BLM,FREE,5,2.5
Steer Pasture Overlook Dispersed,43.912308,-102.226006,Wall,South Dakota,National Forest,FREE,5,2.5
Sage Creek Campground,43.89498,-102.41344,Wall,South Dakota,National Park,FREE,5,2.5
Nomad View Dispersed,43.88981,-102.22696,Wall,South Dakota,National Forest,FREE,5,2.5
North Fork Big Wood River,43.8413,-114.42632,Ketchum,Idaho,National Forest,FREE,5,2.5
Prairie Campground,43.816776,-114.5957,Ketchum,Idaho,National Forest,FREE,5,2.5
Michigan Brook Road,43.787163,-72.878555,Pittsfield,Vermont,National Forest,FREE,5,2.5
Upper Teton View,43.763756,-110.55381,Moose,Wyoming,National Forest,FREE,5,2.5
Teton Canyon Road,43.758904,-110.98572,Alta,Wyoming,National Forest,FREE,5,2.5
Oakridge Green Waters Park,43.739124,-122.45877,Oakridge,Oregon,City Park,FREE,5,2.5
Corral Creek,43.737343,-114.24936,Sun Valley,Idaho,National Forest,FREE,5,2.5
Trail Creek Road,43.73702,-114.30046,Sun Valley,Idaho,National Forest,FREE,5,2.5
Lake Creek Road,43.735043,-114.3662,Ketchum,Idaho,National Forest,FREE,5,2.5
Wickiup Reservoir,43.721077,-121.78196,Bend,Oregon,National Forest,FREE,5,2.5
Shadow Mountain,43.700195,-110.616325,Jackson,Wyoming,National Forest,FREE,5,2.5
Salt Creek Sno-Park,43.608273,-122.11797,Crescent,Oregon,National Forest,FREE,5,2.5
Wolf Flats Recreation Area,43.598858,-111.61092,Ririe,Idaho,BLM,FREE,5,2.5
Gros Ventre River,43.595486,-110.36774,Jackson,Wyoming,National Forest,FREE,5,2.5
Union Pass Road,43.452408,-109.98741,Cora,Wyoming,National Forest,FREE,5,2.5
Evans Creek Campground,43.400738,-115.414375,Mountain Home,Idaho,National Forest,FREE,5,2.5
Green Mountain Campground,43.386166,-120.72326,Christmas Valley,Oregon,BLM,FREE,5,2.5
Granite Hot Springs,43.34981,-110.440346,Jackson,Wyoming,National Forest,FREE,5,2.5
Clearwater Forebay Number 2,43.262104,-122.404495,Clearwater,Oregon,National Forest,FREE,5,2.5
Forest Road 281,43.259884,-111.06538,Irwin,Idaho,National Forest,FREE,5,2.5
Indian Creek,43.249245,-111.10278,Irwin,Idaho,National Forest,FREE,5,2.5
Bear's End,42.99671,-72.97604,Shaftsbury,Vermont,National Forest,FREE,5,2.5
Wind River Casino,42.98499,-108.39211,Riverton,Wyoming,Parking Lot,FREE,5,2.5
Seven Feathers Casino Resort,42.941715,-123.284546,Canyonville,Oregon,Parking Lot,FREE,5,2.5
Stoney Pond State Forest,42.88112,-75.7144,Erieville,New York,State Forest,FREE,5,2.5
Head Of The River,42.732,-121.419,Chiloquin,Oregon,National Forest,FREE,5,2.5
Forest Road 304 Dispersed,42.68452,-108.88912,Lander,Wyoming,National Forest,FREE,5,2.5
Goodenough Creek Campground,42.654255,-112.2859,McCammon,Idaho,BLM,FREE,5,2.5
Louis Lake Road,42.5174,-108.785385,Lander,Wyoming,National Forest,FREE,5,2.5
Four Mile Flat Quarry,42.43574,-122.15715,Klamath Falls,Oregon,National Forest,FREE,5,2.5
Chilvers Park,42.35198,-97.79089,Plainview,Nebraska,City Park,FREE,5,2.5
Miami Bar,42.351578,-123.78282,Selma,Oregon,National Forest,FREE,5,2.5
Troy Mills Wapsi Access,42.31581,-91.71487,Coggon,Iowa,County Park,FREE,5,2.5
Grayrocks Reservoir Public Access,42.159264,-104.699554,Wheatland,Wyoming,Dept. Fish & Wildlife,FREE,5,2.5
Harris Beach Rest Area,42.064793,-124.301605,Brookings,Oregon,Dump Station,FREE,5,2.5
Cabela's,41.9653,-83.67886,Dundee,Michigan,Parking Lot,FREE,5,2.5
Packer Lake Access Area,41.896526,-104.05325,Torrington,Wyoming,Dept. Fish & Wildlife,FREE,5,2.5
Forest Road 160,41.831116,-78.980804,Warren,Pennsylvania,National Forest,FREE,5,2.5
Sand Camp,41.74157,-123.980835,Crescent City,California,National Forest,FREE,5,2.5
Cracker Barrel,41.735153,-85.975716,Elkhart,Indiana,Parking Lot,FREE,5,2.5
Orr Lake Campground,41.663,-121.987,Macdoel,California,National Forest,FREE,5,2.5
White Mountain Road Dispersed,41.574406,-109.340294,Rock Springs,Wyoming,BLM,FREE,5,2.5
Deer Mountain Snowpark,41.570496,-122.13198,Weed,California,National Forest,FREE,5,2.5
Forest Road 318,41.34944,-106.26068,Centennial,Wyoming,National Forest,FREE,5,2.5
Toad Lake Campground,41.28353,-122.491646,Mount Shasta,California,National Forest,FREE,5,2.5
Pilot Peak Road,41.27209,-105.43771,Laramie,Wyoming,National Forest,FREE,5,2.5
Algoma Campground,41.256084,-121.88329,McCloud,California,National Forest,FREE,5,2.5
Government Gully Road,41.25547,-105.461784,Laramie,Wyoming,National Forest,FREE,5,2.5
Lake Hattie Public Access Area,41.237534,-105.90137,Laramie,Wyoming,Dept. Fish & Wildlife,FREE,5,2.5
Castle Lake Campground,41.236,-122.379,Mount Shasta,California,National Forest,FREE,5,2.5
Twin Buttes Reservoir,41.23437,-105.85412,Laramie,Wyoming,Dept. Fish & Wildlife,FREE,5,2.5
Pole Mountain Area,41.21072,-105.3862,Buford,Wyoming,National Forest,FREE,5,2.5
Laurel Run Road,41.132042,-75.21352,East Stroudsburg,Pennsylvania,State Forest,FREE,5,2.5
Tooley Park,41.030518,-98.057365,Marquette,Nebraska,City Park,FREE,5,2.5
Uinta Dispersed Campsites,40.87563,-110.83118,Evanston,Utah,National Forest,FREE,5,2.5
Streeter Park Campground,40.87325,-98.00275,Aurora,Nebraska,City Park,FREE,5,2.5
Carlin Canyon,40.72681,-116.00895,Carlin,Nevada,BLM,FREE,5,2.5
Mud Lake Trailhead,40.703503,-121.402306,Hat Creek,California,National Forest,FREE,5,2.5
Cabela's,40.558266,-76.006096,Hamburg,Pennsylvania,Parking Lot,FREE,5,2.5
Heber Mountain,40.41255,-111.18011,Heber City,Utah,National Forest,FREE,5,2.5
Cracker Barrel,40.41026,-104.99405,Loveland,Colorado,Parking Lot,FREE,5,2.5
Forest Road 302,40.367783,-106.68988,Steamboat Springs,Colorado,National Forest,FREE,5,2.5
Harper's Corner Road,40.361885,-108.98384,Dinosaur,Colorado,BLM,FREE,5,2.5
Mill Creek Recreation Area,40.355892,-116.993576,Battle Mountain,Nevada,BLM,FREE,5,2.5
Hidden Hollow Campground,40.334347,-80.76415,Bloomingdale,Ohio,Dept. Natural Resources,FREE,5,2.5
Chimney Rock,40.30927,-106.41775,Kremmling,Colorado,National Forest,FREE,5,2.5
Honey Lake Rest Area,40.256725,-120.4657,Janesville,California,Rest Area,FREE,5,2.5
Fivemile Pass OHV,40.234,-112.18,Cedar Valley,Utah,BLM,FREE,5,2.5
Walmart,40.159077,-111.64524,Springville,Utah,Parking Lot,FREE,5,2.5
Laufman Campground,40.135,-120.348,Milford,California,National Forest,FREE,5,2.5
Rock Creek Stage Station,40.05691,-106.64578,Oak Creek,Colorado,National Forest,FREE,5,2.5
Meadow View Equestrian Campground,40.03524,-120.212746,Doyle,California,National Forest,FREE,5,2.5
Williams Fork Reservoir,40.006832,-106.22184,Parshall,Colorado,Utility,FREE,5,2.5
Vernon Reservoir Campground,39.991814,-112.38583,Tooele,Utah,National Forest,FREE,5,2.5
Snake Lake Campground,39.975,-121.015,Quincy,California,National Forest,FREE,5,2.5
Meadow Camp Campground,39.930565,-121.04183,Quincy,California,National Forest,FREE,5,2.5
Nebo Loop Road,39.758972,-111.710175,Nephi,Utah,National Forest,FREE,5,2.5
Hook Lake Campground,39.72789,-81.70792,McConnelsville,Ohio,Utility,FREE,5,2.5
Willows Rest Area Northbound,39.59315,-122.20862,Willows,California,Dump Station,FREE,5,2.5
Grimy Gulch Campground,39.59263,-122.52447,Elk Creek,California,Bureau of Reclamation,FREE,5,2.5
Fig Orchard Campground,39.5787,-122.52246,Elk Creek,California,Bureau of Reclamation,FREE,5,2.5
Cabela's,39.513508,-119.9702,Verdi,Nevada,Parking Lot,FREE,5,2.5
Canyon Creek Campground,39.437622,-120.57978,Nevada City,California,National Forest,FREE,5,2.5
Burnt Mountain Road Dispersed,39.41305,-106.65765,Basalt,Colorado,National Forest,FREE,5,2.5
Spencer Hot Springs,39.326664,-116.859634,Austin,Nevada,BLM,FREE,5,2.5
Hollywood Casino at Charles Town Races,39.293633,-77.85415,Charles Town,West Virginia,Parking Lot,FREE,5,2.5
Colusa Casino Resort,39.255764,-122.03041,Colusa,California,Parking Lot,FREE,5,2.5
Hotel Nevada Casino,39.24789,-114.892624,Ely,Nevada,Parking Lot,FREE,5,2.5
Pottawatomie State Fishing Lake No.2,39.229282,-96.53082,Manhattan,Kansas,Dept. Fish & Wildlife,FREE,5,2.5
Cleve Creek Campground,39.219177,-114.55838,Ely,Nevada,BLM,FREE,5,2.5
4 Mile Creek Road,39.196163,-106.07434,Fairplay,Colorado,National Forest,FREE,5,2.5
McDonald Creek Cultural Area,39.171967,-109.01978,Mack,Colorado,BLM,FREE,5,2.5
North Boat Ramp,39.15394,-122.548134,Lucerne,California,Dept. Fish & Wildlife,FREE,5,2.5
Sacramento Pass Recreation Area,39.121517,-114.304924,Ely,Nevada,BLM,FREE,5,2.5
Clear Lake View,39.120872,-122.77626,Lucerne,California,National Forest,FREE,5,2.5
Tarryall CR-31 Area,39.103718,-105.48427,Lake George,Colorado,National Forest,FREE,5,2.5
Twin Lakes View,39.10162,-106.349884,Twin Lakes,Colorado,National Forest,FREE,5,2.5
South Mount Elbert,39.101196,-106.36759,Twin Lakes,Colorado,National Forest,FREE,5,2.5
Twin Lakes North,39.098057,-106.34898,Twin Lakes,Colorado,National Forest,FREE,5,2.5
Wedge Overlook,39.093204,-110.75894,Emery,Utah,BLM,FREE,5,2.5
Lake Tahoe East,39.089127,-119.89741,Carson City,Nevada,National Forest,FREE,5,2.5
Milford Lake Loop,39.06782,-96.93498,Junction City,Kansas,Army Corps Of Engineers,FREE,5,2.5
Bass Pro Shops,39.023804,-104.82538,Colorado Springs,Colorado,Parking Lot,FREE,5,2.5
Blackwell Horsecamp,39.01752,-86.389854,Heltonville,Indiana,National Forest,FREE,5,2.5
Miracle Rock,38.980724,-108.87144,Glade Park,Colorado,BLM,FREE,5,2.5
Maverik Gas Station,38.94822,-112.345856,Fillmore,Utah,Dump Station,FREE,5,2.5
Washington Gulch Road,38.933113,-107.01809,Crested Butte,Colorado,National Forest,FREE,5,2.5
Slate River,38.931988,-107.05079,Crested Butte,Colorado,National Forest,FREE,5,2.5
Buckhorn Draw,38.89274,-110.65193,Green River,Utah,BLM,FREE,5,2.5
Fourmile Recreation Area,38.892277,-106.13371,Buena Vista,Colorado,National Forest,FREE,5,2.5
Wilson Canyon,38.80763,-119.22312,Yerington,Nevada,BLM,FREE,5,2.5
Escalante Canyon Road,38.77281,-108.25716,Delta,Colorado,BLM,FREE,5,2.5
Trading Post Restaurant,38.764603,-102.79954,Kit Carson,Colorado,Parking Lot,FREE,5,2.5
Redden State Forest,38.7411,-75.4083,Georgetown,Delaware,State Forest,FREE,5,2.5
Dalton Well Road,38.730427,-109.724174,Moab,Utah,Bureau of Reclamation,FREE,5,2.5
Willow Springs Trail,38.696728,-109.6751,Moab,Utah,BLM,FREE,5,2.5
Forest Road 272,38.69358,-106.1423,Nathrop,Colorado,National Forest,FREE,5,2.5
South Temple Wash,38.656696,-110.66124,Green River,Utah,BLM,FREE,5,2.5
BLM 261 Lot,38.65294,-109.67324,Moab,Utah,BLM,FREE,5,2.5
Lone Mesa Campground,38.644234,-109.81962,Moab,Utah,BLM,FREE,5,2.5
Hendricks Flat,38.640507,-106.07831,Salida,Colorado,BLM,FREE,5,2.5
Lower Gemini Bridges,38.611786,-109.667046,Moab,Utah,BLM,FREE,5,2.5
Wild Horse Road,38.566628,-110.7483,Green River,Utah,BLM,FREE,5,2.5
Shavano Wildlife Management Area,38.55418,-106.11769,Salida,Colorado,BLM,FREE,5,2.5
Soap Creek Corral,38.543705,-107.31441,Gunnison,Colorado,National Forest,FREE,5,2.5
Forsyth Reservoir Recreation Area,38.52198,-111.52595,Loa,Utah,National Forest,FREE,5,2.5
Phantom Canyon Road,38.512604,-105.11427,Penrose,Colorado,BLM,FREE,5,2.5
Hartman Rocks,38.498863,-106.94827,Gunnison,Colorado,BLM,FREE,5,2.5
Potash Road,38.495132,-109.653015,Moab,Utah,State Trust Land,FREE,5,2.5
Cathedral Valley Campground,38.474377,-111.36709,Torrey,Utah,National Park,FREE,5,2.5
Royal Gorge Eastridge Campground,38.465057,-105.29173,Canon City,Colorado,City Park,FREE,5,2.5
St. Albans Roadside Park,38.388393,-81.824875,St. Albans,West Virginia,City Park,FREE,5,2.5
Buckeye Creek,38.23866,-119.33221,Bridgeport,California,National Forest,FREE,5,2.5
West Short Cut Road Dispersed,38.230057,-109.52844,Monticello,Utah,BLM,FREE,5,2.5
Napa Valley Casino,38.172005,-122.25304,American Canyon,California,Parking Lot,FREE,5,2.5
Saddle Lake Recreation Area,38.06025,-86.65695,Tell City,Indiana,National Forest,FREE,5,2.5
Tonopah Dispersed,38.05071,-117.21732,Tonopah,Nevada,BLM,FREE,5,2.5
Strataca Salt Mine Museum,38.044136,-97.86856,Hutchinson,Kansas,Parking Lot,FREE,5,2.5
Cabela's,38.02539,-84.41113,Lexington,Kentucky,Parking Lot,FREE,5,2.5
Last Dollar Road,38.00595,-107.95989,Telluride,Colorado,National Forest,FREE,5,2.5
Lake Sherwood Road Dispersed,37.959545,-80.07029,White Sulphur Springs,West Virginia,National Forest,FREE,5,2.5
Pioche City Park,37.937756,-114.45174,Pioche,Nevada,City Park,FREE,5,2.5
Berryman Campground,37.92959,-91.061935,Potosi,Missouri,National Forest,FREE,5,2.5
Alta Lakes,37.884598,-107.846664,Telluride,Colorado,National Forest,FREE,5,2.5
Sagehen Meadows Campground,37.865707,-118.860664,Mammoth Lakes,California,National Forest,FREE,5,2.5
Anvil Camping Area,37.821003,-107.719246,Silverton,Colorado,National Forest,FREE,5,2.5
Sultan Camping Area,37.82089,-107.71998,Silverton,Colorado,National Forest,FREE,5,2.5
Golden Horn Camping Area,37.812675,-107.743774,Durango,Colorado,National Forest,FREE,5,2.5
North Trout Lake Road,37.811752,-107.87045,Ophir,Colorado,National Forest,FREE,5,2.5
Lizard Head Pass,37.811195,-107.90569,Ophir,Colorado,National Forest,FREE,5,2.5
Glass Creek Campground,37.751507,-118.9892,June Lake,California,National Forest,FREE,5,2.5
Johns Valley,37.731647,-112.09453,Panguitch,Utah,BLM,FREE,5,2.5
Tom's Best Spring,37.72753,-112.24773,Panguitch,Utah,National Forest,FREE,5,2.5
Lower Deadman Campground,37.72055,-119.00939,Mammoth Lakes,California,National Forest,FREE,5,2.5
Del Norte City Park,37.68409,-106.35237,Del Norte,Colorado,City Park,FREE,5,2.5
San Luis State Wildlife Area,37.677185,-105.73308,Hooper,Colorado,State Park,FREE,5,2.5
Shepherd Hot Springs,37.66683,-118.803635,Mammoth Lakes,California,BLM,FREE,5,2.5
Chief Mountain West,37.664646,-114.75462,Caliente,Nevada,BLM,FREE,5,2.5
George's Gift,37.662483,-112.163895,Bryce,Utah,National Forest,FREE,5,2.5
Old Lime Creek Road,37.65429,-107.80208,Durango,Colorado,National Forest,FREE,5,2.5
Chief Mountain South Campground,37.604294,-114.659,Caliente,Nevada,BLM,FREE,5,2.5
Natural Bridges Abandoned Airstrip,37.540783,-109.96283,Blanding,Utah,BLM,FREE,5,2.5
Mule Canyon,37.539078,-109.730995,Blanding,Utah,BLM,FREE,5,2.5
Sacred White Shell Mountain,37.526985,-105.59354,Mosca,Colorado,BLM,FREE,5,2.5
West La Plata Mountains,37.47416,-108.16175,Mancos,Colorado,National Forest,FREE,5,2.5
Horney's Rest Stop,37.440105,-115.37839,Alamo,Nevada,BLM,FREE,5,2.5
Nelder Grove Campground,37.430527,-119.58452,Oakhurst,California,National Forest,FREE,5,2.5
Volcanic Tablelands,37.42877,-118.42506,Bishop,California,BLM,FREE,5,2.5
Forest Road 852,37.398262,-107.532265,Bayfield,Colorado,National Forest,FREE,5,2.5
East Fork San Juan River,37.390804,-106.84058,Pagosa Springs,Colorado,National Forest,FREE,5,2.5
Bay City Gulch,37.360973,-108.07815,Hesperus,Colorado,National Forest,FREE,5,2.5
Madden Peak Road,37.34765,-108.201584,Hesperus,Colorado,National Forest,FREE,5,2.5
Jackson Mountain Road,37.34735,-106.93428,Pagosa Springs,Colorado,National Forest,FREE,5,2.5
Grandview Campground,37.33352,-118.18727,Big Pine,California,National Forest,FREE,5,2.5
Buttermilk Road,37.32828,-118.579155,Bishop,California,National Forest,FREE,5,2.5
Valley of the Gods,37.315796,-109.851036,Mexican Hat,Utah,BLM,FREE,5,2.5
Whisky Falls Campground,37.286,-119.44,North Fork,California,National Forest,FREE,5,2.5
Wilson Creek Recreation Area,37.28578,-85.25561,Elk Horn,Kentucky,Army Corps Of Engineers,FREE,5,2.5
Old Highway 89,37.205696,-112.67502,Mount Carmel,Utah,BLM,FREE,5,2.5
Smithsonian Butte,37.151417,-113.05899,Rockville,Utah,BLM,FREE,5,2.5
Hancock Road,37.13644,-112.59966,Kanab,Utah,BLM,FREE,5,2.5
Eastern Shore of Virginia Welcome Center,37.133938,-75.965744,Cape Charles,Virginia,Parking Lot,FREE,5,2.5
Downstream RV Park,37.00281,-94.61396,Joplin,Missouri,RV Park,FREE,5,2.5
State Line Campground,37.001354,-112.034966,Kanab,Utah,BLM,FREE,5,2.5
Kirch Flat Campground,36.879,-119.149,Tollhouse,California,National Forest,FREE,5,2.5
Convict Flat Campground,36.81877,-118.83292,Hume,California,National Forest,FREE,5,2.5
Casa Blanca Resort Casino,36.801643,-114.10398,Mesquite,Nevada,Parking Lot,FREE,5,2.5
Cherry Gap Camping Area,36.783928,-118.968414,Hume,California,National Forest,FREE,5,2.5
Tenmile Road Camping Area,36.757122,-118.8888,Hume,California,National Forest,FREE,5,2.5
Forest Road 248,36.738045,-112.21585,Jacob Lake,Arizona,National Forest,FREE,5,2.5
Forest Road 225,36.731438,-112.17482,Jacob Lake,Arizona,National Forest,FREE,5,2.5
Canyon View Campground,36.686962,-110.54169,Shonto,Arizona,National Park,FREE,5,2.5
Sunset View Campground,36.676453,-110.542336,Kayenta,Arizona,National Park,FREE,5,2.5
Big Dune Dispersed,36.644676,-116.609184,Amargosa Valley,Nevada,BLM,FREE,5,2.5
Cebolla Mesa Campground,36.640484,-105.68913,Questa,New Mexico,National Forest,FREE,5,2.5
Alabama Hills Recreation Area,36.59582,-118.10916,Lone Pine,California,BLM,FREE,5,2.5
Whitney Pocket,36.52369,-114.132835,Bunkerville,Nevada,BLM,FREE,5,2.5
Snowbird Mesa,36.481506,-114.450615,Overton,Nevada,BLM,FREE,5,2.5
Valley of Fire West,36.444454,-114.67558,Overton,Nevada,BLM,FREE,5,2.5
Forest Road 611 East Rim,36.439354,-112.07889,North Rim,Arizona,National Forest,FREE,5,2.5
Forest Road 5,36.4225,-105.34234,Angel Fire,New Mexico,National Forest,FREE,5,2.5
Forest Road 270,36.410305,-112.14941,North Rim,Arizona,National Forest,FREE,5,2.5
Marble View Dispersed,36.402542,-112.06238,North Rim,Arizona,National Forest,FREE,5,2.5
Forest Road 611,36.393986,-112.115524,North Rim,Arizona,National Forest,FREE,5,2.5
Upper Sweetwater Campground,36.36067,-120.85092,Paicines,California,BLM,FREE,5,2.5
Fire Point,36.356255,-112.35719,North Rim,Arizona,National Park,FREE,5,2.5
Wildrose Campground,36.266,-117.185,Death Valley,California,National Park,FREE,5,2.5
Harris Ranch Inn & Restaurant,36.25405,-120.2362,Coalinga,California,Parking Lot,FREE,5,2.5
Point Sublime,36.198605,-112.25054,North Rim,Arizona,National Park,FREE,5,2.5
Erbie Campground,36.07069,-93.21327,Jasper,Arkansas,National Park,FREE,5,2.5
Lovell Canyon Road,36.060852,-115.55991,Las Vegas,Nevada,National Forest,FREE,5,2.5
Nadeau Road,36.05797,-117.34076,Ballarat,California,BLM,FREE,5,2.5
Kingman Wash,36.036007,-114.70769,Temple Bar Marina,Arizona,National Park,FREE,5,2.5
Fossil Falls Dry Lake Bed,35.982765,-117.90042,Little Lake,California,BLM,FREE,5,2.5
Williams Hill Recreation Area,35.97826,-121.00942,Bradley,California,BLM,FREE,5,2.5
Coconino Rim Road,35.96234,-111.96439,Grand Canyon,Arizona,National Forest,FREE,5,2.5
Lockett Lake,35.9399,-111.93836,Grand Canyon Village,Arizona,National Forest,FREE,5,2.5
Forest Road 306,35.927048,-112.13377,Grand Canyon,Arizona,National Forest,FREE,5,2.5
Forest Road 688,35.926174,-112.12452,Grand Canyon,Arizona,National Forest,FREE,5,2.5
Furnace Creek Road,35.90613,-116.296776,Shoshone,California,BLM,FREE,5,2.5
Richland Creek Recreation Area,35.79623,-92.93554,Witts Springs,Arkansas,National Forest,FREE,5,2.5
Rhea Springs Recreation Area,35.68317,-84.82622,Spring City,Tennessee,County Park,FREE,5,2.5
Fritch Fortress Campground,35.68239,-101.5978,Fritch,Texas,National Park,FREE,5,2.5
Keyesville SRMA,35.63426,-118.49216,Wofford Heights,California,BLM,FREE,5,2.5
Walmart,35.6065,-117.6697,Ridgecrest,California,Parking Lot,FREE,5,2.5
McBride Canyon & Mullinaw Creek Camp,35.54434,-101.73387,Fritch,Texas,National Park,FREE,5,2.5
Meriwether Lewis Campground,35.522545,-87.45602,Hohenwald,Tennessee,National Park,FREE,5,2.5
Spangler Main Staging Area,35.518524,-117.56501,Ridgecrest,California,BLM,FREE,5,2.5
The Football Field OHV Parking Area,35.5164,-117.6603,Ridgecrest,California,BLM,FREE,5,2.5
Willow Tree,35.477596,-114.66512,Golden Valley,Arizona,National Park,FREE,5,2.5
Dove Springs OHV Area,35.423737,-118.011505,Cantil,California,BLM,FREE,5,2.5
Elk City Lake Park,35.366554,-99.4159,Elk City,Oklahoma,City Park,FREE,5,2.5
Santeetlah Lake,35.366253,-83.85514,Robbinsville,North Carolina,National Forest,FREE,5,2.5
Garland Prairie Road,35.28782,-112.13338,Williams,Arizona,National Forest,FREE,5,2.5
Snow Bowl,35.27622,-111.71606,Flagstaff,Arizona,National Forest,FREE,5,2.5
Soda Lake View,35.25332,-115.89148,Baker,California,National Park,FREE,5,2.5
Dogtown Road,35.19348,-112.143745,Williams,Arizona,National Forest,FREE,5,2.5
California City Off-Road Area,35.181778,-117.80871,California City,California,City Park,FREE,5,2.5
Twin Arrows Casino Resort,35.167023,-111.25578,Flagstaff,Arizona,Parking Lot,FREE,5,2.5
Bill Williams Loop Road,35.16346,-112.16221,Williams,Arizona,National Forest,FREE,5,2.5
Walmart,35.1601,-101.92153,Amarillo,Texas,Parking Lot,FREE,5,2.5
Coleman Lake,35.147995,-112.17204,Williams,Arizona,National Forest,FREE,5,2.5
Marshall Lake,35.112396,-111.538445,Flagstaff,Arizona,National Forest,FREE,5,2.5
San Jon Municipal Park,35.107513,-103.331726,San Jon,New Mexico,City Park,FREE,5,2.5
El Morro National Monument,35.036804,-108.33783,Ramah,New Mexico,National Park,FREE,5,2.5
Forest Road 242,35.032795,-106.32641,Tijeras,New Mexico,National Forest,FREE,5,2.5
Rattlesnake Draw Rest Area Eastbound,35.004776,-105.85054,Moriarty,New Mexico,Rest Area,FREE,5,2.5
Torrance County Park,34.992146,-106.16484,Edgewood,New Mexico,County Park,FREE,5,2.5
Black Canyon North,34.982403,-115.38892,Essex,California,National Park,FREE,5,2.5
Black Canyon South,34.93525,-115.41201,Essex,California,National Park,FREE,5,2.5
Kelso Dunes Mine,34.888077,-115.716606,Amboy,California,National Park,FREE,5,2.5
Nolan Tank,34.88449,-111.910774,Sedona,Arizona,National Forest,FREE,5,2.5
Loy Butte Road,34.868073,-111.90386,Sedona,Arizona,National Forest,FREE,5,2.5
County Road 122 Dispersed,34.83607,-91.54886,Hazen,Arkansas,Arkansas Game & Fish Commission,FREE,5,2.5
Hidden Hill Road,34.793667,-115.60314,Kelso,California,National Park,FREE,5,2.5
Dharma Tower,34.769142,-115.63906,Amboy,California,National Park,FREE,5,2.5
Cabela's,34.707745,-86.68301,Huntsville,Alabama,Parking Lot,FREE,5,2.5
Forest Road 413,34.694878,-112.14384,Cottonwood,Arizona,National Forest,FREE,5,2.5
Sawtooth Canyon Campground,34.6703,-116.983986,Lucerne Valley,California,BLM,FREE,5,2.5
Cape Lookout National Seashore,34.618847,-76.52398,Harkers Island,North Carolina,National Park,FREE,5,2.5
Amboy Crater,34.55769,-115.77687,Amboy,California,BLM,FREE,5,2.5
Cedar Glades Park,34.538258,-93.086006,Hot Springs,Arkansas,County Park,FREE,5,2.5
Enchanted Forest Trail,34.496094,-112.37739,Prescott,Arizona,National Forest,FREE,5,2.5
Twentynine Mile Lake,34.4711,-111.452644,Happy Jack,Arizona,National Forest,FREE,5,2.5
Wolf Creek Road,34.458633,-112.480034,Prescott,Arizona,National Forest,FREE,5,2.5
Childs Camping Area,34.34801,-111.69738,Yavapai,Arizona,National Forest,FREE,5,2.5
9350 Camping Area,34.33793,-110.97869,Payson,Arizona,National Forest,FREE,5,2.5
Larson Ridge Camping Area,34.330597,-110.83492,Forest Lakes,Arizona,National Forest,FREE,5,2.5
Flowing Spring,34.303,-111.352,Payson,Arizona,National Forest,FREE,5,2.5
Ray & Donna West Free RV Park,34.237885,-102.745865,Muleshoe,Texas,City Park,FREE,5,2.5
Swansea Ghost Town,34.17137,-113.84263,Parker,Arizona,BLM,FREE,5,2.5
Wayne Russell RV Park,33.993176,-101.34143,Floydada,Texas,City Park,FREE,5,2.5
Bosque del Apache BLM,33.91955,-106.88471,San Antonio,New Mexico,BLM,FREE,5,2.5
Waylon Jennings RV Park,33.912388,-102.32686,Littlefield,Texas,City Park,FREE,5,2.5
Bear Trap Campground,33.88331,-107.51528,Magdalena,New Mexico,National Forest,FREE,5,2.5
Saboba Casino,33.779224,-116.91718,San Jacinto,California,Parking Lot,FREE,5,2.5
Plomosa Road,33.74882,-114.21615,Quartzsite,Arizona,BLM,FREE,5,2.5
Painted Canyon,33.61177,-116.0087,Mecca,California,BLM,FREE,5,2.5
Box Canyon,33.59231,-115.96784,Mecca,California,BLM,FREE,5,2.5
West Mesa Road Dispersed,33.516953,-105.515335,Fort Stanton,New Mexico,BLM,FREE,5,2.5
Cave Canyon Campground,33.50657,-105.49296,Lincoln,New Mexico,BLM,FREE,5,2.5
Kofa View,33.48668,-114.18171,Quartzsite,Arizona,BLM,FREE,5,2.5
Cosmic Campground,33.47911,-108.92256,Glenwood,New Mexico,National Forest,FREE,5,2.5
Saddle Mountain,33.464043,-113.03659,Tonopah,Arizona,BLM,FREE,5,2.5
Mule Mountains Dispersed,33.444607,-114.894035,Palo Verde,California,BLM,FREE,5,2.5
Bass Pro Shop,33.43695,-111.86706,Mesa,Arizona,Parking Lot,FREE,5,2.5
Cibola-Colorado River Camping Area,33.37708,-114.70565,Cibola,Arizona,BLM,FREE,5,2.5
Cibola National Wildlife Refuge,33.36345,-114.66643,Cibola,Arizona,BLM,FREE,5,2.5
Palm Canyon,33.36034,-114.10695,Quartzsite,Arizona,Dept. Fish & Wildlife,FREE,5,2.5
Casino Pauma,33.32976,-116.99285,Pauma Valley,California,Parking Lot,FREE,5,2.5
Clark Dry Lake,33.299095,-116.273796,Borrego Springs,California,State Park,FREE,5,2.5
Truckhaven Hills Camping Area,33.277233,-116.05388,Thermal,California,State Park,FREE,5,2.5
King Road,33.254078,-114.22338,Quartzsite,Arizona,Dept. Fish & Wildlife,FREE,5,2.5
Elmwood Recreation Area,33.199,-79.47,McClellanville,South Carolina,National Forest,FREE,5,2.5
Forks Campground,33.183685,-108.206116,Silver City,New Mexico,National Forest,FREE,5,2.5
Grapevine Campground,33.179,-108.206,Silver City,New Mexico,National Forest,FREE,5,2.5
Big Black Mountain,33.15698,-116.809296,Ramona,California,National Forest,FREE,5,2.5
Holmes Camping Area,33.150394,-116.111496,Ocotillo Wells,California,State Park,FREE,5,2.5
Yaqui Well Camp,33.13684,-116.38042,Borrego Springs,California,State Park,FREE,5,2.5
Yoakum County Park,33.049446,-102.81851,Denver City,Texas,County Park,FREE,5,2.5
Blair Valley,33.03767,-116.40955,Julian,California,State Park,FREE,5,2.5
Harrah's Ak-Chin,33.022846,-112.04866,Maricopa,Arizona,Parking Lot,FREE,5,2.5
Ferguson Lake,32.969296,-114.497536,Winterhaven,California,BLM,FREE,5,2.5
Pine Creek Road,32.905148,-116.47453,Julian,California,National Forest,FREE,5,2.5
Tumco Historic Townsite,32.881104,-114.83248,Winterhaven,California,BLM,FREE,5,2.5
Mountain Palm Springs Camp,32.862736,-116.21803,Julian,California,State Park,FREE,5,2.5
Hackle Road BLM,32.785435,-109.60077,Solomon,Arizona,BLM,FREE,5,2.5
Bobcat Meadow Campground,32.71073,-116.55642,Campo,California,National Forest,FREE,5,2.5
Cattlemen Trail,32.549446,-108.426994,Silver City,New Mexico,National Forest,FREE,5,2.5
Tuskegee Primitive Camp #10,32.486404,-85.58821,Tuskegee,Alabama,National Forest,FREE,5,2.5
Hunter Park,32.479332,-97.79401,Granbury,Texas,County Park,FREE,5,2.5
Baylor Pass West Trailhead,32.39089,-106.61416,Las Cruces,New Mexico,BLM,FREE,5,2.5
Walmart,32.361507,-106.7474,Las Cruces,New Mexico,Parking Lot,FREE,5,2.5
Sierra Vista Campground,32.322727,-106.63058,Las Cruces,New Mexico,BLM,FREE,5,2.5
Andrews Chamber of Commerce,32.317772,-102.55483,Andrews,Texas,City Park,FREE,5,2.5
West Manville Road,32.29187,-111.347534,Tucson,Arizona,BLM,FREE,5,2.5
Cochise Visitor Center,32.27215,-109.8411,Willcox,Arizona,Parking Lot,FREE,5,2.5
Casino Del Sol,32.12895,-111.08267,Tucson,Arizona,Parking Lot,FREE,5,2.5
Steele Creek Park Campground,32.00575,-97.45157,Morgan,Texas,Army Corps Of Engineers,FREE,5,2.5
Desert Diamond Casino Sahuarita,32.00401,-110.98951,Tucson,Arizona,Parking Lot,FREE,5,2.5
Walling Bend Park Campground,31.897787,-97.396614,Clifton,Texas,Army Corps Of Engineers,FREE,5,2.5
Soldiers Bluff Park Campground,31.862122,-97.375175,Laguna Park,Texas,Army Corps Of Engineers,FREE,5,2.5
Forest Road 687,31.855726,-110.00841,Tombstone,Arizona,National Forest,FREE,5,2.5
Airstrip Group Campsite,31.792643,-110.63576,Vail,Arizona,BLM,FREE,5,2.5
Cieneguita Camping Area,31.76615,-110.62822,Elgin,Arizona,BLM,FREE,5,2.5
Harshaw Road,31.514921,-110.70366,Patagonia,Arizona,National Forest,FREE,5,2.5
I-10 Picnic Area Westbound,31.08375,-104.08216,Fort Davis,Texas,Parking Lot,FREE,5,2.5
I-10 Rest Area Westbound,30.938852,-103.30948,Fort Stockton,Texas,Rest Area,FREE,5,2.5
Blackwater River Primitive Recreation Site,30.71091,-86.86623,Holt,Florida,State Forest,FREE,5,2.5
Airey Lake Recreation Area,30.689236,-89.061104,Perkinston,Mississippi,National Forest,FREE,5,2.5
Bayside Campground,30.516327,-87.006744,Navarre,Florida,Dept. Fish & Wildlife,FREE,5,2.5
Bayou Campground,30.510126,-87.00326,Navarre,Florida,Dept. Fish & Wildlife,FREE,5,2.5
Schreiner City Park,30.489927,-99.76012,Junction,Texas,City Park,FREE,5,2.5
Highway 90 Picnic Area,30.375347,-103.53351,Alpine,Texas,Rest Area,FREE,5,2.5
Marfa Lights Viewing Center,30.275537,-103.88287,Marfa,Texas,Parking Lot,FREE,5,2.5
Spring Creek Park,30.10062,-95.65291,Tomball,Texas,County Park,FREE,5,2.5
I-10 Rest Area Eastbound,30.052656,-99.02789,Comfort,Texas,Rest Area,FREE,5,2.5
Hugo Point County Park,29.812647,-94.79623,Cove,Texas,County Park,FREE,5,2.5
Winnie Stowell Park,29.811768,-94.380295,Winnie,Texas,County Park,FREE,5,2.5
Rutherford Beach,29.760294,-93.12415,Creole,Louisiana,Dept. Fish & Wildlife,FREE,5,2.5
Bolivar Flats Free Beach,29.383808,-94.72237,Bolivar Peninsula,Texas,County Park,FREE,5,2.5
Brazoria Beach,28.977917,-95.25272,Surfside Beach,Texas,County Park,FREE,5,2.5
Potts Preserve,28.901327,-82.3055,Inverness,Florida,Southwest Florida Water Management District,FREE,5,2.5
Ashley Campground,28.361517,-82.11783,Dade City,Florida,Southwest Florida Water Management District,FREE,5,2.5
Serenova Tract,28.329096,-82.569374,Land O Lakes,Florida,Southwest Florida Water Management District,FREE,5,2.5
Hampton Tract,28.269724,-81.96948,Lakeland,Florida,Southwest Florida Water Management District,FREE,5,2.5
Oak Ridge Equestrian Area,28.148489,-82.27787,Thonotosassa,Florida,Southwest Florida Water Management District,FREE,5,2.5
Washburn Equestrian Area,28.11889,-82.297455,Thonotosassa,Florida,Southwest Florida Water Management District,FREE,5,2.5
North Beach,27.477428,-97.27424,Corpus Christi,Texas,National Park,FREE,5,2.5
South Beach,27.415487,-97.30161,Corpus Christi,Texas,National Park,FREE,5,2.5
Deep Creek Preserve,27.060854,-82.02182,Arcadia,Florida,Southwest Florida Water Management District,FREE,5,2.5
DuPuis Campground,27.004908,-80.559494,Indiantown,Florida,South Florida Water Management District,FREE,5,2.5
Kowechobe Campground,26.49791,-81.129555,Clewiston,Florida,Dept. Fish & Wildlife,FREE,5,2.5
Boca Chica Beach,25.996897,-97.151024,Brownsville,TX,Dept. Fish & Wildlife,FREE,5,2.5
Cabo Pulmo Beach,23.44069,-109.42783,Cabo Pulmo,Baja California Sur,National Park,FREE,5,2.5
Walmart,64.85804,-147.68906,Fairbanks,Alaska,Parking Lot,FREE,4,2
Gerstle River Wayside,63.82031,-144.9287,Delta Junction,Alaska,Parking Lot,FREE,4,2
Portage Glacier Road,60.792828,-148.90356,Girdwood,Alaska,National Forest,FREE,4,2
Whittier Airstrip,60.779808,-148.71806,Whittier,Alaska,National Forest,FREE,4,2
Rainbow Lake Campground,60.71848,-150.8181,Kenai,Alaska,Dept. Fish & Wildlife,FREE,4,2
Peterson Lake Campground,60.524876,-150.39714,Sterling,Alaska,Dept. Fish & Wildlife,FREE,4,2
Kerry Lake Recreation Site,54.669006,-122.781624,McLeod Lake,British Columbia,Provincial Recreation Site,FREE,4,2
Walmart,53.864727,-122.786415,Prince George,British Columbia,Parking Lot,FREE,4,2
Dr. Bicum Rest Area,51.997807,-106.113434,Elstow,Saskatchewan,Rest Area,FREE,4,2
The Crossing Resort,51.973778,-116.74667,Saskatchewan River Crossing,Alberta,Parking Lot,FREE,4,2
Waitabit Creek Campground,51.501377,-117.18415,Donald,British Columbia,BLM,FREE,4,2
Kicking Horse River Crown Land,51.23837,-116.67234,Golden,British Columbia,BLM,FREE,4,2
Kingdom Lake Recreation Site,50.80376,-122.7971,Bralorne,British Columbia,Provincial Recreation Site,FREE,4,2
Westside Road Turnout,49.948166,-119.498604,Kelowna,British Columbia,Unknown/Other,FREE,4,2
Cabela's,49.839855,-97.2195,Winnipeg,Manitoba,Parking Lot,FREE,4,2
Summerland Public RV Parking,49.5999,-119.6782,Summerland,British Columbia,Parking Lot,FREE,4,2
Behind the Rock on Howe Sound,49.507755,-123.258,Squamish,British Columbia,Unknown/Other,FREE,4,2
Razor Hone,48.90357,-121.69468,Glacier,Washington,National Forest,FREE,4,2
Toats Coulee Campground,48.846,-119.726,Loomis,Washington,Dept. Natural Resources,FREE,4,2
Silver Falls Provincial Park,48.692814,-89.60385,Thunder Bay,Ontario,Provincial Park,FREE,4,2
Demers Ridge,48.6526,-114.182,Polebridge,Montana,National Forest,FREE,4,2
Dog Fish Point Scenic Lookout,48.62654,-122.46313,Bow,Washington,Parking Lot,FREE,4,2
Chuckanut Drive Scenic Lookout,48.620964,-122.445206,Bow,Washington,Parking Lot,FREE,4,2
Fish Lake #3,48.61606,-119.70174,Tonasket,Washington,Dept. Fish & Wildlife,FREE,4,2
Fish Lake #1,48.612354,-119.68701,Tonasket,Washington,Dept. Fish & Wildlife,FREE,4,2
McGinnis Creek,48.514393,-114.147606,Columbia Falls,Montana,National Forest,FREE,4,2
Rocky Lake,48.495102,-117.87105,Colville,Washington,Dept. Natural Resources,FREE,4,2
Nelson Reservoir Recreation Area,48.493,-107.532,Saco,Montana,Bureau of Reclamation,FREE,4,2
Bear Creek #1,48.489452,-120.11599,Winthrop,Washington,Dept. Fish & Wildlife,FREE,4,2
Walmart,48.41582,-119.50824,Omak,Washington,Parking Lot,FREE,4,2
Sweat Creek Campground,48.391163,-119.807846,Okanogan,Washington,Dept. Natural Resources,FREE,4,2
Super 1 Foods,48.368927,-114.21048,Columbia Falls,Montana,Parking Lot,FREE,4,2
Highline Loop Road,48.35757,-113.92754,Martin City,Montana,National Forest,FREE,4,2
Abbot Bay Boat Launch,48.342754,-113.98118,Martin City,Montana,National Forest,FREE,4,2
Green Bay Campground,48.17814,-116.40555,Sagle,Idaho,National Forest,FREE,4,2
Lyre River Campground,48.147717,-123.83333,Port Angeles,Washington,Dept. Natural Resources,FREE,4,2
Cocolalla Boat Ramp,48.138454,-116.60208,Sagle,Idaho,Dept. Fish & Wildlife,FREE,4,2
Tulalip Casino,48.08883,-122.19217,Marysville,Washington,Parking Lot,FREE,4,2
Deer Creek,48.0851,-121.552475,Granite Falls,Washington,National Forest,FREE,4,2
Walmart,48.078846,-123.13279,Sequim,Washington,Parking Lot,FREE,4,2
Big Eddy Campground,48.066715,-115.92582,Heron,Montana,National Forest,FREE,4,2
Bear Creek Campground,48.066,-124.24,Beaver,Washington,Dept. Natural Resources,FREE,4,2
7 Cedars Casino,48.020355,-123.01095,Sequim,Washington,Parking Lot,FREE,4,2
Granite Lake Access,48.006454,-116.68907,Athol,Idaho,Unknown/Other,FREE,4,2
Blacktail Mountain,48.00622,-114.36765,Kila,Montana,National Forest,FREE,4,2
Scenic High Falls,47.959236,-84.82757,Wawa,Ontario,City Park,FREE,4,2
Mill Bay Casino,47.88505,-120.13037,Manson,Washington,Parking Lot,FREE,4,2
Minnie Peterson Campground,47.818,-124.172,Forks,Washington,Dept. Natural Resources,FREE,4,2
Hoh Oxbow Campground,47.809673,-124.24997,Forks,Washington,Dept. Natural Resources,FREE,4,2
Forest Road 596,47.743404,-116.545296,Coeur d'Alene,Idaho,National Forest,FREE,4,2
Little North Fork Road,47.716866,-116.38501,Linfor,Idaho,National Forest,FREE,4,2
Cabela's,47.700886,-117.03874,Post Falls,Idaho,Parking Lot,FREE,4,2
Northern Quest Resort & Casino,47.656807,-117.56347,Airway Heights,Washington,Parking Lot,FREE,4,2
Palace Casino & Hotel,47.402164,-94.65228,Cass Lake,Minnesota,Parking Lot,FREE,4,2
Tinkham Road,47.390785,-121.51995,North Bend,Washington,National Forest,FREE,4,2
Fishtrap Recreation Area,47.33402,-117.86298,Sprague,Washington,BLM,FREE,4,2
Cabin Creek,47.29326,-121.28773,Easton,Washington,National Forest,FREE,4,2
Cow Lake,47.134964,-118.159584,Ritzville,Washington,Dept. Fish & Wildlife,FREE,4,2
Burke Lake South,47.13395,-119.92547,Quincy,Washington,Dept. Fish & Wildlife,FREE,4,2
Evergreen East,47.12501,-119.897644,Quincy,Washington,Dept. Fish & Wildlife,FREE,4,2
Little North Fork Campground,47.066597,-115.85018,Avery,Idaho,National Forest,FREE,4,2
Quinault Beach Resort & Casino,47.042183,-124.169174,Ocean Shores,Washington,Parking Lot,FREE,4,2
Canal Lake North,46.930702,-119.18119,Warden,Washington,Dept. Fish & Wildlife,FREE,4,2
Margaret McKenny Campground,46.926468,-123.06284,Olympia,Washington,Dept. Natural Resources,FREE,4,2
Walmart,46.88497,-114.042366,Missoula,Montana,Parking Lot,FREE,4,2
Powder River Depot,46.73949,-105.42934,Terry,Montana,Dept. Fish & Wildlife,FREE,4,2
Vernita Bridge,46.640858,-119.74429,Mattawa,Washington,Dept. Fish & Wildlife,FREE,4,2
Little Goose Landing,46.58559,-118.00615,Lacrosse,Washington,Army Corps Of Engineers,FREE,4,2
Blyton Landing,46.559483,-117.27087,Colton,Washington,Army Corps Of Engineers,FREE,4,2
Nisqually John Landing,46.476574,-117.23537,Clarkston,Washington,Army Corps Of Engineers,FREE,4,2
Woods Creek Wildlife Dispersed,46.460873,-121.96066,Randle,Washington,National Forest,FREE,4,2
Kewadin Casino,46.437416,-86.70774,Munising,Michigan,Parking Lot,FREE,4,2
Lochsa River,46.33833,-115.31393,Kooskia,Idaho,National Forest,FREE,4,2
Hovey Lake Camping Area,46.291,-86.701,Munising,Michigan,National Forest,FREE,4,2
Blodgett Campground,46.26953,-114.243805,Hamilton,Montana,National Forest,FREE,4,2
Ruchert Road Dispersed Camping,46.256046,-117.51663,Peola,Washington,National Forest,FREE,4,2
Galena Gulch Recreation Area,46.25425,-112.18376,Boulder,Montana,BLM,FREE,4,2
Big Springs Campground,46.229855,-117.54384,Pomeroy,Washington,National Forest,FREE,4,2
Merrill Lake Campground,46.0939,-122.3198,Cougar,Washington,Dept. Natural Resources,FREE,4,2
Kewadin Casino Manistique,45.969837,-86.16118,Manistique,Michigan,Parking Lot,FREE,4,2
Walmart,45.96266,-112.50897,Butte,Montana,Parking Lot,FREE,4,2
Kewadin Casino St. Ignace,45.927105,-84.73466,Saint Ignace,Michigan,Parking Lot,FREE,4,2
Homestake Pass,45.926598,-112.40547,Butte,Montana,BLM,FREE,4,2
Battle Ridge,45.883163,-110.879684,Bozeman,Montana,National Forest,FREE,4,2
Sam Billings Memorial Campground,45.82492,-114.24815,Darby,Montana,National Forest,FREE,4,2
Threemile Canyon-Quesnel Park,45.811523,-119.969505,Boardman,Oregon,Army Corps Of Engineers,FREE,4,2
French Farm Lake,45.764015,-84.76845,Mackinaw City,Michigan,Dept. Natural Resources,FREE,4,2
Turkey Hole,45.739765,-121.228485,Lyle,Washington,Dept. Fish & Wildlife,FREE,4,2
Giles French Park,45.709988,-120.69535,Rufus,Oregon,Army Corps Of Engineers,FREE,4,2
Rufus Landing Recreation Area,45.69316,-120.75529,Rufus,Oregon,Army Corps Of Engineers,FREE,4,2
Itch-Kep-Pe Park,45.629166,-109.253136,Columbus,Montana,City Park,FREE,4,2
Red Shale Campground,45.568825,-106.14635,Ashland,Montana,National Forest,FREE,4,2
Mallards Landing,45.521,-107.726,Hardin,Montana,Dept. Fish & Wildlife,FREE,4,2
Saddle Creek Campground,45.4,-116.723,Imnaha,Oregon,National Forest,FREE,4,2
Forest Road 21,45.367874,-118.297195,La Grande,Oregon,National Forest,FREE,4,2
Trillium Lake Airstrip,45.28113,-121.7353,Government Camp,Oregon,National Forest,FREE,4,2
Carbella Recreation Site,45.21241,-110.90051,Emigrant,Montana,BLM,FREE,4,2
Chinook Winds Casino Resort,44.99809,-124.00925,Lincoln City,Oregon,Parking Lot,FREE,4,2
Horse Prairie Campground,44.988945,-112.888824,Dillon,Montana,Bureau of Reclamation,FREE,4,2
Walter Pratt Memorial Park,44.83545,-74.6749,Brasher Falls,New York,State Forest,FREE,4,2
Raynolds Pass,44.827,-111.487,Cameron,Montana,Dept. Fish & Wildlife,FREE,4,2
Turtle Creek Casino & Hotel,44.774418,-85.42544,Williamsburg,Michigan,Parking Lot,FREE,4,2
Burnt Ranch Beach Recreation Site,44.73939,-120.35442,Mitchell,Oregon,BLM,FREE,4,2
Burnt Ranch Road,44.612896,-120.21051,Mitchell,Oregon,BLM,FREE,4,2
Red Rock Pass,44.586422,-111.36966,Island Park,Idaho,National Forest,FREE,4,2
Metolius Basin Dry Camp,44.47563,-121.63208,Camp Sherman,Oregon,National Forest,FREE,4,2
Henderson Flat,44.431293,-121.14877,Culver,Oregon,National Forest,FREE,4,2
Puzzler Gulch Dispersed,44.383526,-114.70719,Stanley,Idaho,National Forest,FREE,4,2
Billy Fields Forest Camp,44.349495,-119.3024,Mount Vernon,Oregon,National Forest,FREE,4,2
Old Cherry Mountain Road,44.30857,-71.456,Jefferson,New Hampshire,National Forest,FREE,4,2
Elgin Park Trailhead,44.264595,-106.9004,Buffalo,Wyoming,National Forest,FREE,4,2
Stanley Lake Dispersed,44.255684,-115.04517,Lowman,Idaho,National Forest,FREE,4,2
Montpelier Wastewater Treatment Plant,44.25474,-72.600266,Montpelier,Vermont,Dump Station,FREE,4,2
Gale River Loop Road,44.23984,-71.62009,Bethlehem,New Hampshire,National Forest,FREE,4,2
Salmon River #1,44.176785,-114.92372,Stanley,Idaho,National Forest,FREE,4,2
Salmon River #2,44.171673,-114.905716,Stanley,Idaho,National Forest,FREE,4,2
Salmon River #3,44.168655,-114.895096,Stanley,Idaho,National Forest,FREE,4,2
Green Road,44.103718,-86.40113,Free Soil,Michigan,National Forest,FREE,4,2
Snake River,44.103355,-110.68615,Moran,Wyoming,National Park,FREE,4,2
Valley River Center,44.0691,-123.1122,Eugene,Oregon,Parking Lot,FREE,4,2
Forest Road 4610,44.038277,-121.41928,Bend,Oregon,National Forest,FREE,4,2
Forest Road 260,44.036896,-121.43425,Bend,Oregon,National Forest,FREE,4,2
Forest Road 300,44.035973,-121.456535,Bend,Oregon,National Forest,FREE,4,2
Three Rivers Casino & Hotel,43.98044,-124.0875,Florence,Oregon,Parking Lot,FREE,4,2
Pass Creek Road,43.93782,-113.44573,Mackay,Idaho,National Forest,FREE,4,2
Mackay Tourist Park,43.91247,-113.62285,Mackay,Idaho,City Park,FREE,4,2
Whelan Lake,43.91048,-86.157486,Custer,Michigan,National Forest,FREE,4,2
Railroad Butte,43.905624,-102.859505,Caputa,South Dakota,National Forest,FREE,4,2
North Leigh Creek Road,43.842964,-110.992485,Alta,Wyoming,National Forest,FREE,4,2
South Leigh Canyon,43.82178,-110.98648,Alta,Wyoming,National Forest,FREE,4,2
Martin Landing Campground,43.807686,-117.02218,Parma,Idaho,County Park,FREE,4,2
Porter Reservoir,43.807373,-110.3788,Moran,Wyoming,National Forest,FREE,4,2
Hatchet Teton View,43.794373,-110.373184,Moran,Wyoming,National Forest,FREE,4,2
Lower Teton View,43.764473,-110.555786,Moose,Wyoming,National Forest,FREE,4,2
East Fork Baker Creek Campground,43.745106,-114.564255,Ketchum,Idaho,National Forest,FREE,4,2
Baker Creek Canyon,43.72171,-114.61145,Ketchum,Idaho,National Forest,FREE,4,2
Bargy Road,43.710087,-75.973625,Mannsville,New York,State Forest,FREE,4,2
China Hat Campground,43.657776,-121.03694,La Pine,Oregon,National Forest,FREE,4,2
South Ice Cave Recreation Site,43.582733,-121.07827,Fort Rock,Oregon,National Forest,FREE,4,2
South Tourist Park,43.472244,-112.056206,Idaho Falls,Idaho,City Park,FREE,4,2
Hole-in-the-Ground,43.403862,-121.20011,Fort Rock,Oregon,National Forest,FREE,4,2
Hayspur Fish Hatchery,43.335365,-114.14561,Bellevue,Idaho,Dept. Fish & Wildlife,FREE,4,2
Timmerman Junction Rest Area,43.33046,-114.28029,Bellevue,Idaho,Rest Area,FREE,4,2
Sheps Canyon Primitive Campsites,43.298027,-103.44632,Hot Springs,South Dakota,State Park,FREE,4,2
Warren Bridge-Green River,43.02863,-110.106026,Daniel,Wyoming,BLM,FREE,4,2
Burnt Lake,42.877106,-109.6622,Pinedale,Wyoming,National Forest,FREE,4,2
Falls Creek,42.866005,-109.681076,Pinedale,Wyoming,BLM,FREE,4,2
Glenrock South Recreation Complex,42.83628,-105.871124,Glenrock,Wyoming,City Park,FREE,4,2
Cub Creek Recreation Area,42.824665,-99.91251,Springview,Nebraska,Dept. Natural Resources,FREE,4,2
Lander City Park,42.823,-108.737,Lander,Wyoming,City Park,FREE,4,2
Blackrock Canyon,42.814484,-112.33071,Pocatello,Idaho,BLM,FREE,4,2
Lions Park,42.786,-96.938,Vermillion,South Dakota,City Park,FREE,4,2
Riverside City Park,42.763,-105.392,Douglas,Wyoming,City Park,FREE,4,2
Pipeline Campground,42.74131,-112.89961,American Falls,Idaho,BLM,FREE,4,2
Pebble Creek,42.74022,-112.01785,Bancroft,Idaho,National Forest,FREE,4,2
Ayers Natural Bridge Park,42.734,-105.612,Douglas,Wyoming,County Park,FREE,4,2
Harrison City Park,42.689766,-103.88532,Harrison,Nebraska,City Park,FREE,4,2
Crawford City Park,42.68657,-103.41774,Crawford,Nebraska,City Park,FREE,4,2
Kla-Mo-Ya Casino,42.535385,-121.88455,Chiloquin,Oregon,Parking Lot,FREE,4,2
Malone Springs,42.53,-122.086,Klamath Falls,Oregon,National Forest,FREE,4,2
Lake Abert Pull Out #1,42.529778,-120.23285,Lakeview,Oregon,BLM,FREE,4,2
Duck Pond Campsite,42.510147,-74.48371,Summit,New York,State Forest,FREE,4,2
Willow Creek Hot Springs Campground,42.275375,-118.26542,Fields,Oregon,BLM,FREE,4,2
David Bates Memorial Park,42.261772,-93.05794,Union,Iowa,County Park,FREE,4,2
Big Sandy Reservoir Recreation Area,42.24555,-109.43355,Farson,Wyoming,Bureau of Reclamation,FREE,4,2
Salmon Falls Creek Reservoir,42.131298,-114.726814,Greys Landing,Idaho,BLM,FREE,4,2
Mount Ashland Campground,42.075405,-122.714966,Ashland,Oregon,National Forest,FREE,4,2
Presque Isle Downs Casino,42.070724,-80.03141,Erie,Pennsylvania,Parking Lot,FREE,4,2
Lewis Park,42.0478,-104.953255,Wheatland,Wyoming,City Park,FREE,4,2
Old Highway 99,42.019287,-122.60768,Ashland,Oregon,BLM,FREE,4,2
Wheatland Reservoir #1,41.99589,-105.048485,Wheatland,Wyoming,Dept. Fish & Wildlife,FREE,4,2
Dugway Recreation Site,41.8599,-107.05467,Sinclair,Wyoming,BLM,FREE,4,2
Virgin Valley Campground,41.853443,-119.00213,Denio,Nevada,Dept. Fish & Wildlife,FREE,4,2
Bayard City Park,41.762173,-103.32202,Bayard,Nebraska,City Park,FREE,4,2
Curren #1,41.6625,-121.41875,Tulelake,California,National Forest,FREE,4,2
Curren #2,41.6588,-121.41175,Tulelake,California,National Forest,FREE,4,2
Beach Pond Boat Ramp Area,41.582096,-71.81757,Voluntown,Connecticut,Parking Lot,FREE,4,2
Walmart,41.579006,-109.251236,Rock Springs,Wyoming,Parking Lot,FREE,4,2
Stough Reservoir Campground,41.562,-120.254,Cedarville,California,National Forest,FREE,4,2
Little America Travel Center,41.543686,-109.8584,Little America,Wyoming,Parking Lot,FREE,4,2
Foote Public Access Area,41.509136,-106.83818,Saratoga,Wyoming,Dept. Fish & Wildlife,FREE,4,2
Lake North,41.496292,-97.35936,Columbus,Nebraska,County Park,FREE,4,2
Mohegan Sun Casino,41.485207,-72.08301,Uncasville,Connecticut,Parking Lot,FREE,4,2
Stapleton City Park,41.480682,-100.51461,Stapleton,Nebraska,City Park,FREE,4,2
Forest Road 241,41.368546,-106.507324,Saratoga,Wyoming,National Forest,FREE,4,2
High Line Road,41.277637,-75.104485,Dingmans Ferry,Pennsylvania,State Forest,FREE,4,2
Mohegan Sun Pocono,41.271473,-75.82298,Wilkes Barre,Pennsylvania,Parking Lot,FREE,4,2
Summit Information Center,41.237156,-105.43598,Laramie,Wyoming,Parking Lot,FREE,4,2
Gelatt Lake,41.236313,-105.839355,Laramie,Wyoming,Dept. Fish & Wildlife,FREE,4,2
Oliver Reservoir State Recreation Area,41.23113,-103.824104,Kimball,Nebraska,State Park,FREE,4,2
Cabela's,41.17979,-96.112305,La Vista,Nebraska,Parking Lot,FREE,4,2
Hickory Hills Park,41.179558,-93.606895,New Virginia,Iowa,County Park,FREE,4,2
Vedauwoo Glen Road,41.152977,-105.3731,Buford,Wyoming,National Forest,FREE,4,2
Sierra Trading Post,41.12634,-104.74686,Cheyenne,Wyoming,Parking Lot,FREE,4,2
Trinidad Northbound Rest Area,41.124855,-124.14998,Trinidad,California,Dump Station,FREE,4,2
Nebraska Public Power Camping Area,41.122753,-101.12847,Sutherland,Nebraska,Utility,FREE,4,2
Water Canyon Recreation Area,40.929546,-117.67357,Winnemucca,Nevada,BLM,FREE,4,2
Blue Lake Casino,40.884438,-123.9979,Blue Lake,California,Parking Lot,FREE,4,2
Whitney Reservoir,40.833054,-110.93434,Oakley,Utah,National Forest,FREE,4,2
Pawnee Buttes,40.808353,-103.99034,Grover,Colorado,National Forest,FREE,4,2
Bonneville Salt Flats,40.772278,-113.98124,Wendover,Utah,BLM,FREE,4,2
Forest Road 181,40.71823,-109.48006,Vernal,Utah,National Forest,FREE,4,2
East Eagle Lake,40.70637,-120.67324,Susanville,California,BLM,FREE,4,2
Rocky Point East,40.67293,-120.7459,Susanville,California,BLM,FREE,4,2
The Archway,40.670685,-99.04117,Kearney,Nebraska,Parking Lot,FREE,4,2
Steiner Flat Campground,40.65993,-122.96588,Douglas City,California,BLM,FREE,4,2
Bear River Casino,40.628193,-124.205956,Fortuna,California,Parking Lot,FREE,4,2
Salamander Flat,40.43949,-111.6271,Provo,Utah,National Forest,FREE,4,2
Walmart,40.43115,-122.287605,Anderson,California,Parking Lot,FREE,4,2
Diamond Mountain Casino & Hotel,40.430054,-120.65643,Susanville,California,Parking Lot,FREE,4,2
Brownville Riverside Park,40.392975,-95.650925,Brownville,Nebraska,City Park,FREE,4,2
Rabbit Ears Pass West,40.376923,-106.730484,Steamboat Springs,Colorado,National Forest,FREE,4,2
McCoy Flat Road,40.35044,-109.58216,Vernal,Utah,BLM,FREE,4,2
Ronsheim Campground,40.330536,-80.98951,Jewett,Ohio,Dept. Natural Resources,FREE,4,2
County Road 103,40.271984,-106.43882,Kremmling,Colorado,Dept. Natural Resources,FREE,4,2
Brush Memorial Park Campground,40.249012,-103.623604,Brush,Colorado,City Park,FREE,4,2
George Mitchell RV Park,40.246796,-99.637856,Oxford,Nebraska,City Park,FREE,4,2
Clyde Creek Road,40.227215,-111.19921,Heber City,Utah,BLM,FREE,4,2
Stillwater Pass,40.221024,-105.887505,Grand Lake,Colorado,National Forest,FREE,4,2
Miners Canyon,40.199173,-111.88621,Saratoga Springs,Utah,BLM,FREE,4,2
Beaver Reservoir,40.113438,-105.50515,Ward,Colorado,National Forest,FREE,4,2
Pony Express Dispersed,40.11039,-112.63849,Dugway,Utah,BLM,FREE,4,2
Wolford Mountain Recreation Area,40.077423,-106.37279,Kremmling,Colorado,BLM,FREE,4,2
Pioneer Park,40.07422,-106.10834,Hot Sulphur Springs,Colorado,City Park,FREE,4,2
Fort Sage Trailhead Campsite,40.05998,-120.07245,Doyle,California,BLM,FREE,4,2
Conklin Park Campground,40.047,-120.368,Plumas,California,National Forest,FREE,4,2
Lincoln Park,40.02079,-98.08275,Superior,Nebraska,City Park,FREE,4,2
O.C. Mugrage Campground,39.950665,-106.54168,Bond,Colorado,State Park,FREE,4,2
Dockery Park,39.919647,-93.95416,Gallatin,Missouri,City Park,FREE,4,2
Santaquin Meadows,39.91814,-111.72054,Santaquin,Utah,National Forest,FREE,4,2
Rochester Falls Access,39.908516,-94.69214,Helena,Missouri,Dept. Natural Resources,FREE,4,2
Vasquez Ridge,39.90222,-105.80463,Winter Park,Colorado,National Forest,FREE,4,2
Catamount Recreation Site,39.890633,-106.832245,McCoy,Colorado,BLM,FREE,4,2
Rolling Hills Casino Truck Lot,39.872307,-122.20283,Corning,California,Parking Lot,FREE,4,2
Marysville City Park,39.837948,-96.64644,Marysville,Kansas,City Park,FREE,4,2
Little North Fork Campground,39.782,-121.26,Berry Creek,California,National Forest,FREE,4,2
Bicentennial Campsite,39.773952,-81.64507,Caldwell,Ohio,Utility,FREE,4,2
Sand Hollow Campsite,39.737,-81.733,McConnelsville,Ohio,Utility,FREE,4,2
Sawmill Road Campsite,39.73664,-81.689865,McConnelsville,Ohio,Utility,FREE,4,2
Lyons Gulch Recreation Site,39.69865,-107.07248,Gypsum,Colorado,BLM,FREE,4,2
Pass Lake,39.65519,-105.87814,Keystone,Colorado,National Forest,FREE,4,2
Guanella Pass Campground,39.6117,-105.71765,Georgetown,Colorado,National Forest,FREE,4,2
Redskin Creek Road,39.343864,-105.30762,Pine,Colorado,National Forest,FREE,4,2
Illipah Reservoir,39.33632,-115.38942,Ely,Nevada,BLM,FREE,4,2
Willow Creek Flat,39.3298,-111.5112,Ephraim,Utah,National Forest,FREE,4,2
Bear Creek Campground,39.322,-122.837,Lake,California,National Forest,FREE,4,2
Rock Creek Hills Road,39.309742,-105.723206,Jefferson,Colorado,National Forest,FREE,4,2
County Road 48,39.247818,-106.35896,Leadville,Colorado,National Forest,FREE,4,2
Rabbit Valley Camping Area,39.192417,-108.996414,Mack,Colorado,BLM,FREE,4,2
Jouflas Campground,39.17628,-109.02181,Mack,Colorado,BLM,FREE,4,2
Westwater Mesa,39.16929,-109.117,Cisco,Utah,BLM,FREE,4,2
Goose Creek Trailhead Road,39.169197,-105.37206,Sedalia,Colorado,National Forest,FREE,4,2
Robinson Rancheria Casino,39.14304,-122.88277,Nice,California,Parking Lot,FREE,4,2
McClure Campground,39.12393,-107.31346,Carbondale,Colorado,National Forest,FREE,4,2
Twin Lakes Reservoir,39.077347,-106.299255,Twin Lakes,Colorado,Bureau of Reclamation,FREE,4,2
Blue Oak Campground,39.06963,-122.50913,Clearlake Oaks,California,BLM,FREE,4,2
Badger Flats Dispersed,39.053898,-105.46599,Lake George,Colorado,National Forest,FREE,4,2
Clear Creek Reservoir,39.02037,-106.27864,Buena Vista,Colorado,Dept. Fish & Wildlife,FREE,4,2
Cowboy Camp,38.99841,-122.35457,Clearlake Oaks,California,BLM,FREE,4,2
Hopland Sho-Ka-Wah Casino,38.983196,-123.05737,Hopland,California,Parking Lot,FREE,4,2
Oh Be Joyful Recreation Area,38.914265,-107.03287,Crested Butte,Colorado,BLM,FREE,4,2
Camino Cove Campground,38.877495,-120.429596,Pollock Pines,California,National Forest,FREE,4,2
Arkansas River,38.875355,-106.14773,Buena Vista,Colorado,BLM,FREE,4,2
Lenhardy Cutoff,38.856804,-106.053276,Buena Vista,Colorado,National Forest,FREE,4,2
Thunder Valley Casino,38.836487,-121.311554,Lincoln,California,Parking Lot,FREE,4,2
Lower Hunting Creek Campground,38.809,-122.375,Napa,California,BLM,FREE,4,2
South Cottonwood Creek,38.775463,-106.306816,Nathrop,Colorado,National Forest,FREE,4,2
Pine Ridge Recreation Area,38.758007,-92.142334,New Bloomfield,Missouri,National Forest,FREE,4,2
Klondike Bluff Road,38.753555,-109.729576,Moab,Utah,State Trust Land,FREE,4,2
Cache Creek Casino,38.734257,-122.14294,Brooks,California,Parking Lot,FREE,4,2
Karval Reservoir State Wildlife Area,38.716614,-103.50793,Karval,Colorado,Dept. Fish & Wildlife,FREE,4,2
Salida North BLM,38.63816,-106.07546,Salida,Colorado,BLM,FREE,4,2
Koosharem Reservoir,38.596916,-111.84749,Koosharem,Utah,BLM,FREE,4,2
Oil Well Flat,38.535904,-105.21551,Canon City,Colorado,BLM,FREE,4,2
Walmart,38.523613,-106.021935,Salida,Colorado,Parking Lot,FREE,4,2
Penrose Commons,38.495747,-105.02885,Penrose,Colorado,BLM,FREE,4,2
Red Creek Road,38.48967,-107.23268,Gunnison,Colorado,BLM,FREE,4,2
West Main Trail Head,38.475082,-107.8851,Montrose,Colorado,City Park,FREE,4,2
Horseshoe Canyon,38.47384,-110.20008,Hanksville,Utah,BLM,FREE,4,2
Yellow Circle Road,38.435585,-109.426956,Moab,Utah,BLM,FREE,4,2
Lunar Crater,38.389046,-116.06823,Tonopah,Nevada,BLM,FREE,4,2
Big John Flat,38.353344,-112.39424,Beaver,Utah,National Forest,FREE,4,2
Capitol Reef Overflow,38.32666,-111.36406,Torrey,Utah,National Forest,FREE,4,2
Beas Lewis Flat,38.298016,-111.38888,Torrey,Utah,BLM,FREE,4,2
Billy Creek State Wildlife Area,38.2902,-107.733795,Montrose,Colorado,State Park,FREE,4,2
Upper Kents Lake,38.235405,-112.451195,Beaver,Utah,National Forest,FREE,4,2
Summerville Dam Site,38.217514,-80.8901,Summersville,West Virginia,Army Corps Of Engineers,FREE,4,2
Lockhart Road,38.182465,-109.667984,Moab,Utah,BLM,FREE,4,2
Fisherman's Beach Recreation Site,38.18007,-112.01185,Antimony,Utah,BLM,FREE,4,2
Miller's Rest Area,38.141582,-117.45595,Tonopah,Nevada,Parking Lot,FREE,4,2
Saulsbury Wash Rest Area,38.12528,-116.81444,Tonopah,Nevada,Parking Lot,FREE,4,2
Green Creek Road,38.119747,-119.251236,Bridgeport,California,National Forest,FREE,4,2
Mike Higbee State Wildlife Area,38.092102,-102.52923,Lamar,Colorado,Dept. Fish & Wildlife,FREE,4,2
Fall Creek Campsite,37.979317,-108.03046,Placerville,Colorado,BLM,FREE,4,2
Up Woods Lake Road,37.93807,-108.0376,Sawpit,Colorado,BLM,FREE,4,2
Burr Trail,37.867603,-111.3798,Boulder,Utah,BLM,FREE,4,2
Priest Lake Dispersed Camping Area,37.83462,-107.88046,Telluride,Colorado,National Forest,FREE,4,2
Kendall Camping Area,37.819687,-107.71402,Silverton,Colorado,National Forest,FREE,4,2
Cunningham Gulch,37.793022,-107.57752,Silverton,Colorado,BLM,FREE,4,2
Glass Flow Road,37.770332,-119.01769,June Lake,California,National Forest,FREE,4,2
Losee Canyon,37.768497,-112.33806,Panguitch,Utah,National Forest,FREE,4,2
Sultan Creek,37.766296,-107.67785,Silverton,Colorado,National Forest,FREE,4,2
Rio Grande Campground,37.763134,-107.01104,Creede,Colorado,National Forest,FREE,4,2
Big Flat Dispersed,37.750854,-111.50491,Escalante,Utah,BLM,FREE,4,2
Little Molas Lake Campground,37.74499,-107.7088,Durango,Colorado,National Forest,FREE,4,2
Cabin Hollow,37.73429,-112.268295,Panguitch,Utah,National Forest,FREE,4,2
Little Spencer Flat,37.723114,-111.43807,Escalante,Utah,BLM,FREE,4,2
Hole in the Rock,37.723,-111.527,Escalante,Utah,BLM,FREE,4,2
Turkey Bayou Campground,37.68475,-89.41091,Pomona,Illinois,National Forest,FREE,4,2
Coal Creek,37.668022,-113.01152,Cedar City,Utah,BLM,FREE,4,2
Hilltop Hot Springs,37.66019,-118.7896,Mammoth Lakes,California,BLM,FREE,4,2
Picket Wire Canyon,37.659607,-103.57232,La Junta,Colorado,National Forest,FREE,4,2
Whitmore Tubs Road Dispersed,37.65917,-118.809166,Mammoth Lakes,California,BLM,FREE,4,2
Cedar Breaks,37.656082,-112.739365,Brian Head,Utah,National Forest,FREE,4,2
Walmart,37.653248,-113.0872,Cedar City,Utah,Parking Lot,FREE,4,2
The Rock Tub Hot Springs,37.64749,-118.80784,Mammoth Lakes,California,BLM,FREE,4,2
Hot Creek Hatchery Spur Road,37.645794,-118.839645,Mammoth Lakes,California,BLM,FREE,4,2
Whiteman Bench,37.62639,-112.22823,Bryce,Utah,National Forest,FREE,4,2
Old Spanish Trail,37.61905,-106.27174,Monte Vista,Colorado,BLM,FREE,4,2
Henrieville Creek,37.616913,-111.89618,Henrieville,Utah,BLM,FREE,4,2
Holiday Campground,37.553,-118.676,Mammoth Lakes,California,National Forest,FREE,4,2
Cimarrona Campground,37.53836,-107.21082,Pagosa Springs,Colorado,National Forest,FREE,4,2
Uinta Flat,37.51315,-112.6142,Duck Creek Village,Utah,National Forest,FREE,4,2
Pass Creek Road,37.50219,-106.76732,South Fork,Colorado,National Forest,FREE,4,2
Lamar City Park,37.485725,-94.28257,Lamar,Missouri,City Park,FREE,4,2
County Road 34,37.35984,-108.42832,Mancos,Colorado,BLM,FREE,4,2
Cherry Creek Road,37.328922,-108.11982,Hesperus,Colorado,National Forest,FREE,4,2
Pahranagat National Wildlife Refuge,37.299892,-115.12213,Alamo,Nevada,Dept. Fish & Wildlife,FREE,4,2
Meade City Park,37.28427,-100.328156,Meade,Kansas,City Park,FREE,4,2
Leeds Canyon,37.26673,-113.37019,Hurricane,Utah,National Forest,FREE,4,2
Sauls Creek,37.24318,-107.5512,Bayfield,Colorado,National Forest,FREE,4,2
North Creek,37.22033,-113.161606,Virgin,Utah,BLM,FREE,4,2
Durfield Dispersed,37.21931,-107.69925,Bayfield,Colorado,BLM,FREE,4,2
Flying Monkey Mesa,37.21406,-113.20832,La Verkin,Utah,BLM,FREE,4,2
Twin Hollows Canyon,37.20712,-112.68934,Mount Carmel,Utah,BLM,FREE,4,2
Virgin Dam,37.202545,-113.23179,Virgin,Utah,BLM,FREE,4,2
Sheep Bridge Road,37.186584,-113.22276,La Verkin,Utah,BLM,FREE,4,2
Clay Flat Dispersed,37.165226,-112.6781,Kanab,Utah,BLM,FREE,4,2
Redinger Campground,37.146008,-119.44955,North Fork,California,National Forest,FREE,4,2
Gooseberry Mesa,37.141644,-113.15354,Apple Valley,Utah,BLM,FREE,4,2
BLM 1009,36.99246,-113.571785,Littlefield,Arizona,State Trust Land,FREE,4,2
Little Black Mountain Petroglyph Site,36.98268,-113.50296,Littlefield,Arizona,BLM,FREE,4,2
Bombo's Pond,36.882328,-116.75308,Beatty,Nevada,BLM,FREE,4,2
Green Cabin Flat Campground,36.859066,-119.1037,Squaw Valley,California,National Forest,FREE,4,2
Eureka Casino Resort,36.8189,-114.06336,Mesquite,Nevada,Parking Lot,FREE,4,2
Badger Creek Campground,36.776443,-111.659164,Marble Canyon,Arizona,BLM,FREE,4,2
Esquibel Canyon,36.690914,-105.9731,Tres Piedras,New Mexico,BLM,FREE,4,2
Virgin River Valley Overlook,36.657784,-114.285774,Bunkerville,Nevada,BLM,FREE,4,2
Tres Piedras,36.65533,-105.978,Tres Piedras,New Mexico,National Forest,FREE,4,2
Cuchilla Campground,36.56918,-105.51856,Arroyo Seco,New Mexico,National Forest,FREE,4,2
Angel Peak,36.54555,-107.86262,San Juan,New Mexico,BLM,FREE,4,2
Overton Wildlife Management Area,36.51655,-114.42476,Overton,Nevada,State Park,FREE,4,2
Rio Grande Gorge Rest Area,36.47599,-105.738014,El Prado,New Mexico,Rest Area,FREE,4,2
Sand Mine Road,36.47344,-114.43963,Overton,Nevada,BLM,FREE,4,2
Indian Hollow Campground,36.462196,-112.4842,North Rim,Arizona,National Forest,FREE,4,2
Corn Creek Dispersed,36.43963,-115.35762,Las Vegas,Nevada,Dept. Fish & Wildlife,FREE,4,2
Stewarts Point,36.377934,-114.39783,Overton,Nevada,National Park,FREE,4,2
Laguna Mountain Campground,36.367344,-120.82952,Paicines,California,BLM,FREE,4,2
Blue Tree Group Camp,36.361668,-115.63504,Las Vegas,Nevada,National Forest,FREE,4,2
Echo Campground,36.359356,-106.523674,Abiquiu,New Mexico,National Forest,FREE,4,2
The Pads,36.339123,-116.599556,Death Valley,California,Unknown/Other,FREE,4,2
Whirlpool Dispersed Camping Area,36.31449,-106.59259,Abiquiu,New Mexico,National Forest,FREE,4,2
Bisti Badlands Parking Access,36.25909,-108.25191,Farmington,New Mexico,BLM,FREE,4,2
8 Mile Road,36.13637,-114.82257,Boulder City,Nevada,National Park,FREE,4,2
Government Wash,36.13089,-114.836914,Boulder City,Nevada,National Park,FREE,4,2
Boxcar Cove,36.13033,-114.7839,Boulder City,Nevada,National Park,FREE,4,2
The Orleans Hotel & Casino,36.105667,-115.20029,Las Vegas,Nevada,Parking Lot,FREE,4,2
Forest Road 88 Dispersed,36.07108,-107.00957,Cuba,New Mexico,National Forest,FREE,4,2
Mills Canyon Rim Campground,36.070564,-104.34892,Mills,New Mexico,National Forest,FREE,4,2
Hoover Dam Lodge Hotel & Casino,36.008186,-114.78318,Boulder City,Nevada,Parking Lot,FREE,4,2
Nacimiento Road,35.98694,-121.48465,Big Sur,California,National Forest,FREE,4,2
Forest Road 302,35.968094,-112.11846,Grand Canyon,Arizona,National Forest,FREE,4,2
Upper Kern River,35.890873,-118.463776,Kernville,California,National Forest,FREE,4,2
Willow Creek Road,35.88702,-121.45917,Big Sur,California,National Forest,FREE,4,2
Camp May Road,35.87951,-106.36093,Los Alamos,New Mexico,National Forest,FREE,4,2
Sam's Throne Recreation Area,35.87903,-93.045105,Mount Judea,Arkansas,National Forest,FREE,4,2
Chimney Creek Campground,35.838917,-118.04303,Inyokern,California,BLM,FREE,4,2
Camel Rock Casino,35.823654,-105.97465,Santa Fe,New Mexico,Parking Lot,FREE,4,2
Victor Road,35.79295,-82.17399,Burnsville,North Carolina,National Forest,FREE,4,2
Horse Thief Camp,35.776524,-115.86347,Tecopa,California,BLM,FREE,4,2
Big Tesuque Campground,35.769234,-105.80923,Santa Fe,New Mexico,National Forest,FREE,4,2
Black Kettle Campground,35.74533,-99.71401,Crawford,Oklahoma,National Forest,FREE,4,2
Sanford-Yake Campground,35.70694,-101.560524,Fritch,Texas,National Park,FREE,4,2
Stine Cove Recreation Area,35.679344,-118.40885,Kernville,California,National Forest,FREE,4,2
Walker Pass Campground,35.664257,-118.03789,Onyx,California,BLM,FREE,4,2
Trona Pinnacles,35.619,-117.37,Trona,California,BLM,FREE,4,2
Lucky Star Casino,35.599487,-97.96208,El Reno,Oklahoma,RV Park,FREE,4,2
Plum Creek Campground,35.59665,-101.72937,Fritch,Texas,National Park,FREE,4,2
Silurian Dry Lake Bed,35.52663,-116.17854,Baker,California,BLM,FREE,4,2
Airport Cove,35.480556,-114.66678,Golden Valley,Arizona,National Park,FREE,4,2
Carp Cove,35.476517,-114.660576,Golden Valley,Arizona,National Park,FREE,4,2
Walmart,35.469513,-95.53652,Checotah,Oklahoma,Parking Lot,FREE,4,2
Terrible's Casino Searchlight,35.460438,-114.91745,Searchlight,Nevada,Parking Lot,FREE,4,2
Wolf Ford Horse Camp,35.377193,-82.73869,Brevard,North Carolina,National Forest,FREE,4,2
TV Tower Road,35.345295,-120.643555,Santa Margarita,California,National Forest,FREE,4,2
Walmart,35.31946,-106.57387,Bernalillo,New Mexico,Parking Lot,FREE,4,2
White Cross Memorial,35.315212,-115.55085,Cima,California,National Park,FREE,4,2
Jawbone Canyon OHV Area,35.31497,-118.04445,Cantil,California,BLM,FREE,4,2
Blue Ridge Roadside Campsite,35.308052,-82.908936,Canton,North Carolina,National Forest,FREE,4,2
Cuddeback Road,35.256214,-117.60181,Randsburg,California,BLM,FREE,4,2
Telephone Cove,35.232475,-114.59432,Searchlight,Nevada,National Park,FREE,4,2
Welch Road,35.218536,-112.3775,Williams,Arizona,National Forest,FREE,4,2
Coyote Pass Trailhead,35.205578,-114.09545,Kingman,Arizona,BLM,FREE,4,2
Old Kingman Highway,35.196957,-114.43344,Bullhead City,Arizona,BLM,FREE,4,2
Rasor Road,35.138268,-116.20255,Baker,California,BLM,FREE,4,2
Selby Campground,35.12821,-119.84088,New Cuyama,California,BLM,FREE,4,2
KCL Campground,35.090546,-119.735085,Santa Margarita,California,BLM,FREE,4,2
Pajarito Rest Area Westbound,35.069366,-104.23677,Newkirk,New Mexico,Rest Area,FREE,4,2
Forest Road 462 Dispersed,35.063892,-106.36822,Tijeras,New Mexico,National Forest,FREE,4,2
Avi Resort Casino,35.01807,-114.64181,Laughlin,Nevada,Parking Lot,FREE,4,2
Fisher Landing Recreation Area,34.99998,-76.97687,New Bern,North Carolina,National Forest,FREE,4,2
Cabela's,34.970806,-85.19642,Ringgold,Georgia,Parking Lot,FREE,4,2
Joe Skeen Campground,34.943478,-107.82039,Grants,New Mexico,BLM,FREE,4,2
Siddie Fields,34.929325,-76.79166,Havelock,North Carolina,National Forest,FREE,4,2
Peggy Sue's 50's Diner,34.90174,-116.8843,Yermo,California,Parking Lot,FREE,4,2
Forest Road 525C,34.861298,-111.9442,Sedona,Arizona,National Forest,FREE,4,2
The Main Drag 525,34.833405,-111.90834,Sedona,Arizona,National Forest,FREE,4,2
Sam's Town Tunica,34.817547,-90.41392,Robinsonville,Mississippi,Parking Lot,FREE,4,2
Resorts Casino Tunica,34.815926,-90.42025,Robinsonville,Mississippi,Parking Lot,FREE,4,2
Angel Valley Road,34.811806,-111.89415,Cornville,Arizona,National Forest,FREE,4,2
Crystal Forest Gift Shop Campground,34.79209,-109.891914,Holbrook,Arizona,RV Park,FREE,4,2
Kelbaker Boulders,34.74572,-115.65202,Kelso,California,National Park,FREE,4,2
Needle Mountain Road,34.714,-114.435,Topock,Arizona,BLM,FREE,4,2
Stoddard Valley OHV Area,34.6705,-117.11,Apple Valley,California,BLM,FREE,4,2
Thousand Trails Road,34.66859,-111.96166,Cottonwood,Arizona,National Forest,FREE,4,2
Cedar Fourche Campground,34.663,-93.286,Jessieville,Arkansas,Army Corps Of Engineers,FREE,4,2
Lone Tree,34.626564,-114.327736,Lake Havasu City,Arizona,BLM,FREE,4,2
Cherry Creek Road,34.60229,-111.92986,Camp Verde,Arizona,National Forest,FREE,4,2
Heart of the Mojave East,34.594055,-114.63363,Needles,California,BLM,FREE,4,2
Craggy Wash,34.593483,-114.36189,Lake Havasu City,Arizona,BLM,FREE,4,2
Thumb Butte Loop,34.514133,-112.556854,Prescott,Arizona,National Forest,FREE,4,2
Copper Basin Road,34.507206,-112.51867,Prescott,Arizona,National Forest,FREE,4,2
Cougar Buttes Dispersed,34.49231,-116.82525,Lucerne Valley,California,BLM,FREE,4,2
Bannie Mine Road,34.487648,-112.367676,Prescott,Arizona,National Forest,FREE,4,2
Welcome to Havasu,34.451042,-114.244194,Lake Havasu City,Arizona,State Trust Land,FREE,4,2
Senator Highway,34.449306,-112.43646,Prescott,Arizona,National Forest,FREE,4,2
Bosque Redondo Park,34.43176,-104.21298,Fort Sumner,New Mexico,City Park,FREE,4,2
Grover Spring Canyon,34.358486,-110.3401,Show Low,Arizona,National Forest,FREE,4,2
Bloody Basin Road,34.298157,-112.14003,Mayer,Arizona,BLM,FREE,4,2
Alamo Lake Wildlife Area,34.264065,-113.55599,Wenden,Arizona,Dept. Fish & Wildlife,FREE,4,2
San Lorenzo Canyon Recreation Area,34.243656,-106.99407,Lemitar,New Mexico,BLM,FREE,4,2
Walmart,34.243626,-111.324005,Payson,Arizona,Parking Lot,FREE,4,2
Red Cloud Campground,34.190155,-105.72563,Corona,New Mexico,National Forest,FREE,4,2
Ghost Town Road,34.188393,-112.855774,Congress,Arizona,BLM,FREE,4,2
Vidal Junction,34.18773,-114.57134,Vidal,California,BLM,FREE,4,2
Kentuck Springs,34.175514,-112.27675,Crown King,Arizona,National Forest,FREE,4,2
Joshua Tree North,34.16578,-116.22872,Joshua Tree,California,BLM,FREE,4,2
Walmart,34.133774,-116.38552,Yucca Valley,California,Parking Lot,FREE,4,2
Shea Road,34.130486,-114.170944,Parker,Arizona,BLM,FREE,4,2
Tortoise Rock Casino,34.119987,-116.05079,Twentynine Palms,California,Parking Lot,FREE,4,2
Rock Springs Cafe,34.048634,-112.149345,Rock Springs,Arizona,Parking Lot,FREE,4,2
Water Canyon Campground,34.024403,-107.13334,Magdalena,New Mexico,National Forest,FREE,4,2
Little Pan Staging Area,34.00416,-112.1613,New River,Arizona,BLM,FREE,4,2
Whitewater Preserve,33.98932,-116.65587,Whitewater,California,Unknown/Other,FREE,4,2
San Antonio Bosque Park,33.91988,-106.85444,San Antonio,New Mexico,Dept. Fish & Wildlife,FREE,4,2
Vulture Peak,33.91795,-112.796906,Wickenburg,Arizona,BLM,FREE,4,2
Box Wash,33.879097,-112.822105,Wickenburg,Arizona,BLM,FREE,4,2
Boone Park,33.878544,-97.64577,Nocona,Texas,County Park,FREE,4,2
Boulders OHV Area,33.8429,-112.44154,Peoria,Arizona,BLM,FREE,4,2
Apache Creek Campground,33.82887,-108.627266,Reserve,New Mexico,National Forest,FREE,4,2
Vicksburg,33.747917,-113.74781,Salome,Arizona,BLM,FREE,4,2
Fantasy Springs Resort Casino,33.72428,-116.19571,Indio,California,Parking Lot,FREE,4,2
Spotlight 29 Casino,33.71377,-116.18557,Coachella,California,Parking Lot,FREE,4,2
Hi Jolly,33.70948,-114.21581,Quartzsite,Arizona,BLM,FREE,4,2
Joshua Tree South,33.67422,-115.80271,Chiriaco Summit,California,BLM,FREE,4,2
Scaddan Wash,33.66616,-114.18744,Quartzsite,Arizona,BLM,FREE,4,2
Chiriaco Summit-Patton Museum,33.66339,-115.7232,Chiriaco Summit,California,Private Property,FREE,4,2
Thomas Mountain Road,33.656567,-116.668884,Mountain Center,California,National Forest,FREE,4,2
Mitchell Mine Road,33.65084,-114.14596,Quartzsite,Arizona,BLM,FREE,4,2
Dome Rock Mountain,33.64934,-114.27997,Quartzsite,Arizona,BLM,FREE,4,2
Tom Wells Road,33.61993,-114.43386,Ehrenberg,Arizona,BLM,FREE,4,2
Tool Box Springs Campground,33.611706,-116.66145,Mountain Center,California,National Forest,FREE,4,2
State Trailer RV & Outdoor Supply,33.583527,-112.235504,Peoria,Arizona,Dump Station,FREE,4,2
Roadrunner,33.58106,-114.22073,Quartzsite,Arizona,BLM,FREE,4,2
Levelland City RV Park,33.55316,-102.37487,Levelland,Texas,City Park,FREE,4,2
Baca Campground,33.53958,-105.35988,Lincoln,New Mexico,National Forest,FREE,4,2
Levee Road,33.51596,-114.56087,Ehrenberg,Arizona,BLM,FREE,4,2
Rob Jaggers Camping Area,33.51435,-105.51081,Fort Stanton,New Mexico,BLM,FREE,4,2
Upper Bonito Dispersed Recreation Area,33.46798,-105.78559,Nogal,New Mexico,National Forest,FREE,4,2
Pechanga Casino,33.453266,-117.10115,Temecula,California,Parking Lot,FREE,4,2
Walmart,33.45068,-104.52483,Roswell,New Mexico,Parking Lot,FREE,4,2
Millers Creek Reservoir,33.41979,-99.37937,Seymour,Texas,Dept. Fish & Wildlife,FREE,4,2
Jeff Busby Campground,33.417065,-89.268906,Ackerman,Mississippi,National Park,FREE,4,2
Red Earth Casino,33.35122,-116.01881,Salton Sea Beach,California,Dump Station,FREE,4,2
Salton City Dry Camp Area,33.331646,-115.95036,Salton City,California,Campground,FREE,4,2
Monticello Point Road,33.327454,-107.26994,Truth or Consequences,New Mexico,BLM,FREE,4,2
Hart Mine Road,33.30451,-114.62119,Cibola,Arizona,BLM,FREE,4,2
Rockhouse,33.297836,-116.286736,Borrego Springs,California,State Park,FREE,4,2
Peg Leg,33.29497,-116.29755,Borrego Springs,California,State Park,FREE,4,2
Buckeye Hills Regional Park,33.280132,-112.64179,Buckeye,Arizona,County Park,FREE,4,2
Randolph Rampy Park,33.258915,-103.31179,Tatum,New Mexico,City Park,FREE,4,2
Arnett Road,33.25408,-111.11143,Superior,Arizona,National Forest,FREE,4,2
Upper Scorpion Campground,33.23049,-108.2609,Silver City,New Mexico,National Forest,FREE,4,2
Culp Valley,33.223156,-116.45581,Borrego Springs,California,State Park,FREE,4,2
Coleman RV Park,33.17218,-102.27607,Brownfield,Texas,City Park,FREE,4,2
Santee Coastal Reserve Wildlife Management Area,33.15381,-79.366776,McClellanville,South Carolina,Dept. Natural Resources,FREE,4,2
Quarry Road Camping Area,33.1534,-116.15802,Ocotillo Wells,California,State Park,FREE,4,2
Yaqui Pass Camp,33.148926,-116.34915,Borrego Springs,California,State Park,FREE,4,2
Black Jack Campground,33.059402,-109.080124,Clifton,Arizona,National Forest,FREE,4,2
Forest Road 568,32.972775,-105.73651,Cloudcroft,New Mexico,National Forest,FREE,4,2
Walmart,32.963417,-115.546616,Brawley,California,Parking Lot,FREE,4,2
James Canyon Campground,32.904743,-105.5051,Mayhill,New Mexico,National Forest,FREE,4,2
Off Ogilby Road,32.855755,-114.83557,Winterhaven,California,BLM,FREE,4,2
South Carrizo Creek,32.848293,-116.190735,Julian,California,State Park,FREE,4,2
Viejas Casino,32.841915,-116.70345,Alpine,California,Parking Lot,FREE,4,2
American Girl Mine Road,32.83683,-114.81199,Winterhaven,California,BLM,FREE,4,2
Bluff Springs,32.83115,-105.73727,Cloudcroft,New Mexico,National Forest,FREE,4,2
Carrizo Badlands Overlook,32.828712,-116.16727,Julian,California,State Park,FREE,4,2
Mittry Lake Wildlife Area,32.81985,-114.47007,Yuma,Arizona,BLM,FREE,4,2
Lake Holloman,32.807816,-106.122375,Holloman Air Force Base,New Mexico,Unknown/Other,FREE,4,2
Painted Gorge Road,32.801476,-115.96213,Ocotillo,California,BLM,FREE,4,2
Sycuan Casino,32.786644,-116.82843,El Cajon,California,Parking Lot,FREE,4,2
Pilot Knob 14-Day Area,32.74358,-114.78034,Winterhaven,California,BLM,FREE,4,2
Quechan Casino Resort,32.73923,-114.72125,Winterhaven,California,Parking Lot,FREE,4,2
Yuma VFW,32.729115,-114.423035,Yuma,Arizona,BLM,FREE,4,2
Fortuna Pond,32.723732,-114.45548,Yuma,Arizona,BLM,FREE,4,2
Ligurta Parking Area Westbound,32.66717,-114.2811,Wellton,Arizona,Rest Area,FREE,4,2
Hog Canyon,32.5767,-109.85268,Safford,Arizona,National Forest,FREE,4,2
Seabee Park,32.542248,-99.7093,Abilene,Texas,City Park,FREE,4,2
Eastland Rest Area Westbound,32.490738,-98.55193,Strawn,Texas,Rest Area,FREE,4,2
Rough Creek Park,32.418446,-97.78668,Granbury,Texas,County Park,FREE,4,2
Pipeline Road,32.374672,-111.38824,Marana,Arizona,BLM,FREE,4,2
Darby Well Road,32.33927,-112.84948,Ajo,Arizona,BLM,FREE,4,2
Walmart,32.316067,-106.750656,Las Cruces,New Mexico,Parking Lot,FREE,4,2
Walmart,32.289135,-106.7839,Las Cruces,New Mexico,Parking Lot,FREE,4,2
Las Cruces Overlook Rest Area,32.281013,-106.86632,Las Cruces,New Mexico,Rest Area,FREE,4,2
Gunsight Wash,32.2395,-112.75081,Why,Arizona,BLM,FREE,4,2
Fence Canyon,32.20498,-104.33297,Carlsbad,New Mexico,BLM,FREE,4,2
Desert Diamond Casino,32.11549,-110.96242,Tucson,Arizona,Parking Lot,FREE,4,2
Cracker Barrel,32.11307,-81.23635,Pooler,Georgia,Parking Lot,FREE,4,2
Parks Ranch Campground,32.109745,-104.40701,Carlsbad,New Mexico,BLM,FREE,4,2
Mile 10 Dispersed,32.104584,-104.42442,Carlsbad,New Mexico,BLM,FREE,4,2
Jal Lake Park,32.101105,-103.187904,Jal,New Mexico,City Park,FREE,4,2
Tinkle Park,32.01986,-94.43666,Gary City,Texas,County Park,FREE,4,2
Cracker Barrel,32.004868,-81.27726,Savannah,Georgia,Parking Lot,FREE,4,2
Love's Travel Stop,31.96284,-110.345146,Benson,Arizona,Parking Lot,FREE,4,2
Culberson County Rest Area,31.960457,-104.680176,Pine Springs,Texas,Rest Area,FREE,4,2
West Ironwood Road,31.939556,-109.9612,Cochise,Arizona,National Forest,FREE,4,2
Hill Country Rest Area Southbound,31.9255,-97.10337,Hillsboro,Texas,Rest Area,FREE,4,2
Walmart,31.7796,-85.9382,Troy,Alabama,Parking Lot,FREE,4,2
Walmart,31.77622,-106.38548,El Paso,Texas,Parking Lot,FREE,4,2
Road Canyon Camping Area,31.739395,-110.58535,Elgin,Arizona,BLM,FREE,4,2
Proctor Road,31.73905,-110.88995,Green Valley,Arizona,National Forest,FREE,4,2
Buenos Aires National Wildlife Refuge,31.635132,-111.442116,Sasabe,Arizona,Dept. Fish & Wildlife,FREE,4,2
Natchez Tourism Department,31.554258,-91.41306,Natchez,Mississippi,Parking Lot,FREE,4,2
Custis Camp,31.542,-93.026,Natchitoches,Louisiana,National Forest,FREE,4,2
Barrington County Park,31.471678,-81.60675,Townsend,Georgia,County Park,FREE,4,2
Lake Limestone Public Use Area #3,31.448051,-96.3778,Groesbeck,Texas,County Park,FREE,4,2
Lake Limestone Public Use Area #2,31.431992,-96.37583,Groesbeck,Texas,County Park,FREE,4,2
Lake Limestone Park,31.33955,-96.30841,Marquez,Texas,County Park,FREE,4,2
Wind Creek Casino & Hotel,31.100948,-87.48411,Atmore,Alabama,Parking Lot,FREE,4,2
Ahtus Melder Camp,31.08374,-92.57936,Forest Hill,Louisiana,National Forest,FREE,4,2
Texas 17 Picnic Area,30.99493,-103.66207,Saragosa,Texas,Rest Area,FREE,4,2
Walmart,30.894932,-102.907196,Fort Stockton,Texas,Parking Lot,FREE,4,2
I-10 Rest Area Eastbound,30.861902,-102.082726,Iraan,Texas,Parking Lot,FREE,4,2
I-10 Rest Area Westbound,30.855879,-102.070015,Iraan,Texas,Rest Area,FREE,4,2
Cotton Lake Recreation Area,30.784704,-87.31427,Molino,Florida,Northwest Florida Water Management District,FREE,4,2
Sonora Rest Area Westbound,30.615229,-100.74283,Sonora,Texas,Dump Station,FREE,4,2
Dead River Landing Recreation Area,30.541756,-85.890915,Ponce De Leon,Florida,Northwest Florida Water Management District,FREE,4,2
Sherburne Shooting Range,30.515991,-91.71635,Krotz Springs,Louisiana,Dept. Fish & Wildlife,FREE,4,2
Whiskey Bay Highway,30.457678,-91.72923,Krotz Springs,Louisiana,Dept. Fish & Wildlife,FREE,4,2
Cracker Barrel,30.43933,-88.53032,Moss Point,Mississippi,Parking Lot,FREE,4,2
Segovia Truck Stop & Restaurant,30.417013,-99.67228,Junction,Texas,Parking Lot,FREE,4,2
Point Cadet Park,30.391562,-88.85879,Biloxi,Mississippi,City Park,FREE,4,2
Atchafalaya Welcome Center,30.341387,-91.7221,Breaux Bridge,Louisiana,Rest Area,FREE,4,2
Hancock County Welcome Center,30.310963,-89.60083,Pearlington,Mississippi,Rest Area,FREE,4,2
Walmart,30.263588,-82.10806,Macclenny,Florida,Parking Lot,FREE,4,2
Cobb Hunt Camp,30.24557,-82.41197,Sanderson,Florida,National Forest,FREE,4,2
Isle of Capri Casino,30.236433,-93.248436,Lake Charles,Louisiana,Parking Lot,FREE,4,2
Gillespie County Rest Area,30.235874,-98.60937,Stonewall,Texas,Rest Area,FREE,4,2
Delta Downs Racetrack Casino & Hotel,30.196325,-93.62124,Vinton,Louisiana,Parking Lot,FREE,4,2
Walmart,30.07555,-95.62685,Tomball,Texas,Parking Lot,FREE,4,2
Elephant Mountain WMA,30.035748,-103.56787,Alpine,Texas,Dept. Fish & Wildlife,FREE,4,2
Wood Lake Recreation Area,30.02621,-84.56582,Sopchoppy,Florida,National Forest,FREE,4,2
Bonnet Carre Spillway Campground,30.0213,-90.40897,Norco,Louisiana,Army Corps Of Engineers,FREE,4,2
Walmart,29.856596,-81.32392,St. Augustine,Florida,Parking Lot,FREE,4,2
I-10 Rest Area Eastbound,29.836615,-94.6083,Anahuac,Texas,Rest Area,FREE,4,2
Holly Beach,29.769968,-93.459335,Cameron,Louisiana,Dept. Fish & Wildlife,FREE,4,2
Fort Anahuac Park,29.755758,-94.68772,Anahuac,Texas,County Park,FREE,4,2
Highway 90 Picnic Area,29.705921,-101.35287,Comstock,Texas,Parking Lot,FREE,4,2
Cracker Barrel,29.519342,-98.48441,San Antonio,Texas,Parking Lot,FREE,4,2
Rollover Pass,29.509384,-94.499916,Bolivar Peninsula,Texas,County Park,FREE,4,2
Walmart,29.394722,-100.90176,Del Rio,Texas,Parking Lot,FREE,4,2
Magnolia Beach,28.559856,-96.53705,Port Lavaca,Texas,County Park,FREE,4,2
Cypress Creek Preserve,28.23821,-82.43053,Land O Lakes,Florida,Southwest Florida Water Management District,FREE,4,2
Alston Tract,28.174099,-82.118996,Zephyrhills,Florida,Southwest Florida Water Management District,FREE,4,2
Three Lakes Wildlife Management Area,27.951649,-81.14159,Kenansville,Florida,Dept. Fish & Wildlife,FREE,4,2
Town of KICCO Campground,27.669071,-81.14538,River Ranch,Florida,South Florida Water Management District,FREE,4,2
Hickory Hammock Campground,27.447838,-81.17713,Lorida,Florida,South Florida Water Management District,FREE,4,2
Istokpoga Canal Boat Ramp Area,27.401186,-81.160385,Lorida,Florida,South Florida Water Management District,FREE,4,2
Hammock Campground,26.499397,-81.13083,Clewiston,Florida,Dept. Fish & Wildlife,FREE,4,2
Seminole Casino Hotel Immokalee,26.409927,-81.41352,Immokalee,Florida,Parking Lot,FREE,4,2
Miccosukee Resort & Gaming,25.764204,-80.48398,Miami,Florida,Parking Lot,FREE,4,2
Chevron Gas Station,63.334915,-142.9852,Tok,Alaska,Parking Lot,FREE,3,1.5
Copper River Campground,61.528538,-144.40372,Chitina,Alaska,Dept. Fish & Wildlife,FREE,3,1.5
Knik River Public Use Area,61.506176,-149.03844,Palmer,Alaska,Dept. Natural Resources,FREE,3,1.5
Cabela's,61.127415,-149.88144,Anchorage,Alaska,Parking Lot,FREE,3,1.5
Swanson River Campground,60.74357,-150.8013,Kenai,Alaska,Dept. Fish & Wildlife,FREE,3,1.5
Dolly Varden Lake Campground,60.70082,-150.79807,Kenai,Alaska,Dept. Fish & Wildlife,FREE,3,1.5
Fred Meyer,60.488365,-151.05025,Soldotna,Alaska,Parking Lot,FREE,3,1.5
Treasure Cove Casino,53.89454,-122.7622,Prince George,British Columbia,Parking Lot,FREE,3,1.5
Casino Lethbridge,49.696217,-112.78392,Lethbridge,Alberta,Parking Lot,FREE,3,1.5
3rd Street West Overnight Parking,49.320156,-123.099976,North Vancouver,British Columbia,Parking Lot,FREE,3,1.5
Silver Reef Casino,48.81632,-122.62706,Ferndale,Washington,Parking Lot,FREE,3,1.5
North Fork Road,48.49999,-114.13357,Columbia Falls,Montana,National Forest,FREE,3,1.5
Canyon Creek,48.464035,-114.16759,Columbia Falls,Montana,National Forest,FREE,3,1.5
Napeequa Crossing Campground,47.91987,-120.89448,Leavenworth,Washington,National Forest,FREE,3,1.5
Quinault Ridge Road Dispersed,47.34805,-123.90545,Quinault,Washington,National Forest,FREE,3,1.5
Muckleshoot Casino,47.28905,-122.19344,Auburn,Washington,Parking Lot,FREE,3,1.5
The Helipad Dispersed,47.247097,-120.68873,Liberty,Washington,BLM,FREE,3,1.5
Cabela's,47.062267,-122.78717,Lacey,Washington,Parking Lot,FREE,3,1.5
Porter Creek Campground,46.978,-123.256,Elma,Washington,Dept. Natural Resources,FREE,3,1.5
Lyle Lake,46.895283,-119.20287,Othello,Washington,Dept. Fish & Wildlife,FREE,3,1.5
Latah County Fairgrounds,46.72441,-116.98379,Moscow,Idaho,County Park,FREE,3,1.5
Shelldrake Dam,46.713,-85.064,Paradise,Michigan,Dept. Natural Resources,FREE,3,1.5
Yakama Legends Casino,46.37454,-120.34031,Toppenish,Washington,Parking Lot,FREE,3,1.5
Indian Road Campground,46.33364,-111.52838,Townsend,Montana,Bureau of Reclamation,FREE,3,1.5
Manuel Lisa,46.14459,-107.46467,Custer,Montana,Dept. Fish & Wildlife,FREE,3,1.5
Toston Dam Campground,46.121758,-111.40895,Toston,Montana,BLM,FREE,3,1.5
Falls Creek Falls Camping Area,45.894814,-121.94978,Carson,Washington,National Forest,FREE,3,1.5
St. Ignace Welcome Center,45.849808,-84.72309,Saint Ignace,Michigan,Rest Area,FREE,3,1.5
Grant Marsh,45.843426,-107.58357,Hardin,Montana,Dept. Fish & Wildlife,FREE,3,1.5
Walmart,45.69536,-111.04485,Bozeman,Montana,Parking Lot,FREE,3,1.5
Two Leggins,45.64479,-107.6592,Hardin,Montana,Dept. Fish & Wildlife,FREE,3,1.5
Potosi Campground,45.572044,-111.9146,Harrison,Montana,National Forest,FREE,3,1.5
French Prairie Rest Area Southbound,45.273155,-122.7762,Aurora,Oregon,Rest Area,FREE,3,1.5
Walmart,44.517075,-109.08897,Cody,Wyoming,Parking Lot,FREE,3,1.5
Spirit Mountain Road,44.50314,-109.1356,Cody,Wyoming,BLM,FREE,3,1.5
Weiser Sand Dunes,44.297493,-117.20849,Weiser,Idaho,BLM,FREE,3,1.5
Wheel Gulch,44.257256,-117.13741,Huntington,Oregon,BLM,FREE,3,1.5
Nip & Tuck Road,44.24843,-114.97149,Stanley,Idaho,National Forest,FREE,3,1.5
Forest Road 210,44.166466,-114.89765,Stanley,Idaho,National Forest,FREE,3,1.5
Conklin Road,43.990437,-121.41332,Bend,Oregon,National Forest,FREE,3,1.5
Warm Springs Canyon,43.673195,-114.43011,Ketchum,Idaho,National Forest,FREE,3,1.5
Arrowrock Reservoir Dispersed,43.615013,-115.831215,Boise,Idaho,National Forest,FREE,3,1.5
Hell's Half Acre Trailhead,43.5538,-112.44204,Idaho Falls,Idaho,BLM,FREE,3,1.5
Cy Bingham County Park,43.465305,-121.69983,Crescent,Oregon,County Park,FREE,3,1.5
Little Camas Reservoir,43.348,-115.392,Mountain Home,Idaho,National Forest,FREE,3,1.5
Corral Springs Campground,43.2526,-121.82237,Chemult,Oregon,National Forest,FREE,3,1.5
Swan Falls Campground,43.23788,-116.37509,Murphy,Idaho,BLM,FREE,3,1.5
Bixby Public Access Area,42.8567,-105.66881,Douglas,Wyoming,Dept. Fish & Wildlife,FREE,3,1.5
Laird Lake Campground,42.70028,-124.20291,Port Orford,Oregon,National Forest,FREE,3,1.5
Portneuf Lower,42.64148,-112.005806,Lava Hot Springs,Idaho,National Forest,FREE,3,1.5
Travelers Oasis Truck Plaza,42.574657,-114.29853,Eden,Idaho,Parking Lot,FREE,3,1.5
Balanced Rock County Park,42.543255,-114.949776,Castleford,Idaho,County Park,FREE,3,1.5
Odessa Campground,42.429962,-122.0613,Klamath Falls,Oregon,National Forest,FREE,3,1.5
Hagelstein Park,42.38293,-121.81284,Chiloquin,Oregon,County Park,FREE,3,1.5
Chautauqua Gorge State Forest,42.240005,-79.58551,Mayville,New York,State Forest,FREE,3,1.5
Lucky 7 Casino,41.958046,-124.20335,Smith River,California,Parking Lot,FREE,3,1.5
Elk Valley Casino,41.75827,-124.152016,Crescent City,California,Parking Lot,FREE,3,1.5
RV Hall of Fame & Musuem,41.729183,-85.88115,Elkhart,Indiana,Parking Lot,FREE,3,1.5
Reservoir C Campground,41.660007,-120.775055,Canby,California,National Forest,FREE,3,1.5
Big Sage Campground,41.579,-120.628,Alturas,California,National Forest,FREE,3,1.5
Twin Lakes Wildlife Management Area,40.82881,-96.94406,Pleasant Dale,Nebraska,Dept. Fish & Wildlife,FREE,3,1.5
Ramhorn Springs Campground,40.70716,-120.25314,Susanville,California,BLM,FREE,3,1.5
Rocky Point West,40.68842,-120.7604,Susanville,California,BLM,FREE,3,1.5
Hollywood Casino at Penn National Race Course,40.395855,-76.6629,Grantville,Pennsylvania,Parking Lot,FREE,3,1.5
Rabbit Ears Pass East,40.38453,-106.620766,Steamboat Springs,Colorado,National Forest,FREE,3,1.5
Diamondback Trailhead Campsite,40.06129,-120.083374,Doyle,California,BLM,FREE,3,1.5
Kremmling Mercantile,40.05991,-106.39973,Kremmling,Colorado,Parking Lot,FREE,3,1.5
West Magnolia Campground,39.94678,-105.51765,Nederland,Colorado,National Forest,FREE,3,1.5
Cottonwood Campground,39.780502,-111.72318,Juab,Utah,National Forest,FREE,3,1.5
Maple Grove Campsite,39.70677,-81.72504,McConnelsville,Ohio,Utility,FREE,3,1.5
Snag Lake Campground,39.668,-120.626,Calpine,California,National Forest,FREE,3,1.5
Atlantis Casino Resort,39.488773,-119.797844,Reno,Nevada,Parking Lot,FREE,3,1.5
Hickison Petroglyph Recreation Area,39.44934,-116.751366,Austin,Nevada,BLM,FREE,3,1.5
Old Mill Campground,39.309,-122.645,Stonyford,California,National Forest,FREE,3,1.5
18 Road,39.29707,-108.70764,Fruita,Colorado,BLM,FREE,3,1.5
Coyote Valley Casino,39.252094,-123.20698,Redwood Valley,California,Parking Lot,FREE,3,1.5
25 Road,39.173187,-108.57011,Grand Junction,Colorado,BLM,FREE,3,1.5
Mayacmas Campground,39.156967,-123.092285,Ukiah,California,BLM,FREE,3,1.5
South Fork South Platte River,39.08585,-106.14177,Buena Vista,Colorado,National Forest,FREE,3,1.5
Indian Valley Reservoir Campground,39.082634,-122.53209,Clearlake Oaks,California,County Park,FREE,3,1.5
Wildhorn,39.055,-105.253,Divide,Colorado,National Forest,FREE,3,1.5
Walmart,38.923714,-119.72298,Gardnerville,Nevada,Parking Lot,FREE,3,1.5
Elephant Rock,38.88483,-106.15247,Buena Vista,Colorado,BLM,FREE,3,1.5
Mushroom Gulch,38.837917,-106.00187,Buena Vista,Colorado,BLM,FREE,3,1.5
Sheep Creek Road,38.790268,-111.68284,Salina,Utah,National Forest,FREE,3,1.5
Walmart,38.70511,-120.830185,Diamond Springs,California,Parking Lot,FREE,3,1.5
Red Hawk Casino,38.69341,-120.90492,Placerville,California,Parking Lot,FREE,3,1.5
Hermit Valley Campground,38.538513,-119.897736,Arnold,California,National Forest,FREE,3,1.5
El Capitan Lodge & Casino,38.525356,-118.62221,Hawthorne,Nevada,Parking Lot,FREE,3,1.5
Flat Top OHV Recreation Area,38.52195,-107.85944,Montrose,Colorado,BLM,FREE,3,1.5
Luning Rest Area,38.50622,-118.17861,Luning,Nevada,Rest Area,FREE,3,1.5
Lions Club RV Park,38.40352,-113.01426,Milford,Utah,RV Park,FREE,3,1.5
Caineville Reef,38.339,-111.031,Torrey,Utah,BLM,FREE,3,1.5
Bristol Pass,38.11948,-114.6286,Pioche,Nevada,BLM,FREE,3,1.5
Pilot Travel Center,38.019524,-79.14287,Staunton,Virginia,Parking Lot,FREE,3,1.5
Fish Lake Valley Hot Well,37.86021,-117.9839,Dyer,Nevada,County Park,FREE,3,1.5
Woodson State Fishing Lake,37.791275,-95.843834,Yates Center,Kansas,Dept. Fish & Wildlife,FREE,3,1.5
Dodge City Roadside Park,37.779594,-99.9047,Dodge City,Kansas,City Park,FREE,3,1.5
Lake Mauzy East,37.615986,-87.85468,Morganfield,Kentucky,Dept. Fish & Wildlife,FREE,3,1.5
Jerseydale Campground,37.54509,-119.8385,Mariposa,California,National Forest,FREE,3,1.5
Upper Chiquito Campground,37.502,-119.409,Madera,California,National Forest,FREE,3,1.5
Casa Diablo Road,37.436283,-118.43028,Bishop,California,BLM,FREE,3,1.5
Casa Diablo Cliff Side,37.426537,-118.42148,Bishop,California,BLM,FREE,3,1.5
Cliff Camp,37.397152,-108.82154,Cortez,Colorado,BLM,FREE,3,1.5
Lava Point Campground,37.383698,-113.03278,Springdale,Utah,National Park,FREE,3,1.5
Walmart,37.3481,-108.56163,Cortez,Colorado,Parking Lot,FREE,3,1.5
Forest Road 665 Gravel Pit,37.270924,-106.88064,Pagosa Springs,Colorado,National Forest,FREE,3,1.5
Dalton Wash Road,37.227222,-113.11499,Virgin,Utah,BLM,FREE,3,1.5
Elk Creek Trail,37.118294,-106.377014,Antonito,Colorado,National Forest,FREE,3,1.5
Cedar Pocket Pass,36.956863,-113.801926,Littlefield,Arizona,BLM,FREE,3,1.5
Camp 4 Campground,36.856846,-119.10759,Squaw Valley,California,National Forest,FREE,3,1.5
Big Meadows Campground,36.721,-118.82,Hume,California,National Forest,FREE,3,1.5
Panoche Hills,36.712452,-120.86252,Firebaugh,California,BLM,FREE,3,1.5
I-65 Rest Area Northbound,36.64368,-86.5682,Franklin,Kentucky,Parking Lot,FREE,3,1.5
Amargosa Valley Rest Area,36.64305,-116.40018,Amargosa Valley,Nevada,Parking Lot,FREE,3,1.5
Drury-Mincy Conservation Area,36.553074,-93.10815,Kirbyville,Missouri,Dept. Fish & Wildlife,FREE,3,1.5
Thompson Grove Picnic Area,36.414925,-102.805824,Dalhart,Texas,National Forest,FREE,3,1.5
Taos Junction Dispersed,36.36035,-105.89397,Ojo Caliente,New Mexico,National Forest,FREE,3,1.5
Champion Road,36.341984,-115.64828,Las Vegas,Nevada,National Forest,FREE,3,1.5
Cordell Hull Dispersed,36.316677,-85.79324,Granville,Tennessee,Army Corps Of Engineers,FREE,3,1.5
Tachi Palace Hotel & Casino,36.238876,-119.76437,Lemoore,California,Parking Lot,FREE,3,1.5
Walmart,36.227074,-119.32928,Tulare,California,Parking Lot,FREE,3,1.5
Crawdad Cove,36.1281,-114.79677,Boulder City,Nevada,National Park,FREE,3,1.5
Los Alamos Overlook,35.878757,-106.347176,Los Alamos,New Mexico,National Forest,FREE,3,1.5
American Spring Dispersed,35.83397,-106.37553,Los Alamos,New Mexico,National Forest,FREE,3,1.5
Jean Roach Dry Lake Bed,35.76861,-115.26632,Jean,Nevada,BLM,FREE,3,1.5
Hanning Flat Dispersed Area,35.677807,-118.3703,Kernville,California,National Forest,FREE,3,1.5
Black Gulch Dispersed Area,35.595802,-118.52318,Bodfish,California,National Forest,FREE,3,1.5
Walmart,35.52682,-108.76934,Gallup,New Mexico,Parking Lot,FREE,3,1.5
Breckenridge Campground,35.466827,-118.58294,Havilah,California,National Forest,FREE,3,1.5
River Ridge,35.443356,-94.071434,Cecil,Arkansas,Army Corps Of Engineers,FREE,3,1.5
Pigeon River Roadside Campsite,35.377327,-82.94073,Canton,North Carolina,National Forest,FREE,3,1.5
Black Tank Wash,35.200424,-115.871895,Baker,California,National Park,FREE,3,1.5
Riverside Casino Resort,35.16522,-114.57234,Laughlin,Nevada,Parking Lot,FREE,3,1.5
Pioneer Hotel & Gambling Hall,35.15613,-114.57421,Laughlin,Nevada,Parking Lot,FREE,3,1.5
Golden Nugget Casino,35.15421,-114.57588,Laughlin,Nevada,Parking Lot,FREE,3,1.5
Walmart,35.126152,-107.82567,Grants,New Mexico,Parking Lot,FREE,3,1.5
Miranda Pine Campground,35.035275,-120.03731,Santa Barbara,California,National Forest,FREE,3,1.5
Ammons Branch Campground,35.02169,-83.144485,Highlands,North Carolina,National Forest,FREE,3,1.5
Chevron Gas Station,34.93687,-110.13185,Holbrook,Arizona,Parking Lot,FREE,3,1.5
Dagmar WMA Dispersed #7,34.875835,-91.32534,Brinkley,Arkansas,Dept. Fish & Wildlife,FREE,3,1.5
Great Lake Boat Launch,34.85978,-77.05237,Havelock,North Carolina,National Forest,FREE,3,1.5
Oatman-Topock Dispersed,34.801804,-114.46949,Topock,Arizona,BLM,FREE,3,1.5
Forest Road 689,34.69741,-111.72399,Rimrock,Arizona,National Forest,FREE,3,1.5
Silverton Municipal Park,34.47389,-101.30683,Silverton,Texas,City Park,FREE,3,1.5
Standard Wash,34.4345,-114.21708,Lake Havasu City,Arizona,BLM,FREE,3,1.5
Atoka Lake Dispersed Camping Area,34.433147,-96.09285,Atoka,Oklahoma,Dept. Natural Resources,FREE,3,1.5
Giant Rock,34.330154,-116.38823,Landers,California,BLM,FREE,3,1.5
Pie Town,34.29625,-108.12308,Pie Town,New Mexico,BLM,FREE,3,1.5
Badger Springs,34.231895,-112.10199,Black Canyon City,Arizona,BLM,FREE,3,1.5
Mazatzal Hotel & Casino,34.219116,-111.32997,Payson,Arizona,Parking Lot,FREE,3,1.5
Walmart,34.201523,-110.01745,Show Low,Arizona,Parking Lot,FREE,3,1.5
Scott Reservoir Campground,34.175953,-109.9605,Lakeside,Arizona,National Forest,FREE,3,1.5
Los Burros Campground,34.141403,-109.777565,McNary,Arizona,National Forest,FREE,3,1.5
Sophie Flats,33.99387,-112.681816,Wickenburg,Arizona,BLM,FREE,3,1.5
Table Mesa Trailhead Area,33.986492,-112.16984,New River,Arizona,BLM,FREE,3,1.5
Morongo Casino Resort,33.92188,-116.79315,Cabazon,California,Parking Lot,FREE,3,1.5
Castle Hot Springs Road,33.878654,-112.33056,Morristown,Arizona,BLM,FREE,3,1.5
Crystal Hill,33.52387,-114.11665,Quartzsite,Arizona,Dept. Fish & Wildlife,FREE,3,1.5
Cedar Creek Recreation Area,33.36768,-105.719955,Ruidoso,New Mexico,National Forest,FREE,3,1.5
Bighorn Campground,33.32385,-108.8829,Glenwood,New Mexico,National Forest,FREE,3,1.5
Arroyo Salado,33.28296,-116.15224,Borrego Springs,California,State Park,FREE,3,1.5
Wild Horse Pass Hotel & Casino,33.282356,-111.97665,Chandler,Arizona,Parking Lot,FREE,3,1.5
Slab City,33.25452,-115.47391,Niland,California,Unknown/Other,FREE,3,1.5
Lower Scorpion Campground,33.230133,-108.25772,Silver City,New Mexico,National Forest,FREE,3,1.5
