[
  {
    "Name": "University of Virginia-Main Campus",
    "City": "Charlottesville",
    "State": "VA",
    "Zipcode": "22903-2628",
    "Latitude": 38.0365,
    "Longitude": -78.5026,
    "Admission Rate": 0.2999,
    "SAT Average": 1362,
    "ACT Median": 31,
    "Undergrad Population": 13712,
    "In-state Tuition": 12668,
    "Out-of-state Tuition": 40054,
    "Tuition Difference": 27386,
    "Diff Percent": 316.18,
    "yikyak": "https://www.yikyak.com/map?lat=38.0365&long=-78.5026"
  },
  {
    "Name": "University of Michigan-Ann Arbor",
    "City": "Ann Arbor",
    "State": "MI",
    "Zipcode": 48109,
    "Latitude": 42.2761,
    "Longitude": -83.7431,
    "Admission Rate": 0.3326,
    "SAT Average": 1352,
    "ACT Median": 30,
    "Undergrad Population": 24412,
    "In-state Tuition": 13142,
    "Out-of-state Tuition": 40392,
    "Tuition Difference": 27250,
    "Diff Percent": 307.35,
    "yikyak": "https://www.yikyak.com/map?lat=42.2761&long=-83.7431"
  },
  {
    "Name": "The University of Texas at Austin",
    "City": "Austin",
    "State": "TX",
    "Zipcode": 78712,
    "Latitude": 30.2847,
    "Longitude": -97.7373,
    "Admission Rate": 0.4019,
    "SAT Average": 1262,
    "ACT Median": 28,
    "Undergrad Population": 38162,
    "In-state Tuition": 9798,
    "Out-of-state Tuition": 33842,
    "Tuition Difference": 24044,
    "Diff Percent": 345.4,
    "yikyak": "https://www.yikyak.com/map?lat=30.2847&long=-97.7373"
  },
  {
    "Name": "College of William and Mary",
    "City": "Williamsburg",
    "State": "VA",
    "Zipcode": "23187-8795",
    "Latitude": 37.3095,
    "Longitude": -76.731,
    "Admission Rate": 0.3321,
    "SAT Average": 1358,
    "ACT Median": 30,
    "Undergrad Population": 5585,
    "In-state Tuition": 15463,
    "Out-of-state Tuition": 38440,
    "Tuition Difference": 22977,
    "Diff Percent": 248.59,
    "yikyak": "https://www.yikyak.com/map?lat=37.3095&long=-76.731"
  },
  {
    "Name": "University of California-Los Angeles",
    "City": "Los Angeles",
    "State": "CA",
    "Zipcode": "90095-1405",
    "Latitude": 34.0689,
    "Longitude": -118.4439,
    "Admission Rate": 0.2199,
    "SAT Average": 1289,
    "ACT Median": 28,
    "Undergrad Population": 25011,
    "In-state Tuition": 12697,
    "Out-of-state Tuition": 35575,
    "Tuition Difference": 22878,
    "Diff Percent": 280.18,
    "yikyak": "https://www.yikyak.com/map?lat=34.0689&long=-118.4439"
  },
  {
    "Name": "University of California-Berkeley",
    "City": "Berkeley",
    "State": "CA",
    "Zipcode": 94720,
    "Latitude": 37.8715,
    "Longitude": -122.2604,
    "Admission Rate": 0.18,
    "SAT Average": 1350,
    "ACT Median": 30,
    "Undergrad Population": 22678,
    "In-state Tuition": 12864,
    "Out-of-state Tuition": 35742,
    "Tuition Difference": 22878,
    "Diff Percent": 277.85,
    "yikyak": "https://www.yikyak.com/map?lat=37.8715&long=-122.2604"
  },
  {
    "Name": "University of California-Davis",
    "City": "Davis",
    "State": "CA",
    "Zipcode": "95616-8678",
    "Latitude": 38.5399,
    "Longitude": -121.752,
    "Admission Rate": 0.4521,
    "SAT Average": 1192,
    "ACT Median": 26,
    "Undergrad Population": 20388,
    "In-state Tuition": 13895,
    "Out-of-state Tuition": 36773,
    "Tuition Difference": 22878,
    "Diff Percent": 264.65,
    "yikyak": "https://www.yikyak.com/map?lat=38.5399&long=-121.752"
  },
  {
    "Name": "University of California-Santa Barbara",
    "City": "Santa Barbara",
    "State": "CA",
    "Zipcode": 93106,
    "Latitude": 34.4155,
    "Longitude": -119.8481,
    "Admission Rate": 0.4444,
    "SAT Average": 1212,
    "ACT Median": 27,
    "Undergrad Population": 17538,
    "In-state Tuition": 13746,
    "Out-of-state Tuition": 36624,
    "Tuition Difference": 22878,
    "Diff Percent": 266.43,
    "yikyak": "https://www.yikyak.com/map?lat=34.4155&long=-119.8481"
  },
  {
    "Name": "University of California-San Diego",
    "City": "La Jolla",
    "State": "CA",
    "Zipcode": 92093,
    "Latitude": 32.8766,
    "Longitude": -117.2378,
    "Admission Rate": 0.375,
    "SAT Average": 1276,
    "ACT Median": 28,
    "Undergrad Population": 16496,
    "In-state Tuition": 13271,
    "Out-of-state Tuition": 36149,
    "Tuition Difference": 22878,
    "Diff Percent": 272.39,
    "yikyak": "https://www.yikyak.com/map?lat=32.8766&long=-117.2378"
  },
  {
    "Name": "University of California-Irvine",
    "City": "Irvine",
    "State": "CA",
    "Zipcode": 92697,
    "Latitude": 33.667,
    "Longitude": -117.7686,
    "Admission Rate": 0.4239,
    "SAT Average": 1122,
    "ACT Median": 24,
    "Undergrad Population": 16223,
    "In-state Tuition": 13149,
    "Out-of-state Tuition": 36027,
    "Tuition Difference": 22878,
    "Diff Percent": 273.99,
    "yikyak": "https://www.yikyak.com/map?lat=33.667&long=-117.7686"
  },
  {
    "Name": "University of California-Riverside",
    "City": "Riverside",
    "State": "CA",
    "Zipcode": 92521,
    "Latitude": 33.9759,
    "Longitude": -117.3311,
    "Admission Rate": 0.62,
    "SAT Average": 1078,
    "ACT Median": 23,
    "Undergrad Population": 11436,
    "In-state Tuition": 12960,
    "Out-of-state Tuition": 35838,
    "Tuition Difference": 22878,
    "Diff Percent": 276.53,
    "yikyak": "https://www.yikyak.com/map?lat=33.9759&long=-117.3311"
  },
  {
    "Name": "University of California-Santa Cruz",
    "City": "Santa Cruz",
    "State": "CA",
    "Zipcode": "95064-1011",
    "Latitude": 36.9973,
    "Longitude": -122.068,
    "Admission Rate": 0.5991,
    "SAT Average": 1087,
    "ACT Median": 23,
    "Undergrad Population": 11075,
    "In-state Tuition": 13397,
    "Out-of-state Tuition": 36275,
    "Tuition Difference": 22878,
    "Diff Percent": 270.77,
    "yikyak": "https://www.yikyak.com/map?lat=36.9973&long=-122.068"
  },
  {
    "Name": "University of Florida",
    "City": "Gainesville",
    "State": "FL",
    "Zipcode": 32611,
    "Latitude": 29.6382,
    "Longitude": -82.3612,
    "Admission Rate": 0.4655,
    "SAT Average": 1272,
    "ACT Median": 29,
    "Undergrad Population": 32680,
    "In-state Tuition": 6263,
    "Out-of-state Tuition": 28541,
    "Tuition Difference": 22278,
    "Diff Percent": 455.71,
    "yikyak": "https://www.yikyak.com/map?lat=29.6382&long=-82.3612"
  },
  {
    "Name": "Indiana University-Bloomington",
    "City": "Bloomington",
    "State": "IN",
    "Zipcode": "47405-7000",
    "Latitude": 39.1664,
    "Longitude": -86.5269,
    "Admission Rate": 0.7217,
    "SAT Average": 1198,
    "ACT Median": 27,
    "Undergrad Population": 29383,
    "In-state Tuition": 10209,
    "Out-of-state Tuition": 32350,
    "Tuition Difference": 22141,
    "Diff Percent": 316.88,
    "yikyak": "https://www.yikyak.com/map?lat=39.1664&long=-86.5269"
  },
  {
    "Name": "University of North Carolina at Chapel Hill",
    "City": "Chapel Hill",
    "State": "NC",
    "Zipcode": 27599,
    "Latitude": 35.9122,
    "Longitude": -79.051,
    "Admission Rate": 0.2759,
    "SAT Average": 1313,
    "ACT Median": 30,
    "Undergrad Population": 15608,
    "In-state Tuition": 8340,
    "Out-of-state Tuition": 30122,
    "Tuition Difference": 21782,
    "Diff Percent": 361.18,
    "yikyak": "https://www.yikyak.com/map?lat=35.9122&long=-79.051"
  },
  {
    "Name": "University of Colorado Boulder",
    "City": "Boulder",
    "State": "CO",
    "Zipcode": "80309-0017",
    "Latitude": 40.0044,
    "Longitude": -105.2671,
    "Admission Rate": 0.8771,
    "SAT Average": 1192,
    "ACT Median": 27,
    "Undergrad Population": 23612,
    "In-state Tuition": 10347,
    "Out-of-state Tuition": 32115,
    "Tuition Difference": 21768,
    "Diff Percent": 310.38,
    "yikyak": "https://www.yikyak.com/map?lat=40.0044&long=-105.2671"
  },
  {
    "Name": "Virginia Military Institute",
    "City": "Lexington",
    "State": "VA",
    "Zipcode": "24450-0304",
    "Latitude": 37.7843,
    "Longitude": -79.5258,
    "Admission Rate": 0.4732,
    "SAT Average": 1141,
    "ACT Median": 25,
    "Undergrad Population": 1300,
    "In-state Tuition": 14404,
    "Out-of-state Tuition": 35392,
    "Tuition Difference": 20988,
    "Diff Percent": 245.71,
    "yikyak": "https://www.yikyak.com/map?lat=37.7843&long=-79.5258"
  },
  {
    "Name": "University of Vermont",
    "City": "Burlington",
    "State": "VT",
    "Zipcode": "05405-0160",
    "Latitude": 44.4793,
    "Longitude": -73.1981,
    "Admission Rate": 0.7755,
    "SAT Average": 1190,
    "ACT Median": 27,
    "Undergrad Population": 8618,
    "In-state Tuition": 15718,
    "Out-of-state Tuition": 36646,
    "Tuition Difference": 20928,
    "Diff Percent": 233.15,
    "yikyak": "https://www.yikyak.com/map?lat=44.4793&long=-73.1981"
  },
  {
    "Name": "Michigan State University",
    "City": "East Lansing",
    "State": "MI",
    "Zipcode": "48824-1046",
    "Latitude": 42.7248,
    "Longitude": -84.4736,
    "Admission Rate": 0.6865,
    "SAT Average": 1158,
    "ACT Median": 26,
    "Undergrad Population": 34342,
    "In-state Tuition": 12862,
    "Out-of-state Tuition": 33750,
    "Tuition Difference": 20888,
    "Diff Percent": 262.4,
    "yikyak": "https://www.yikyak.com/map?lat=42.7248&long=-84.4736"
  },
  {
    "Name": "Indiana University-Purdue University-Indianapolis",
    "City": "Indianapolis",
    "State": "IN",
    "Zipcode": "46202-5143",
    "Latitude": 39.7729,
    "Longitude": -86.1722,
    "Admission Rate": 0.6958,
    "SAT Average": 1013,
    "ACT Median": 22,
    "Undergrad Population": 20211,
    "In-state Tuition": 8756,
    "Out-of-state Tuition": 29571,
    "Tuition Difference": 20815,
    "Diff Percent": 337.72,
    "yikyak": "https://www.yikyak.com/map?lat=39.7729&long=-86.1722"
  },
  {
    "Name": "University of Oregon",
    "City": "Eugene",
    "State": "OR",
    "Zipcode": 97403,
    "Latitude": 44.0445,
    "Longitude": -123.074,
    "Admission Rate": 0.7417,
    "SAT Average": 1108,
    "ACT Median": 25,
    "Undergrad Population": 14076,
    "In-state Tuition": 9763,
    "Out-of-state Tuition": 29788,
    "Tuition Difference": 20025,
    "Diff Percent": 305.11,
    "yikyak": "https://www.yikyak.com/map?lat=44.0445&long=-123.074"
  },
  {
    "Name": "University of Washington-Seattle Campus",
    "City": "Seattle",
    "State": "WA",
    "Zipcode": "98195-4550",
    "Latitude": 47.6562,
    "Longitude": -122.3131,
    "Admission Rate": 0.5523,
    "SAT Average": 1234,
    "ACT Median": 28,
    "Undergrad Population": 25987,
    "In-state Tuition": 12397,
    "Out-of-state Tuition": 31971,
    "Tuition Difference": 19574,
    "Diff Percent": 257.89,
    "yikyak": "https://www.yikyak.com/map?lat=47.6562&long=-122.3131"
  },
  {
    "Name": "University of Washington-Tacoma Campus",
    "City": "Tacoma",
    "State": "WA",
    "Zipcode": "98402-3100",
    "Latitude": 47.245,
    "Longitude": -122.4375,
    "Admission Rate": 0.8523,
    "SAT Average": 963,
    "ACT Median": 20,
    "Undergrad Population": 1406,
    "In-state Tuition": 11902,
    "Out-of-state Tuition": 31476,
    "Tuition Difference": 19574,
    "Diff Percent": 264.46,
    "yikyak": "https://www.yikyak.com/map?lat=47.245&long=-122.4375"
  },
  {
    "Name": "University of Washington-Bothell Campus",
    "City": "Bothell",
    "State": "WA",
    "Zipcode": "98011-8246",
    "Latitude": 47.7607,
    "Longitude": -122.1915,
    "Admission Rate": 0.7568,
    "SAT Average": 1014,
    "ACT Median": 21,
    "Undergrad Population": 1298,
    "In-state Tuition": 11911,
    "Out-of-state Tuition": 31485,
    "Tuition Difference": 19574,
    "Diff Percent": 264.34,
    "yikyak": "https://www.yikyak.com/map?lat=47.7607&long=-122.1915"
  },
  {
    "Name": "Florida Gulf Coast University",
    "City": "Fort Myers",
    "State": "FL",
    "Zipcode": "33965-6565",
    "Latitude": 26.4643,
    "Longitude": -81.7736,
    "Admission Rate": 0.6579,
    "SAT Average": 1024,
    "ACT Median": 22,
    "Undergrad Population": 2977,
    "In-state Tuition": 6118,
    "Out-of-state Tuition": 25440,
    "Tuition Difference": 19322,
    "Diff Percent": 415.82,
    "yikyak": "https://www.yikyak.com/map?lat=26.4643&long=-81.7736"
  },
  {
    "Name": "Georgia Institute of Technology-Main Campus",
    "City": "Atlanta",
    "State": "GA",
    "Zipcode": "30332-0530",
    "Latitude": 33.7737,
    "Longitude": -84.396,
    "Admission Rate": 0.5493,
    "SAT Average": 1352,
    "ACT Median": 30,
    "Undergrad Population": 10745,
    "In-state Tuition": 10650,
    "Out-of-state Tuition": 29954,
    "Tuition Difference": 19304,
    "Diff Percent": 281.26,
    "yikyak": "https://www.yikyak.com/map?lat=33.7737&long=-84.396"
  },
  {
    "Name": "University of Maryland-College Park",
    "City": "College Park",
    "State": "MD",
    "Zipcode": 20742,
    "Latitude": 38.9886,
    "Longitude": -76.9397,
    "Admission Rate": 0.4699,
    "SAT Average": 1310,
    "ACT Median": "",
    "Undergrad Population": 24638,
    "In-state Tuition": 9162,
    "Out-of-state Tuition": 28348,
    "Tuition Difference": 19186,
    "Diff Percent": 309.41,
    "yikyak": "https://www.yikyak.com/map?lat=38.9886&long=-76.9397"
  },
  {
    "Name": "University of Connecticut",
    "City": "Storrs",
    "State": "CT",
    "Zipcode": 6269,
    "Latitude": 41.8082,
    "Longitude": -72.2495,
    "Admission Rate": 0.5366,
    "SAT Average": 1233,
    "ACT Median": 28,
    "Undergrad Population": 13251,
    "In-state Tuition": 12022,
    "Out-of-state Tuition": 30970,
    "Tuition Difference": 18948,
    "Diff Percent": 257.61,
    "yikyak": "https://www.yikyak.com/map?lat=41.8082&long=-72.2495"
  },
  {
    "Name": "University of Connecticut-Tri-Campus",
    "City": "Waterbury",
    "State": "CT",
    "Zipcode": 6702,
    "Latitude": 41.5547,
    "Longitude": -73.0388,
    "Admission Rate": 0.4207,
    "SAT Average": 1015,
    "ACT Median": 22,
    "Undergrad Population": 1826,
    "In-state Tuition": 10056,
    "Out-of-state Tuition": 29004,
    "Tuition Difference": 18948,
    "Diff Percent": 288.42,
    "yikyak": "https://www.yikyak.com/map?lat=41.5547&long=-73.0388"
  },
  {
    "Name": "University of Connecticut-Stamford",
    "City": "Stamford",
    "State": "CT",
    "Zipcode": "06901-2315",
    "Latitude": 41.0559,
    "Longitude": -73.5427,
    "Admission Rate": 0.4107,
    "SAT Average": 1017,
    "ACT Median": 21,
    "Undergrad Population": 997,
    "In-state Tuition": 10066,
    "Out-of-state Tuition": 29014,
    "Tuition Difference": 18948,
    "Diff Percent": 288.24,
    "yikyak": "https://www.yikyak.com/map?lat=41.0559&long=-73.5427"
  },
  {
    "Name": "University of Connecticut-Avery Point",
    "City": "Groton",
    "State": "CT",
    "Zipcode": "06340-6097",
    "Latitude": 41.3172,
    "Longitude": -72.0639,
    "Admission Rate": 0.594,
    "SAT Average": 1020,
    "ACT Median": 24,
    "Undergrad Population": 607,
    "In-state Tuition": 10056,
    "Out-of-state Tuition": 29004,
    "Tuition Difference": 18948,
    "Diff Percent": 288.42,
    "yikyak": "https://www.yikyak.com/map?lat=41.3172&long=-72.0639"
  },
  {
    "Name": "University of Iowa",
    "City": "Iowa City",
    "State": "IA",
    "Zipcode": "52242-1316",
    "Latitude": 41.6607,
    "Longitude": -91.5357,
    "Admission Rate": 0.8023,
    "SAT Average": 1208,
    "ACT Median": 27,
    "Undergrad Population": 19284,
    "In-state Tuition": 8061,
    "Out-of-state Tuition": 26931,
    "Tuition Difference": 18870,
    "Diff Percent": 334.09,
    "yikyak": "https://www.yikyak.com/map?lat=41.6607&long=-91.5357"
  },
  {
    "Name": "Purdue University-Main Campus",
    "City": "West Lafayette",
    "State": "IN",
    "Zipcode": "47907-2040",
    "Latitude": 40.4282,
    "Longitude": -86.9144,
    "Admission Rate": 0.6042,
    "SAT Average": 1211,
    "ACT Median": 27,
    "Undergrad Population": 32669,
    "In-state Tuition": 9992,
    "Out-of-state Tuition": 28794,
    "Tuition Difference": 18802,
    "Diff Percent": 288.17,
    "yikyak": "https://www.yikyak.com/map?lat=40.4282&long=-86.9144"
  },
  {
    "Name": "Citadel Military College of South Carolina",
    "City": "Charleston",
    "State": "SC",
    "Zipcode": 29409,
    "Latitude": 32.797,
    "Longitude": -79.9614,
    "Admission Rate": 0.8041,
    "SAT Average": 1080,
    "ACT Median": 23,
    "Undergrad Population": 1995,
    "In-state Tuition": 10838,
    "Out-of-state Tuition": 29639,
    "Tuition Difference": 18801,
    "Diff Percent": 273.47,
    "yikyak": "https://www.yikyak.com/map?lat=32.797&long=-79.9614"
  },
  {
    "Name": "George Mason University",
    "City": "Fairfax",
    "State": "VA",
    "Zipcode": "22030-4444",
    "Latitude": 38.8309,
    "Longitude": -77.3079,
    "Admission Rate": 0.6203,
    "SAT Average": 1155,
    "ACT Median": 26,
    "Undergrad Population": 15185,
    "In-state Tuition": 9908,
    "Out-of-state Tuition": 28592,
    "Tuition Difference": 18684,
    "Diff Percent": 288.57,
    "yikyak": "https://www.yikyak.com/map?lat=38.8309&long=-77.3079"
  },
  {
    "Name": "The University of Tennessee-Knoxville",
    "City": "Knoxville",
    "State": "TN",
    "Zipcode": 37996,
    "Latitude": 35.9551,
    "Longitude": -83.9297,
    "Admission Rate": 0.7249,
    "SAT Average": 1199,
    "ACT Median": 27,
    "Undergrad Population": 20009,
    "In-state Tuition": 11194,
    "Out-of-state Tuition": 29684,
    "Tuition Difference": 18490,
    "Diff Percent": 265.18,
    "yikyak": "https://www.yikyak.com/map?lat=35.9551&long=-83.9297"
  },
  {
    "Name": "University of Georgia",
    "City": "Athens",
    "State": "GA",
    "Zipcode": 30602,
    "Latitude": 33.9435,
    "Longitude": -83.3738,
    "Admission Rate": 0.5608,
    "SAT Average": 1247,
    "ACT Median": 28,
    "Undergrad Population": 24213,
    "In-state Tuition": 10262,
    "Out-of-state Tuition": 28472,
    "Tuition Difference": 18210,
    "Diff Percent": 277.45,
    "yikyak": "https://www.yikyak.com/map?lat=33.9435&long=-83.3738"
  },
  {
    "Name": "Massachusetts College of Art and Design",
    "City": "Boston",
    "State": "MA",
    "Zipcode": "02115-5882",
    "Latitude": 42.3369,
    "Longitude": -71.0995,
    "Admission Rate": 0.6982,
    "SAT Average": 1081,
    "ACT Median": 25,
    "Undergrad Population": 2221,
    "In-state Tuition": 10400,
    "Out-of-state Tuition": 28600,
    "Tuition Difference": 18200,
    "Diff Percent": 275,
    "yikyak": "https://www.yikyak.com/map?lat=42.3369&long=-71.0995"
  },
  {
    "Name": "Louisiana State University and Agricultural & Mechanical College",
    "City": "Baton Rouge",
    "State": "LA",
    "Zipcode": "70803-2750",
    "Latitude": 30.5521,
    "Longitude": -91.1967,
    "Admission Rate": 0.7623,
    "SAT Average": 1162,
    "ACT Median": 26,
    "Undergrad Population": 26121,
    "In-state Tuition": 7873,
    "Out-of-state Tuition": 25790,
    "Tuition Difference": 17917,
    "Diff Percent": 327.58,
    "yikyak": "https://www.yikyak.com/map?lat=30.5521&long=-91.1967"
  },
  {
    "Name": "Georgia College and State University",
    "City": "Milledgeville",
    "State": "GA",
    "Zipcode": 31061,
    "Latitude": 33.0828,
    "Longitude": -83.232,
    "Admission Rate": 0.6798,
    "SAT Average": 1126,
    "ACT Median": 24,
    "Undergrad Population": 3976,
    "In-state Tuition": 8790,
    "Out-of-state Tuition": 26690,
    "Tuition Difference": 17900,
    "Diff Percent": 303.64,
    "yikyak": "https://www.yikyak.com/map?lat=33.0828&long=-83.232"
  },
  {
    "Name": "University of Delaware",
    "City": "Newark",
    "State": "DE",
    "Zipcode": 19716,
    "Latitude": 39.6798,
    "Longitude": -75.7536,
    "Admission Rate": 0.6468,
    "SAT Average": 1178,
    "ACT Median": 27,
    "Undergrad Population": 16110,
    "In-state Tuition": 12112,
    "Out-of-state Tuition": 29932,
    "Tuition Difference": 17820,
    "Diff Percent": 247.13,
    "yikyak": "https://www.yikyak.com/map?lat=39.6798&long=-75.7536"
  },
  {
    "Name": "University of South Carolina-Columbia",
    "City": "Columbia",
    "State": "SC",
    "Zipcode": 29208,
    "Latitude": 34.0062,
    "Longitude": -81.0377,
    "Admission Rate": 0.606,
    "SAT Average": 1200,
    "ACT Median": 27,
    "Undergrad Population": 15266,
    "In-state Tuition": 10816,
    "Out-of-state Tuition": 28528,
    "Tuition Difference": 17712,
    "Diff Percent": 263.76,
    "yikyak": "https://www.yikyak.com/map?lat=34.0062&long=-81.0377"
  },
  {
    "Name": "University of Hawaii at Manoa",
    "City": "Honolulu",
    "State": "HI",
    "Zipcode": "96822-2217",
    "Latitude": 21.2926,
    "Longitude": -157.8166,
    "Admission Rate": 0.8009,
    "SAT Average": 1087,
    "ACT Median": 24,
    "Undergrad Population": 11721,
    "In-state Tuition": 9904,
    "Out-of-state Tuition": 27472,
    "Tuition Difference": 17568,
    "Diff Percent": 277.38,
    "yikyak": "https://www.yikyak.com/map?lat=21.2926&long=-157.8166"
  },
  {
    "Name": "Virginia Commonwealth University",
    "City": "Richmond",
    "State": "VA",
    "Zipcode": "23284-2512",
    "Latitude": 37.5476,
    "Longitude": -77.4536,
    "Admission Rate": 0.6913,
    "SAT Average": 1102,
    "ACT Median": 24,
    "Undergrad Population": 16505,
    "In-state Tuition": 12002,
    "Out-of-state Tuition": 29473,
    "Tuition Difference": 17471,
    "Diff Percent": 245.57,
    "yikyak": "https://www.yikyak.com/map?lat=37.5476&long=-77.4536"
  },
  {
    "Name": "Clemson University",
    "City": "Clemson",
    "State": "SC",
    "Zipcode": 29634,
    "Latitude": 34.6773,
    "Longitude": -82.8345,
    "Admission Rate": 0.5787,
    "SAT Average": 1259,
    "ACT Median": 29,
    "Undergrad Population": 14066,
    "In-state Tuition": 13054,
    "Out-of-state Tuition": 30488,
    "Tuition Difference": 17434,
    "Diff Percent": 233.55,
    "yikyak": "https://www.yikyak.com/map?lat=34.6773&long=-82.8345"
  },
  {
    "Name": "University of Maine",
    "City": "Orono",
    "State": "ME",
    "Zipcode": 4469,
    "Latitude": 44.896,
    "Longitude": -68.6738,
    "Admission Rate": 0.8106,
    "SAT Average": 1085,
    "ACT Median": 24,
    "Undergrad Population": 8220,
    "In-state Tuition": 10600,
    "Out-of-state Tuition": 27970,
    "Tuition Difference": 17370,
    "Diff Percent": 263.87,
    "yikyak": "https://www.yikyak.com/map?lat=44.896&long=-68.6738"
  },
  {
    "Name": "University of Arizona",
    "City": "Tucson",
    "State": "AZ",
    "Zipcode": "85721-0066",
    "Latitude": 32.2321,
    "Longitude": -110.9508,
    "Admission Rate": 0.7692,
    "SAT Average": 1106,
    "ACT Median": 24,
    "Undergrad Population": 26404,
    "In-state Tuition": 10391,
    "Out-of-state Tuition": 27383,
    "Tuition Difference": 16992,
    "Diff Percent": 263.53,
    "yikyak": "https://www.yikyak.com/map?lat=32.2321&long=-110.9508"
  },
  {
    "Name": "Texas A & M University-College Station",
    "City": "College Station",
    "State": "TX",
    "Zipcode": "77843-1244",
    "Latitude": 30.5963,
    "Longitude": -96.3067,
    "Admission Rate": 0.6947,
    "SAT Average": 1182,
    "ACT Median": 26,
    "Undergrad Population": 36229,
    "In-state Tuition": 8506,
    "Out-of-state Tuition": 25126,
    "Tuition Difference": 16620,
    "Diff Percent": 295.39,
    "yikyak": "https://www.yikyak.com/map?lat=30.5963&long=-96.3067"
  },
  {
    "Name": "Auburn University",
    "City": "Auburn University",
    "State": "AL",
    "Zipcode": 36849,
    "Latitude": 32.6002,
    "Longitude": -85.4924,
    "Admission Rate": 0.8274,
    "SAT Average": 1215,
    "ACT Median": 27,
    "Undergrad Population": 18326,
    "In-state Tuition": 9852,
    "Out-of-state Tuition": 26364,
    "Tuition Difference": 16512,
    "Diff Percent": 267.6,
    "yikyak": "https://www.yikyak.com/map?lat=32.6002&long=-85.4924"
  },
  {
    "Name": "College of Charleston",
    "City": "Charleston",
    "State": "SC",
    "Zipcode": "29424-0001",
    "Latitude": 32.7831,
    "Longitude": -79.9373,
    "Admission Rate": 0.7031,
    "SAT Average": 1165,
    "ACT Median": 26,
    "Undergrad Population": 9750,
    "In-state Tuition": 10626,
    "Out-of-state Tuition": 27090,
    "Tuition Difference": 16464,
    "Diff Percent": 254.94,
    "yikyak": "https://www.yikyak.com/map?lat=32.7831&long=-79.9373"
  },
  {
    "Name": "University of Utah",
    "City": "Salt Lake City",
    "State": "UT",
    "Zipcode": "84112-9008",
    "Latitude": 40.7625,
    "Longitude": -111.846,
    "Admission Rate": 0.8174,
    "SAT Average": 1109,
    "ACT Median": 24,
    "Undergrad Population": 19718,
    "In-state Tuition": 7457,
    "Out-of-state Tuition": 23736,
    "Tuition Difference": 16279,
    "Diff Percent": 318.3,
    "yikyak": "https://www.yikyak.com/map?lat=40.7625&long=-111.846"
  },
  {
    "Name": "University of Wisconsin-Madison",
    "City": "Madison",
    "State": "WI",
    "Zipcode": "53706-1380",
    "Latitude": 43.0739,
    "Longitude": -89.4054,
    "Admission Rate": 0.6792,
    "SAT Average": 1268,
    "ACT Median": 28,
    "Undergrad Population": 29697,
    "In-state Tuition": 10403,
    "Out-of-state Tuition": 26653,
    "Tuition Difference": 16250,
    "Diff Percent": 256.2,
    "yikyak": "https://www.yikyak.com/map?lat=43.0739&long=-89.4054"
  },
  {
    "Name": "University of Central Florida",
    "City": "Orlando",
    "State": "FL",
    "Zipcode": 32816,
    "Latitude": 28.6011,
    "Longitude": -81.1988,
    "Admission Rate": 0.4894,
    "SAT Average": 1175,
    "ACT Median": 26,
    "Undergrad Population": 28252,
    "In-state Tuition": 6317,
    "Out-of-state Tuition": 22416,
    "Tuition Difference": 16099,
    "Diff Percent": 354.85,
    "yikyak": "https://www.yikyak.com/map?lat=28.6011&long=-81.1988"
  },
  {
    "Name": "Colorado School of Mines",
    "City": "Golden",
    "State": "CO",
    "Zipcode": 80401,
    "Latitude": 39.7508,
    "Longitude": -105.2271,
    "Admission Rate": 0.3743,
    "SAT Average": 1298,
    "ACT Median": 29,
    "Undergrad Population": 2559,
    "In-state Tuition": 16485,
    "Out-of-state Tuition": 32415,
    "Tuition Difference": 15930,
    "Diff Percent": 196.63,
    "yikyak": "https://www.yikyak.com/map?lat=39.7508&long=-105.2271"
  },
  {
    "Name": "Colorado State University-Fort Collins",
    "City": "Fort Collins",
    "State": "CO",
    "Zipcode": "80523-0100",
    "Latitude": 40.5748,
    "Longitude": -105.0808,
    "Admission Rate": 0.7743,
    "SAT Average": 1127,
    "ACT Median": 25,
    "Undergrad Population": 20728,
    "In-state Tuition": 9313,
    "Out-of-state Tuition": 25166,
    "Tuition Difference": 15853,
    "Diff Percent": 270.22,
    "yikyak": "https://www.yikyak.com/map?lat=40.5748&long=-105.0808"
  },
  {
    "Name": "Miami University-Oxford",
    "City": "Oxford",
    "State": "OH",
    "Zipcode": 45056,
    "Latitude": 39.5096,
    "Longitude": -84.7318,
    "Admission Rate": 0.6676,
    "SAT Average": 1240,
    "ACT Median": 28,
    "Undergrad Population": 14957,
    "In-state Tuition": 13800,
    "Out-of-state Tuition": 29590,
    "Tuition Difference": 15790,
    "Diff Percent": 214.42,
    "yikyak": "https://www.yikyak.com/map?lat=39.5096&long=-84.7318"
  },
  {
    "Name": "Virginia Polytechnic Institute and State University",
    "City": "Blacksburg",
    "State": "VA",
    "Zipcode": "24061-0131",
    "Latitude": 37.2375,
    "Longitude": -80.4348,
    "Admission Rate": 0.7028,
    "SAT Average": 1220,
    "ACT Median": "",
    "Undergrad Population": 21428,
    "In-state Tuition": 11455,
    "Out-of-state Tuition": 27211,
    "Tuition Difference": 15756,
    "Diff Percent": 237.55,
    "yikyak": "https://www.yikyak.com/map?lat=37.2375&long=-80.4348"
  },
  {
    "Name": "Ohio State University-Main Campus",
    "City": "Columbus",
    "State": "OH",
    "Zipcode": 43210,
    "Latitude": 39.9984,
    "Longitude": -83.009,
    "Admission Rate": 0.5553,
    "SAT Average": 1289,
    "ACT Median": 29,
    "Undergrad Population": 35749,
    "In-state Tuition": 10037,
    "Out-of-state Tuition": 25757,
    "Tuition Difference": 15720,
    "Diff Percent": 256.62,
    "yikyak": "https://www.yikyak.com/map?lat=39.9984&long=-83.009"
  },
  {
    "Name": "The University of Montana",
    "City": "Missoula",
    "State": "MT",
    "Zipcode": 59812,
    "Latitude": 46.8611,
    "Longitude": -113.9829,
    "Admission Rate": 0.9423,
    "SAT Average": 1090,
    "ACT Median": 24,
    "Undergrad Population": 10666,
    "In-state Tuition": 6045,
    "Out-of-state Tuition": 21719,
    "Tuition Difference": 15674,
    "Diff Percent": 359.29,
    "yikyak": "https://www.yikyak.com/map?lat=46.8611&long=-113.9829"
  },
  {
    "Name": "Old Dominion University",
    "City": "Norfolk",
    "State": "VA",
    "Zipcode": 23529,
    "Latitude": 36.8849,
    "Longitude": -76.3097,
    "Admission Rate": 0.7679,
    "SAT Average": 1016,
    "ACT Median": 21,
    "Undergrad Population": 12786,
    "In-state Tuition": 8550,
    "Out-of-state Tuition": 24210,
    "Tuition Difference": 15660,
    "Diff Percent": 283.16,
    "yikyak": "https://www.yikyak.com/map?lat=36.8849&long=-76.3097"
  },
  {
    "Name": "University of Rhode Island",
    "City": "Kingston",
    "State": "RI",
    "Zipcode": 2881,
    "Latitude": 41.4816,
    "Longitude": -71.5311,
    "Admission Rate": 0.7871,
    "SAT Average": 1076,
    "ACT Median": 24,
    "Undergrad Population": 10647,
    "In-state Tuition": 12450,
    "Out-of-state Tuition": 28016,
    "Tuition Difference": 15566,
    "Diff Percent": 225.03,
    "yikyak": "https://www.yikyak.com/map?lat=41.4816&long=-71.5311"
  },
  {
    "Name": "Eastern Michigan University",
    "City": "Ypsilanti",
    "State": "MI",
    "Zipcode": 48197,
    "Latitude": 42.2479,
    "Longitude": -83.6271,
    "Admission Rate": 0.6398,
    "SAT Average": 1011,
    "ACT Median": 22,
    "Undergrad Population": 18189,
    "In-state Tuition": 9364,
    "Out-of-state Tuition": 24909,
    "Tuition Difference": 15545,
    "Diff Percent": 266.01,
    "yikyak": "https://www.yikyak.com/map?lat=42.2479&long=-83.6271"
  },
  {
    "Name": "University of Massachusetts-Boston",
    "City": "Boston",
    "State": "MA",
    "Zipcode": "02125-3393",
    "Latitude": 42.3145,
    "Longitude": -71.0387,
    "Admission Rate": 0.7141,
    "SAT Average": 1015,
    "ACT Median": "",
    "Undergrad Population": 10442,
    "In-state Tuition": 11966,
    "Out-of-state Tuition": 27430,
    "Tuition Difference": 15464,
    "Diff Percent": 229.23,
    "yikyak": "https://www.yikyak.com/map?lat=42.3145&long=-71.0387"
  },
  {
    "Name": "Middle Tennessee State University",
    "City": "Murfreesboro",
    "State": "TN",
    "Zipcode": 37132,
    "Latitude": 35.8491,
    "Longitude": -86.3621,
    "Admission Rate": 0.6996,
    "SAT Average": 1011,
    "ACT Median": 22,
    "Undergrad Population": 17247,
    "In-state Tuition": 7546,
    "Out-of-state Tuition": 23002,
    "Tuition Difference": 15456,
    "Diff Percent": 304.82,
    "yikyak": "https://www.yikyak.com/map?lat=35.8491&long=-86.3621"
  },
  {
    "Name": "East Tennessee State University",
    "City": "Johnson City",
    "State": "TN",
    "Zipcode": "37614-0000",
    "Latitude": 36.3016,
    "Longitude": -82.367,
    "Admission Rate": 0.8649,
    "SAT Average": 1026,
    "ACT Median": 22,
    "Undergrad Population": 9125,
    "In-state Tuition": 7249,
    "Out-of-state Tuition": 22561,
    "Tuition Difference": 15312,
    "Diff Percent": 311.23,
    "yikyak": "https://www.yikyak.com/map?lat=36.3016&long=-82.367"
  },
  {
    "Name": "Portland State University",
    "City": "Portland",
    "State": "OR",
    "Zipcode": 97201,
    "Latitude": 45.5112,
    "Longitude": -122.6836,
    "Admission Rate": 0.6117,
    "SAT Average": 1045,
    "ACT Median": "",
    "Undergrad Population": 13625,
    "In-state Tuition": 7878,
    "Out-of-state Tuition": 23088,
    "Tuition Difference": 15210,
    "Diff Percent": 293.07,
    "yikyak": "https://www.yikyak.com/map?lat=45.5112&long=-122.6836"
  },
  {
    "Name": "The University of Tennessee-Chattanooga",
    "City": "Chattanooga",
    "State": "TN",
    "Zipcode": "37403-2598",
    "Latitude": 35.0482,
    "Longitude": -85.2998,
    "Admission Rate": 0.7757,
    "SAT Average": 1069,
    "ACT Median": 23,
    "Undergrad Population": 6993,
    "In-state Tuition": 7554,
    "Out-of-state Tuition": 22760,
    "Tuition Difference": 15206,
    "Diff Percent": 301.3,
    "yikyak": "https://www.yikyak.com/map?lat=35.0482&long=-85.2998"
  },
  {
    "Name": "Oregon State University",
    "City": "Corvallis",
    "State": "OR",
    "Zipcode": 97331,
    "Latitude": 44.5645,
    "Longitude": -123.2742,
    "Admission Rate": 0.7894,
    "SAT Average": 1102,
    "ACT Median": 24,
    "Undergrad Population": 13766,
    "In-state Tuition": 8322,
    "Out-of-state Tuition": 23514,
    "Tuition Difference": 15192,
    "Diff Percent": 282.55,
    "yikyak": "https://www.yikyak.com/map?lat=44.5645&long=-123.2742"
  },
  {
    "Name": "The University of Texas at Dallas",
    "City": "Richardson",
    "State": "TX",
    "Zipcode": "75080-3021",
    "Latitude": 32.9894,
    "Longitude": -96.7484,
    "Admission Rate": 0.5857,
    "SAT Average": 1262,
    "ACT Median": 28,
    "Undergrad Population": 6560,
    "In-state Tuition": 10864,
    "Out-of-state Tuition": 26038,
    "Tuition Difference": 15174,
    "Diff Percent": 239.67,
    "yikyak": "https://www.yikyak.com/map?lat=32.9894&long=-96.7484"
  },
  {
    "Name": "Florida State University",
    "City": "Tallahassee",
    "State": "FL",
    "Zipcode": "32306-1037",
    "Latitude": 30.4397,
    "Longitude": -84.2909,
    "Admission Rate": 0.5681,
    "SAT Average": 1212,
    "ACT Median": 27,
    "Undergrad Population": 27021,
    "In-state Tuition": 6507,
    "Out-of-state Tuition": 21673,
    "Tuition Difference": 15166,
    "Diff Percent": 333.07,
    "yikyak": "https://www.yikyak.com/map?lat=30.4397&long=-84.2909"
  },
  {
    "Name": "Missouri University of Science and Technology",
    "City": "Rolla",
    "State": "MO",
    "Zipcode": 65409,
    "Latitude": 37.9559,
    "Longitude": -91.7759,
    "Admission Rate": 0.8215,
    "SAT Average": 1263,
    "ACT Median": 28,
    "Undergrad Population": 3698,
    "In-state Tuition": 9510,
    "Out-of-state Tuition": 24675,
    "Tuition Difference": 15165,
    "Diff Percent": 259.46,
    "yikyak": "https://www.yikyak.com/map?lat=37.9559&long=-91.7759"
  },
  {
    "Name": "The University of Virginia's College at Wise",
    "City": "Wise",
    "State": "VA",
    "Zipcode": "24293-4400",
    "Latitude": 36.9715,
    "Longitude": -82.5587,
    "Admission Rate": 0.7449,
    "SAT Average": 949,
    "ACT Median": 20,
    "Undergrad Population": 1447,
    "In-state Tuition": 8509,
    "Out-of-state Tuition": 23565,
    "Tuition Difference": 15056,
    "Diff Percent": 276.94,
    "yikyak": "https://www.yikyak.com/map?lat=36.9715&long=-82.5587"
  },
  {
    "Name": "University of Cincinnati-Main Campus",
    "City": "Cincinnati",
    "State": "OH",
    "Zipcode": "45221-0063",
    "Latitude": 39.1312,
    "Longitude": -84.5143,
    "Admission Rate": 0.7325,
    "SAT Average": 1141,
    "ACT Median": 25,
    "Undergrad Population": 20039,
    "In-state Tuition": 10784,
    "Out-of-state Tuition": 25816,
    "Tuition Difference": 15032,
    "Diff Percent": 239.39,
    "yikyak": "https://www.yikyak.com/map?lat=39.1312&long=-84.5143"
  },
  {
    "Name": "Tennessee Technological University",
    "City": "Cookeville",
    "State": "TN",
    "Zipcode": "38505-0001",
    "Latitude": 36.1747,
    "Longitude": -85.504,
    "Admission Rate": 0.9316,
    "SAT Average": 1071,
    "ACT Median": 23,
    "Undergrad Population": 6876,
    "In-state Tuition": 7063,
    "Out-of-state Tuition": 22063,
    "Tuition Difference": 15000,
    "Diff Percent": 312.37,
    "yikyak": "https://www.yikyak.com/map?lat=36.1747&long=-85.504"
  },
  {
    "Name": "Ball State University",
    "City": "Muncie",
    "State": "IN",
    "Zipcode": 47306,
    "Latitude": 40.1989,
    "Longitude": -85.4089,
    "Admission Rate": 0.6054,
    "SAT Average": 1053,
    "ACT Median": 22,
    "Undergrad Population": 16350,
    "In-state Tuition": 9160,
    "Out-of-state Tuition": 24124,
    "Tuition Difference": 14964,
    "Diff Percent": 263.36,
    "yikyak": "https://www.yikyak.com/map?lat=40.1989&long=-85.4089"
  },
  {
    "Name": "Massachusetts Maritime Academy",
    "City": "Buzzards Bay",
    "State": "MA",
    "Zipcode": "02532-1803",
    "Latitude": 41.7405,
    "Longitude": -70.624,
    "Admission Rate": 0.7726,
    "SAT Average": 1051,
    "ACT Median": 22,
    "Undergrad Population": 830,
    "In-state Tuition": 7127,
    "Out-of-state Tuition": 22033,
    "Tuition Difference": 14906,
    "Diff Percent": 309.15,
    "yikyak": "https://www.yikyak.com/map?lat=41.7405&long=-70.624"
  },
  {
    "Name": "Michigan Technological University",
    "City": "Houghton",
    "State": "MI",
    "Zipcode": "49931-1295",
    "Latitude": 47.1183,
    "Longitude": -88.5464,
    "Admission Rate": 0.7659,
    "SAT Average": 1206,
    "ACT Median": 27,
    "Undergrad Population": 5666,
    "In-state Tuition": 13728,
    "Out-of-state Tuition": 28608,
    "Tuition Difference": 14880,
    "Diff Percent": 208.39,
    "yikyak": "https://www.yikyak.com/map?lat=47.1183&long=-88.5464"
  },
  {
    "Name": "University of Massachusetts-Amherst",
    "City": "Amherst",
    "State": "MA",
    "Zipcode": 1003,
    "Latitude": 42.391,
    "Longitude": -72.5274,
    "Admission Rate": 0.6294,
    "SAT Average": 1209,
    "ACT Median": 27,
    "Undergrad Population": 19061,
    "In-state Tuition": 13443,
    "Out-of-state Tuition": 28159,
    "Tuition Difference": 14716,
    "Diff Percent": 209.47,
    "yikyak": "https://www.yikyak.com/map?lat=42.391&long=-72.5274"
  },
  {
    "Name": "University of Memphis",
    "City": "Memphis",
    "State": "TN",
    "Zipcode": 38152,
    "Latitude": 35.1159,
    "Longitude": -89.9935,
    "Admission Rate": 0.6841,
    "SAT Average": 1031,
    "ACT Median": 22,
    "Undergrad Population": 15296,
    "In-state Tuition": 8312,
    "Out-of-state Tuition": 23024,
    "Tuition Difference": 14712,
    "Diff Percent": 277,
    "yikyak": "https://www.yikyak.com/map?lat=35.1159&long=-89.9935"
  },
  {
    "Name": "Georgia State University",
    "City": "Atlanta",
    "State": "GA",
    "Zipcode": "30303-3083",
    "Latitude": 33.7527,
    "Longitude": -84.3867,
    "Admission Rate": 0.5466,
    "SAT Average": 1060,
    "ACT Median": 23,
    "Undergrad Population": 16444,
    "In-state Tuition": 8368,
    "Out-of-state Tuition": 22936,
    "Tuition Difference": 14568,
    "Diff Percent": 274.09,
    "yikyak": "https://www.yikyak.com/map?lat=33.7527&long=-84.3867"
  },
  {
    "Name": "The University of Alabama",
    "City": "Tuscaloosa",
    "State": "AL",
    "Zipcode": "35487-0166",
    "Latitude": 33.2144,
    "Longitude": -87.5458,
    "Admission Rate": 0.5655,
    "SAT Average": 1171,
    "ACT Median": 26,
    "Undergrad Population": 15318,
    "In-state Tuition": 9450,
    "Out-of-state Tuition": 23950,
    "Tuition Difference": 14500,
    "Diff Percent": 253.44,
    "yikyak": "https://www.yikyak.com/map?lat=33.2144&long=-87.5458"
  },
  {
    "Name": "Austin Peay State University",
    "City": "Clarksville",
    "State": "TN",
    "Zipcode": 37044,
    "Latitude": 36.5333,
    "Longitude": -87.3541,
    "Admission Rate": 0.8595,
    "SAT Average": 1009,
    "ACT Median": 22,
    "Undergrad Population": 6658,
    "In-state Tuition": 6876,
    "Out-of-state Tuition": 21372,
    "Tuition Difference": 14496,
    "Diff Percent": 310.82,
    "yikyak": "https://www.yikyak.com/map?lat=36.5333&long=-87.3541"
  },
  {
    "Name": "James Madison University",
    "City": "Harrisonburg",
    "State": "VA",
    "Zipcode": 22807,
    "Latitude": 38.4353,
    "Longitude": -78.8717,
    "Admission Rate": 0.6356,
    "SAT Average": 1149,
    "ACT Median": 25,
    "Undergrad Population": 14280,
    "In-state Tuition": 9176,
    "Out-of-state Tuition": 23654,
    "Tuition Difference": 14478,
    "Diff Percent": 257.78,
    "yikyak": "https://www.yikyak.com/map?lat=38.4353&long=-78.8717"
  },
  {
    "Name": "University of North Florida",
    "City": "Jacksonville",
    "State": "FL",
    "Zipcode": "32224-7699",
    "Latitude": 30.2709,
    "Longitude": -81.5079,
    "Admission Rate": 0.5343,
    "SAT Average": 1143,
    "ACT Median": 25,
    "Undergrad Population": 10663,
    "In-state Tuition": 6353,
    "Out-of-state Tuition": 20756,
    "Tuition Difference": 14403,
    "Diff Percent": 326.71,
    "yikyak": "https://www.yikyak.com/map?lat=30.2709&long=-81.5079"
  },
  {
    "Name": "University of Illinois at Urbana-Champaign",
    "City": "Champaign",
    "State": "IL",
    "Zipcode": "61820-5711",
    "Latitude": 40.1089,
    "Longitude": -88.2303,
    "Admission Rate": 0.6239,
    "SAT Average": 1303,
    "ACT Median": 29,
    "Undergrad Population": 28414,
    "In-state Tuition": 14750,
    "Out-of-state Tuition": 29132,
    "Tuition Difference": 14382,
    "Diff Percent": 197.51,
    "yikyak": "https://www.yikyak.com/map?lat=40.1089&long=-88.2303"
  },
  {
    "Name": "University of Missouri-Columbia",
    "City": "Columbia",
    "State": "MO",
    "Zipcode": 65211,
    "Latitude": 38.941,
    "Longitude": -92.3264,
    "Admission Rate": 0.7861,
    "SAT Average": 1165,
    "ACT Median": 26,
    "Undergrad Population": 18058,
    "In-state Tuition": 9415,
    "Out-of-state Tuition": 23764,
    "Tuition Difference": 14349,
    "Diff Percent": 252.41,
    "yikyak": "https://www.yikyak.com/map?lat=38.941&long=-92.3264"
  },
  {
    "Name": "University of Colorado Denver",
    "City": "Denver",
    "State": "CO",
    "Zipcode": "80217-3364",
    "Latitude": 39.7464,
    "Longitude": -104.9993,
    "Admission Rate": 0.7587,
    "SAT Average": 1073,
    "ACT Median": 23,
    "Undergrad Population": 8093,
    "In-state Tuition": 7933,
    "Out-of-state Tuition": 22057,
    "Tuition Difference": 14124,
    "Diff Percent": 278.04,
    "yikyak": "https://www.yikyak.com/map?lat=39.7464&long=-104.9993"
  },
  {
    "Name": "East Carolina University",
    "City": "Greenville",
    "State": "NC",
    "Zipcode": "27858-4353",
    "Latitude": 35.6063,
    "Longitude": -77.3662,
    "Admission Rate": 0.6217,
    "SAT Average": 1050,
    "ACT Median": 23,
    "Undergrad Population": 15018,
    "In-state Tuition": 6143,
    "Out-of-state Tuition": 20256,
    "Tuition Difference": 14113,
    "Diff Percent": 329.74,
    "yikyak": "https://www.yikyak.com/map?lat=35.6063&long=-77.3662"
  },
  {
    "Name": "University of Massachusetts-Lowell",
    "City": "Lowell",
    "State": "MA",
    "Zipcode": "01854-5104",
    "Latitude": 42.6537,
    "Longitude": -71.3251,
    "Admission Rate": 0.6397,
    "SAT Average": 1132,
    "ACT Median": 25,
    "Undergrad Population": 9543,
    "In-state Tuition": 12097,
    "Out-of-state Tuition": 26146,
    "Tuition Difference": 14049,
    "Diff Percent": 216.14,
    "yikyak": "https://www.yikyak.com/map?lat=42.6537&long=-71.3251"
  },
  {
    "Name": "Rutgers University-New Brunswick",
    "City": "New Brunswick",
    "State": "NJ",
    "Zipcode": "08901-1281",
    "Latitude": 40.5038,
    "Longitude": -74.4505,
    "Admission Rate": 0.5951,
    "SAT Average": 1210,
    "ACT Median": "",
    "Undergrad Population": 27938,
    "In-state Tuition": 13499,
    "Out-of-state Tuition": 27523,
    "Tuition Difference": 14024,
    "Diff Percent": 203.89,
    "yikyak": "https://www.yikyak.com/map?lat=40.5038&long=-74.4505"
  },
  {
    "Name": "Rutgers University-Newark",
    "City": "Newark",
    "State": "NJ",
    "Zipcode": 7102,
    "Latitude": 40.7413,
    "Longitude": -74.1753,
    "Admission Rate": 0.5401,
    "SAT Average": 1059,
    "ACT Median": "",
    "Undergrad Population": 5873,
    "In-state Tuition": 12998,
    "Out-of-state Tuition": 27022,
    "Tuition Difference": 14024,
    "Diff Percent": 207.89,
    "yikyak": "https://www.yikyak.com/map?lat=40.7413&long=-74.1753"
  },
  {
    "Name": "Montana State University",
    "City": "Bozeman",
    "State": "MT",
    "Zipcode": 59717,
    "Latitude": 45.6668,
    "Longitude": -111.0499,
    "Admission Rate": 0.8449,
    "SAT Average": 1115,
    "ACT Median": 24,
    "Undergrad Population": 10441,
    "In-state Tuition": 6752,
    "Out-of-state Tuition": 20717,
    "Tuition Difference": 13965,
    "Diff Percent": 306.83,
    "yikyak": "https://www.yikyak.com/map?lat=45.6668&long=-111.0499"
  },
  {
    "Name": "University of Nevada-Las Vegas",
    "City": "Las Vegas",
    "State": "NV",
    "Zipcode": 89154,
    "Latitude": 36.107,
    "Longitude": -115.1412,
    "Admission Rate": 0.8512,
    "SAT Average": 1003,
    "ACT Median": 22,
    "Undergrad Population": 17327,
    "In-state Tuition": 6690,
    "Out-of-state Tuition": 20600,
    "Tuition Difference": 13910,
    "Diff Percent": 307.92,
    "yikyak": "https://www.yikyak.com/map?lat=36.107&long=-115.1412"
  },
  {
    "Name": "University of Nevada-Reno",
    "City": "Reno",
    "State": "NV",
    "Zipcode": 89557,
    "Latitude": 39.5528,
    "Longitude": -119.8256,
    "Admission Rate": 0.8396,
    "SAT Average": 1081,
    "ACT Median": 24,
    "Undergrad Population": 10134,
    "In-state Tuition": 6610,
    "Out-of-state Tuition": 20520,
    "Tuition Difference": 13910,
    "Diff Percent": 310.44,
    "yikyak": "https://www.yikyak.com/map?lat=39.5528&long=-119.8256"
  },
  {
    "Name": "University of Louisville",
    "City": "Louisville",
    "State": "KY",
    "Zipcode": "40292-0001",
    "Latitude": 38.2158,
    "Longitude": -85.7588,
    "Admission Rate": 0.7112,
    "SAT Average": 1142,
    "ACT Median": 25,
    "Undergrad Population": 14464,
    "In-state Tuition": 9946,
    "Out-of-state Tuition": 23834,
    "Tuition Difference": 13888,
    "Diff Percent": 239.63,
    "yikyak": "https://www.yikyak.com/map?lat=38.2158&long=-85.7588"
  },
  {
    "Name": "University of New Mexico-Main Campus",
    "City": "Albuquerque",
    "State": "NM",
    "Zipcode": 87106,
    "Latitude": 35.0839,
    "Longitude": -106.6202,
    "Admission Rate": 0.6458,
    "SAT Average": 1038,
    "ACT Median": 22,
    "Undergrad Population": 16414,
    "In-state Tuition": 6846,
    "Out-of-state Tuition": 20688,
    "Tuition Difference": 13842,
    "Diff Percent": 302.19,
    "yikyak": "https://www.yikyak.com/map?lat=35.0839&long=-106.6202"
  },
  {
    "Name": "University of North Carolina at Asheville",
    "City": "Asheville",
    "State": "NC",
    "Zipcode": "28804-8510",
    "Latitude": 35.6166,
    "Longitude": -82.5653,
    "Admission Rate": 0.6403,
    "SAT Average": 1190,
    "ACT Median": 26,
    "Undergrad Population": 3245,
    "In-state Tuition": 6241,
    "Out-of-state Tuition": 20063,
    "Tuition Difference": 13822,
    "Diff Percent": 321.47,
    "yikyak": "https://www.yikyak.com/map?lat=35.6166&long=-82.5653"
  },
  {
    "Name": "St Mary's College of Maryland",
    "City": "St. Mary's City",
    "State": "MD",
    "Zipcode": "20686-3001",
    "Latitude": 38.1886,
    "Longitude": -76.4257,
    "Admission Rate": 0.7204,
    "SAT Average": 1221,
    "ACT Median": 28,
    "Undergrad Population": 1547,
    "In-state Tuition": 14864,
    "Out-of-state Tuition": 28664,
    "Tuition Difference": 13800,
    "Diff Percent": 192.84,
    "yikyak": "https://www.yikyak.com/map?lat=38.1886&long=-76.4257"
  },
  {
    "Name": "University of North Carolina at Greensboro",
    "City": "Greensboro",
    "State": "NC",
    "Zipcode": "27402-6170",
    "Latitude": 36.0675,
    "Longitude": -79.8098,
    "Admission Rate": 0.6002,
    "SAT Average": 1029,
    "ACT Median": 23,
    "Undergrad Population": 10109,
    "In-state Tuition": 6382,
    "Out-of-state Tuition": 20180,
    "Tuition Difference": 13798,
    "Diff Percent": 316.2,
    "yikyak": "https://www.yikyak.com/map?lat=36.0675&long=-79.8098"
  },
  {
    "Name": "Arizona State University-Tempe",
    "City": "Tempe",
    "State": "AZ",
    "Zipcode": 85287,
    "Latitude": 33.4219,
    "Longitude": -111.94,
    "Admission Rate": 0.8023,
    "SAT Average": 1145,
    "ACT Median": 25,
    "Undergrad Population": 33985,
    "In-state Tuition": 9861,
    "Out-of-state Tuition": 23654,
    "Tuition Difference": 13793,
    "Diff Percent": 239.87,
    "yikyak": "https://www.yikyak.com/map?lat=33.4219&long=-111.94"
  },
  {
    "Name": "Castleton State College",
    "City": "Castleton",
    "State": "VT",
    "Zipcode": 5735,
    "Latitude": 43.608,
    "Longitude": -73.1815,
    "Admission Rate": 0.9205,
    "SAT Average": 954,
    "ACT Median": 20,
    "Undergrad Population": 1480,
    "In-state Tuition": 10286,
    "Out-of-state Tuition": 24014,
    "Tuition Difference": 13728,
    "Diff Percent": 233.46,
    "yikyak": "https://www.yikyak.com/map?lat=43.608&long=-73.1815"
  },
  {
    "Name": "Oregon Institute of Technology",
    "City": "Klamath Falls",
    "State": "OR",
    "Zipcode": "97601-8801",
    "Latitude": 42.2572,
    "Longitude": -121.7852,
    "Admission Rate": 0.7135,
    "SAT Average": 1025,
    "ACT Median": 23,
    "Undergrad Population": 2804,
    "In-state Tuition": 8548,
    "Out-of-state Tuition": 22188,
    "Tuition Difference": 13640,
    "Diff Percent": 259.57,
    "yikyak": "https://www.yikyak.com/map?lat=42.2572&long=-121.7852"
  },
  {
    "Name": "Rutgers University-Camden",
    "City": "Camden",
    "State": "NJ",
    "Zipcode": 8102,
    "Latitude": 39.9486,
    "Longitude": -75.1253,
    "Admission Rate": 0.5859,
    "SAT Average": 1035,
    "ACT Median": "",
    "Undergrad Population": 3717,
    "In-state Tuition": 13348,
    "Out-of-state Tuition": 26908,
    "Tuition Difference": 13560,
    "Diff Percent": 201.59,
    "yikyak": "https://www.yikyak.com/map?lat=39.9486&long=-75.1253"
  },
  {
    "Name": "Western Kentucky University",
    "City": "Bowling Green",
    "State": "KY",
    "Zipcode": "42101-1000",
    "Latitude": 36.9857,
    "Longitude": -86.4559,
    "Admission Rate": 0.9232,
    "SAT Average": 1009,
    "ACT Median": 22,
    "Undergrad Population": 13235,
    "In-state Tuition": 8722,
    "Out-of-state Tuition": 22248,
    "Tuition Difference": 13526,
    "Diff Percent": 255.08,
    "yikyak": "https://www.yikyak.com/map?lat=36.9857&long=-86.4559"
  },
  {
    "Name": "Norfolk State University",
    "City": "Norfolk",
    "State": "VA",
    "Zipcode": "23504-8000",
    "Latitude": 36.8483,
    "Longitude": -76.2639,
    "Admission Rate": 0.6499,
    "SAT Average": 879,
    "ACT Median": 18,
    "Undergrad Population": 5890,
    "In-state Tuition": 7126,
    "Out-of-state Tuition": 20596,
    "Tuition Difference": 13470,
    "Diff Percent": 289.03,
    "yikyak": "https://www.yikyak.com/map?lat=36.8483&long=-76.2639"
  },
  {
    "Name": "North Carolina State University at Raleigh",
    "City": "Raleigh",
    "State": "NC",
    "Zipcode": "27695-7001",
    "Latitude": 35.7851,
    "Longitude": -78.6745,
    "Admission Rate": 0.5001,
    "SAT Average": 1229,
    "ACT Median": 28,
    "Undergrad Population": 21990,
    "In-state Tuition": 8206,
    "Out-of-state Tuition": 21661,
    "Tuition Difference": 13455,
    "Diff Percent": 263.97,
    "yikyak": "https://www.yikyak.com/map?lat=35.7851&long=-78.6745"
  },
  {
    "Name": "New Mexico State University-Main Campus",
    "City": "Las Cruces",
    "State": "NM",
    "Zipcode": "88003-8001",
    "Latitude": 32.2829,
    "Longitude": -106.7478,
    "Admission Rate": 0.852,
    "SAT Average": 982,
    "ACT Median": 21,
    "Undergrad Population": 12453,
    "In-state Tuition": 6220,
    "Out-of-state Tuition": 19644,
    "Tuition Difference": 13424,
    "Diff Percent": 315.82,
    "yikyak": "https://www.yikyak.com/map?lat=32.2829&long=-106.7478"
  },
  {
    "Name": "University of Nebraska-Lincoln",
    "City": "Lincoln",
    "State": "NE",
    "Zipcode": 68588,
    "Latitude": 40.8223,
    "Longitude": -96.7022,
    "Admission Rate": 0.6404,
    "SAT Average": 1147,
    "ACT Median": 25,
    "Undergrad Population": 17968,
    "In-state Tuition": 8060,
    "Out-of-state Tuition": 21388,
    "Tuition Difference": 13328,
    "Diff Percent": 265.36,
    "yikyak": "https://www.yikyak.com/map?lat=40.8223&long=-96.7022"
  },
  {
    "Name": "West Virginia University",
    "City": "Morgantown",
    "State": "WV",
    "Zipcode": "26506-6201",
    "Latitude": 39.6347,
    "Longitude": -79.9539,
    "Admission Rate": 0.851,
    "SAT Average": 1062,
    "ACT Median": 24,
    "Undergrad Population": 15463,
    "In-state Tuition": 6456,
    "Out-of-state Tuition": 19632,
    "Tuition Difference": 13176,
    "Diff Percent": 304.09,
    "yikyak": "https://www.yikyak.com/map?lat=39.6347&long=-79.9539"
  },
  {
    "Name": "University of North Carolina School of the Arts",
    "City": "Winston-Salem",
    "State": "NC",
    "Zipcode": "27117-2189",
    "Latitude": 36.0748,
    "Longitude": -80.2366,
    "Admission Rate": 0.4521,
    "SAT Average": 1105,
    "ACT Median": 23,
    "Undergrad Population": 692,
    "In-state Tuition": 8271,
    "Out-of-state Tuition": 21416,
    "Tuition Difference": 13145,
    "Diff Percent": 258.93,
    "yikyak": "https://www.yikyak.com/map?lat=36.0748&long=-80.2366"
  },
  {
    "Name": "Western Oregon University",
    "City": "Monmouth",
    "State": "OR",
    "Zipcode": "97361-1394",
    "Latitude": 44.8519,
    "Longitude": -123.2388,
    "Admission Rate": 0.882,
    "SAT Average": 950,
    "ACT Median": "",
    "Undergrad Population": 4201,
    "In-state Tuition": 8634,
    "Out-of-state Tuition": 21759,
    "Tuition Difference": 13125,
    "Diff Percent": 252.02,
    "yikyak": "https://www.yikyak.com/map?lat=44.8519&long=-123.2388"
  },
  {
    "Name": "Washington State University",
    "City": "Pullman",
    "State": "WA",
    "Zipcode": "99164-5910",
    "Latitude": 46.7304,
    "Longitude": -117.1582,
    "Admission Rate": 0.8208,
    "SAT Average": 1030,
    "ACT Median": 22,
    "Undergrad Population": 4224,
    "In-state Tuition": 12327,
    "Out-of-state Tuition": 25409,
    "Tuition Difference": 13082,
    "Diff Percent": 206.12,
    "yikyak": "https://www.yikyak.com/map?lat=46.7304&long=-117.1582"
  },
  {
    "Name": "University of Idaho",
    "City": "Moscow",
    "State": "ID",
    "Zipcode": "83844-2282",
    "Latitude": 46.7269,
    "Longitude": -117.0243,
    "Admission Rate": 0.6565,
    "SAT Average": 1070,
    "ACT Median": 23,
    "Undergrad Population": 8759,
    "In-state Tuition": 6524,
    "Out-of-state Tuition": 19600,
    "Tuition Difference": 13076,
    "Diff Percent": 300.43,
    "yikyak": "https://www.yikyak.com/map?lat=46.7269&long=-117.0243"
  },
  {
    "Name": "New Jersey Institute of Technology",
    "City": "Newark",
    "State": "NJ",
    "Zipcode": 7102,
    "Latitude": 40.742,
    "Longitude": -74.1771,
    "Admission Rate": 0.6547,
    "SAT Average": 1142,
    "ACT Median": 26,
    "Undergrad Population": 5637,
    "In-state Tuition": 15218,
    "Out-of-state Tuition": 28274,
    "Tuition Difference": 13056,
    "Diff Percent": 185.79,
    "yikyak": "https://www.yikyak.com/map?lat=40.742&long=-74.1771"
  },
  {
    "Name": "Coastal Carolina University",
    "City": "Conway",
    "State": "SC",
    "Zipcode": 29526,
    "Latitude": 33.7977,
    "Longitude": -79.013,
    "Admission Rate": 0.7404,
    "SAT Average": 993,
    "ACT Median": 21,
    "Undergrad Population": 4405,
    "In-state Tuition": 9760,
    "Out-of-state Tuition": 22770,
    "Tuition Difference": 13010,
    "Diff Percent": 233.3,
    "yikyak": "https://www.yikyak.com/map?lat=33.7977&long=-79.013"
  },
  {
    "Name": "The University of West Florida",
    "City": "Pensacola",
    "State": "FL",
    "Zipcode": "32514-5750",
    "Latitude": 30.5429,
    "Longitude": -87.2181,
    "Admission Rate": 0.4808,
    "SAT Average": 1062,
    "ACT Median": 24,
    "Undergrad Population": 6753,
    "In-state Tuition": 6357,
    "Out-of-state Tuition": 19238,
    "Tuition Difference": 12881,
    "Diff Percent": 302.63,
    "yikyak": "https://www.yikyak.com/map?lat=30.5429&long=-87.2181"
  },
  {
    "Name": "University of Mary Washington",
    "City": "Fredericksburg",
    "State": "VA",
    "Zipcode": "22401-5300",
    "Latitude": 38.3022,
    "Longitude": -77.4744,
    "Admission Rate": 0.8096,
    "SAT Average": 1110,
    "ACT Median": 24,
    "Undergrad Population": 4103,
    "In-state Tuition": 9720,
    "Out-of-state Tuition": 22590,
    "Tuition Difference": 12870,
    "Diff Percent": 232.41,
    "yikyak": "https://www.yikyak.com/map?lat=38.3022&long=-77.4744"
  },
  {
    "Name": "Longwood University",
    "City": "Farmville",
    "State": "VA",
    "Zipcode": 23909,
    "Latitude": 37.3011,
    "Longitude": -78.3958,
    "Admission Rate": 0.8136,
    "SAT Average": 1002,
    "ACT Median": 21,
    "Undergrad Population": 3387,
    "In-state Tuition": 11340,
    "Out-of-state Tuition": 24210,
    "Tuition Difference": 12870,
    "Diff Percent": 213.49,
    "yikyak": "https://www.yikyak.com/map?lat=37.3011&long=-78.3958"
  },
  {
    "Name": "University of New Hampshire-Main Campus",
    "City": "Durham",
    "State": "NH",
    "Zipcode": "03824-3547",
    "Latitude": 43.1342,
    "Longitude": -70.9345,
    "Admission Rate": 0.7784,
    "SAT Average": 1100,
    "ACT Median": "",
    "Undergrad Population": 5954,
    "In-state Tuition": 16496,
    "Out-of-state Tuition": 29216,
    "Tuition Difference": 12720,
    "Diff Percent": 177.11,
    "yikyak": "https://www.yikyak.com/map?lat=43.1342&long=-70.9345"
  },
  {
    "Name": "University of New Hampshire at Manchester",
    "City": "Manchester",
    "State": "NH",
    "Zipcode": "03101-1113",
    "Latitude": 42.9903,
    "Longitude": -71.4688,
    "Admission Rate": 0.7306,
    "SAT Average": 1020,
    "ACT Median": "",
    "Undergrad Population": 5945,
    "In-state Tuition": 13762,
    "Out-of-state Tuition": 26482,
    "Tuition Difference": 12720,
    "Diff Percent": 192.43,
    "yikyak": "https://www.yikyak.com/map?lat=42.9903&long=-71.4688"
  },
  {
    "Name": "Southern Illinois University-Carbondale",
    "City": "Carbondale",
    "State": "IL",
    "Zipcode": "62901-4512",
    "Latitude": 37.7192,
    "Longitude": -89.2176,
    "Admission Rate": 0.7887,
    "SAT Average": 1032,
    "ACT Median": 22,
    "Undergrad Population": 17788,
    "In-state Tuition": 12093,
    "Out-of-state Tuition": 24716,
    "Tuition Difference": 12623,
    "Diff Percent": 204.38,
    "yikyak": "https://www.yikyak.com/map?lat=37.7192&long=-89.2176"
  },
  {
    "Name": "Boise State University",
    "City": "Boise",
    "State": "ID",
    "Zipcode": 83725,
    "Latitude": 43.6044,
    "Longitude": -116.2058,
    "Admission Rate": 0.7766,
    "SAT Average": 1050,
    "ACT Median": 23,
    "Undergrad Population": 14756,
    "In-state Tuition": 6292,
    "Out-of-state Tuition": 18892,
    "Tuition Difference": 12600,
    "Diff Percent": 300.25,
    "yikyak": "https://www.yikyak.com/map?lat=43.6044&long=-116.2058"
  },
  {
    "Name": "Oklahoma State University-Main Campus",
    "City": "Stillwater",
    "State": "OK",
    "Zipcode": "74078-1015",
    "Latitude": 36.1231,
    "Longitude": -97.0697,
    "Admission Rate": 0.7602,
    "SAT Average": 1138,
    "ACT Median": 25,
    "Undergrad Population": 16574,
    "In-state Tuition": 7442,
    "Out-of-state Tuition": 20027,
    "Tuition Difference": 12585,
    "Diff Percent": 269.11,
    "yikyak": "https://www.yikyak.com/map?lat=36.1231&long=-97.0697"
  },
  {
    "Name": "Pennsylvania State University-Main Campus",
    "City": "University Park",
    "State": "PA",
    "Zipcode": "16802-1503",
    "Latitude": 40.8007,
    "Longitude": -77.8616,
    "Admission Rate": 0.542,
    "SAT Average": 1199,
    "ACT Median": 27,
    "Undergrad Population": 34406,
    "In-state Tuition": 16992,
    "Out-of-state Tuition": 29566,
    "Tuition Difference": 12574,
    "Diff Percent": 174,
    "yikyak": "https://www.yikyak.com/map?lat=40.8007&long=-77.8616"
  },
  {
    "Name": "Winthrop University",
    "City": "Rock Hill",
    "State": "SC",
    "Zipcode": 29733,
    "Latitude": 34.9385,
    "Longitude": -81.0287,
    "Admission Rate": 0.7225,
    "SAT Average": 1030,
    "ACT Median": 22,
    "Undergrad Population": 4649,
    "In-state Tuition": 13670,
    "Out-of-state Tuition": 26240,
    "Tuition Difference": 12570,
    "Diff Percent": 191.95,
    "yikyak": "https://www.yikyak.com/map?lat=34.9385&long=-81.0287"
  },
  {
    "Name": "Iowa State University",
    "City": "Ames",
    "State": "IA",
    "Zipcode": "50011-2030",
    "Latitude": 42.0264,
    "Longitude": -93.6484,
    "Admission Rate": 0.8252,
    "SAT Average": 1145,
    "ACT Median": 25,
    "Undergrad Population": 22087,
    "In-state Tuition": 7726,
    "Out-of-state Tuition": 20278,
    "Tuition Difference": 12552,
    "Diff Percent": 262.46,
    "yikyak": "https://www.yikyak.com/map?lat=42.0264&long=-93.6484"
  },
  {
    "Name": "University of North Carolina at Charlotte",
    "City": "Charlotte",
    "State": "NC",
    "Zipcode": "28223-0001",
    "Latitude": 35.3068,
    "Longitude": -80.7358,
    "Admission Rate": 0.6852,
    "SAT Average": 1066,
    "ACT Median": 23,
    "Undergrad Population": 14388,
    "In-state Tuition": 6107,
    "Out-of-state Tuition": 18636,
    "Tuition Difference": 12529,
    "Diff Percent": 305.16,
    "yikyak": "https://www.yikyak.com/map?lat=35.3068&long=-80.7358"
  },
  {
    "Name": "University of New Orleans",
    "City": "New Orleans",
    "State": "LA",
    "Zipcode": 70148,
    "Latitude": 30.0285,
    "Longitude": -90.0685,
    "Admission Rate": 0.5036,
    "SAT Average": 1072,
    "ACT Median": 23,
    "Undergrad Population": 12260,
    "In-state Tuition": 6578,
    "Out-of-state Tuition": 19068,
    "Tuition Difference": 12490,
    "Diff Percent": 289.88,
    "yikyak": "https://www.yikyak.com/map?lat=30.0285&long=-90.0685"
  },
  {
    "Name": "University of Massachusetts-Dartmouth",
    "City": "North Dartmouth",
    "State": "MA",
    "Zipcode": "02747-2300",
    "Latitude": 41.6289,
    "Longitude": -71.0055,
    "Admission Rate": 0.7213,
    "SAT Average": 1061,
    "ACT Median": 23,
    "Undergrad Population": 6423,
    "In-state Tuition": 11681,
    "Out-of-state Tuition": 24156,
    "Tuition Difference": 12475,
    "Diff Percent": 206.8,
    "yikyak": "https://www.yikyak.com/map?lat=41.6289&long=-71.0055"
  },
  {
    "Name": "Southern Oregon University",
    "City": "Ashland",
    "State": "OR",
    "Zipcode": 97520,
    "Latitude": 42.1865,
    "Longitude": -122.694,
    "Admission Rate": 0.7304,
    "SAT Average": 1020,
    "ACT Median": "",
    "Undergrad Population": 4879,
    "In-state Tuition": 7438,
    "Out-of-state Tuition": 19900,
    "Tuition Difference": 12462,
    "Diff Percent": 267.55,
    "yikyak": "https://www.yikyak.com/map?lat=42.1865&long=-122.694"
  },
  {
    "Name": "Central Michigan University",
    "City": "Mount Pleasant",
    "State": "MI",
    "Zipcode": 48859,
    "Latitude": 43.6109,
    "Longitude": -84.7767,
    "Admission Rate": 0.6304,
    "SAT Average": 1029,
    "ACT Median": 22,
    "Undergrad Population": 18620,
    "In-state Tuition": 11220,
    "Out-of-state Tuition": 23670,
    "Tuition Difference": 12450,
    "Diff Percent": 210.96,
    "yikyak": "https://www.yikyak.com/map?lat=43.6109&long=-84.7767"
  },
  {
    "Name": "Florida Atlantic University",
    "City": "Boca Raton",
    "State": "FL",
    "Zipcode": "33431-0991",
    "Latitude": 26.3725,
    "Longitude": -80.1023,
    "Admission Rate": 0.4773,
    "SAT Average": 1039,
    "ACT Median": 22,
    "Undergrad Population": 17496,
    "In-state Tuition": 4790,
    "Out-of-state Tuition": 17234,
    "Tuition Difference": 12444,
    "Diff Percent": 359.79,
    "yikyak": "https://www.yikyak.com/map?lat=26.3725&long=-80.1023"
  },
  {
    "Name": "Florida International University",
    "City": "Miami",
    "State": "FL",
    "Zipcode": 33199,
    "Latitude": 25.7571,
    "Longitude": -80.3776,
    "Admission Rate": 0.4304,
    "SAT Average": 1154,
    "ACT Median": 26,
    "Undergrad Population": 26222,
    "In-state Tuition": 6496,
    "Out-of-state Tuition": 18895,
    "Tuition Difference": 12399,
    "Diff Percent": 290.87,
    "yikyak": "https://www.yikyak.com/map?lat=25.7571&long=-80.3776"
  },
  {
    "Name": "University of Illinois at Chicago",
    "City": "Chicago",
    "State": "IL",
    "Zipcode": 60607,
    "Latitude": 41.8727,
    "Longitude": -87.6511,
    "Admission Rate": 0.714,
    "SAT Average": 1092,
    "ACT Median": 24,
    "Undergrad Population": 16140,
    "In-state Tuition": 13410,
    "Out-of-state Tuition": 25800,
    "Tuition Difference": 12390,
    "Diff Percent": 192.39,
    "yikyak": "https://www.yikyak.com/map?lat=41.8727&long=-87.6511"
  },
  {
    "Name": "University of Southern Maine",
    "City": "Portland",
    "State": "ME",
    "Zipcode": 4103,
    "Latitude": 43.6626,
    "Longitude": -70.276,
    "Admission Rate": 0.828,
    "SAT Average": 1003,
    "ACT Median": 23,
    "Undergrad Population": 8726,
    "In-state Tuition": 8920,
    "Out-of-state Tuition": 21280,
    "Tuition Difference": 12360,
    "Diff Percent": 238.57,
    "yikyak": "https://www.yikyak.com/map?lat=43.6626&long=-70.276"
  },
  {
    "Name": "Northern Arizona University",
    "City": "Flagstaff",
    "State": "AZ",
    "Zipcode": "86011-4132",
    "Latitude": 35.1801,
    "Longitude": -111.6577,
    "Admission Rate": 0.9137,
    "SAT Average": 1050,
    "ACT Median": 23,
    "Undergrad Population": 13905,
    "In-state Tuition": 9738,
    "Out-of-state Tuition": 22093,
    "Tuition Difference": 12355,
    "Diff Percent": 226.87,
    "yikyak": "https://www.yikyak.com/map?lat=35.1801&long=-111.6577"
  },
  {
    "Name": "University of Alabama in Huntsville",
    "City": "Huntsville",
    "State": "AL",
    "Zipcode": 35899,
    "Latitude": 34.7228,
    "Longitude": -86.6384,
    "Admission Rate": 0.8062,
    "SAT Average": 1180,
    "ACT Median": 26,
    "Undergrad Population": 5220,
    "In-state Tuition": 9192,
    "Out-of-state Tuition": 21506,
    "Tuition Difference": 12314,
    "Diff Percent": 233.96,
    "yikyak": "https://www.yikyak.com/map?lat=34.7228&long=-86.6384"
  },
  {
    "Name": "Appalachian State University",
    "City": "Boone",
    "State": "NC",
    "Zipcode": 28608,
    "Latitude": 36.2017,
    "Longitude": -81.6626,
    "Admission Rate": 0.6323,
    "SAT Average": 1156,
    "ACT Median": 26,
    "Undergrad Population": 12112,
    "In-state Tuition": 6462,
    "Out-of-state Tuition": 18670,
    "Tuition Difference": 12208,
    "Diff Percent": 288.92,
    "yikyak": "https://www.yikyak.com/map?lat=36.2017&long=-81.6626"
  },
  {
    "Name": "Albany State University",
    "City": "Albany",
    "State": "GA",
    "Zipcode": 31705,
    "Latitude": 31.5714,
    "Longitude": -84.1431,
    "Admission Rate": 0.1992,
    "SAT Average": 887,
    "ACT Median": 19,
    "Undergrad Population": 3129,
    "In-state Tuition": 6024,
    "Out-of-state Tuition": 18226,
    "Tuition Difference": 12202,
    "Diff Percent": 302.56,
    "yikyak": "https://www.yikyak.com/map?lat=31.5714&long=-84.1431"
  },
  {
    "Name": "Fort Valley State University",
    "City": "Fort Valley",
    "State": "GA",
    "Zipcode": "31030-4313",
    "Latitude": 32.5382,
    "Longitude": -83.8955,
    "Admission Rate": 0.3273,
    "SAT Average": 830,
    "ACT Median": "",
    "Undergrad Population": 2212,
    "In-state Tuition": 6438,
    "Out-of-state Tuition": 18640,
    "Tuition Difference": 12202,
    "Diff Percent": 289.53,
    "yikyak": "https://www.yikyak.com/map?lat=32.5382&long=-83.8955"
  },
  {
    "Name": "University of Oklahoma-Norman Campus",
    "City": "Norman",
    "State": "OK",
    "Zipcode": "73019-3072",
    "Latitude": 35.2082,
    "Longitude": -97.4457,
    "Admission Rate": 0.8044,
    "SAT Average": 1176,
    "ACT Median": 26,
    "Undergrad Population": 17771,
    "In-state Tuition": 8916,
    "Out-of-state Tuition": 21105,
    "Tuition Difference": 12189,
    "Diff Percent": 236.71,
    "yikyak": "https://www.yikyak.com/map?lat=35.2082&long=-97.4457"
  },
  {
    "Name": "Radford University",
    "City": "Radford",
    "State": "VA",
    "Zipcode": "24141-0672",
    "Latitude": 37.1369,
    "Longitude": -80.5497,
    "Admission Rate": 0.7831,
    "SAT Average": 980,
    "ACT Median": 20,
    "Undergrad Population": 7622,
    "In-state Tuition": 8976,
    "Out-of-state Tuition": 21141,
    "Tuition Difference": 12165,
    "Diff Percent": 235.53,
    "yikyak": "https://www.yikyak.com/map?lat=37.1369&long=-80.5497"
  },
  {
    "Name": "Montana Tech of the University of Montana",
    "City": "Butte",
    "State": "MT",
    "Zipcode": "59701-8997",
    "Latitude": 46.0122,
    "Longitude": -112.557,
    "Admission Rate": 0.8891,
    "SAT Average": 1115,
    "ACT Median": 24,
    "Undergrad Population": 1420,
    "In-state Tuition": 6464,
    "Out-of-state Tuition": 18606,
    "Tuition Difference": 12142,
    "Diff Percent": 287.84,
    "yikyak": "https://www.yikyak.com/map?lat=46.0122&long=-112.557"
  },
  {
    "Name": "University of North Carolina Wilmington",
    "City": "Wilmington",
    "State": "NC",
    "Zipcode": "28403-5963",
    "Latitude": 34.2252,
    "Longitude": -77.8755,
    "Admission Rate": 0.5419,
    "SAT Average": 1154,
    "ACT Median": 24,
    "Undergrad Population": 9343,
    "In-state Tuition": 6343,
    "Out-of-state Tuition": 18480,
    "Tuition Difference": 12137,
    "Diff Percent": 291.34,
    "yikyak": "https://www.yikyak.com/map?lat=34.2252&long=-77.8755"
  },
  {
    "Name": "Murray State University",
    "City": "Murray",
    "State": "KY",
    "Zipcode": "42071-3318",
    "Latitude": 36.6124,
    "Longitude": -88.3235,
    "Admission Rate": 0.8217,
    "SAT Average": 1029,
    "ACT Median": 22,
    "Undergrad Population": 7487,
    "In-state Tuition": 7044,
    "Out-of-state Tuition": 19164,
    "Tuition Difference": 12120,
    "Diff Percent": 272.06,
    "yikyak": "https://www.yikyak.com/map?lat=36.6124&long=-88.3235"
  },
  {
    "Name": "Metropolitan State University of Denver",
    "City": "Denver",
    "State": "CO",
    "Zipcode": "80217-3362",
    "Latitude": 39.7422,
    "Longitude": -105.0024,
    "Admission Rate": 0.7116,
    "SAT Average": 973,
    "ACT Median": 21,
    "Undergrad Population": 17688,
    "In-state Tuition": 5744,
    "Out-of-state Tuition": 17837,
    "Tuition Difference": 12093,
    "Diff Percent": 310.53,
    "yikyak": "https://www.yikyak.com/map?lat=39.7422&long=-105.0024"
  },
  {
    "Name": "The Evergreen State College",
    "City": "Olympia",
    "State": "WA",
    "Zipcode": "98505-0001",
    "Latitude": 47.0738,
    "Longitude": -122.9775,
    "Admission Rate": 0.9709,
    "SAT Average": 1081,
    "ACT Median": 24,
    "Undergrad Population": 3901,
    "In-state Tuition": 8574,
    "Out-of-state Tuition": 20661,
    "Tuition Difference": 12087,
    "Diff Percent": 240.97,
    "yikyak": "https://www.yikyak.com/map?lat=47.0738&long=-122.9775"
  },
  {
    "Name": "Southern Utah University",
    "City": "Cedar City",
    "State": "UT",
    "Zipcode": 84720,
    "Latitude": 37.6746,
    "Longitude": -113.0701,
    "Admission Rate": 0.5709,
    "SAT Average": 1066,
    "ACT Median": 23,
    "Undergrad Population": 5729,
    "In-state Tuition": 5924,
    "Out-of-state Tuition": 17902,
    "Tuition Difference": 11978,
    "Diff Percent": 302.19,
    "yikyak": "https://www.yikyak.com/map?lat=37.6746&long=-113.0701"
  },
  {
    "Name": "University at Buffalo",
    "City": "Buffalo",
    "State": "NY",
    "Zipcode": "14260-1660",
    "Latitude": 43.0004,
    "Longitude": -78.7892,
    "Admission Rate": 0.5652,
    "SAT Average": 1158,
    "ACT Median": 26,
    "Undergrad Population": 16683,
    "In-state Tuition": 8211,
    "Out-of-state Tuition": 20151,
    "Tuition Difference": 11940,
    "Diff Percent": 245.41,
    "yikyak": "https://www.yikyak.com/map?lat=43.0004&long=-78.7892"
  },
  {
    "Name": "Stony Brook University",
    "City": "Stony Brook",
    "State": "NY",
    "Zipcode": 11794,
    "Latitude": 40.9164,
    "Longitude": -73.1473,
    "Admission Rate": 0.3948,
    "SAT Average": 1253,
    "ACT Median": 28,
    "Undergrad Population": 13257,
    "In-state Tuition": 7995,
    "Out-of-state Tuition": 19935,
    "Tuition Difference": 11940,
    "Diff Percent": 249.34,
    "yikyak": "https://www.yikyak.com/map?lat=40.9164&long=-73.1473"
  },
  {
    "Name": "Florida Agricultural and Mechanical University",
    "City": "Tallahassee",
    "State": "FL",
    "Zipcode": 32307,
    "Latitude": 30.4286,
    "Longitude": -84.2857,
    "Admission Rate": 0.45,
    "SAT Average": 947,
    "ACT Median": 20,
    "Undergrad Population": 10707,
    "In-state Tuition": 5785,
    "Out-of-state Tuition": 17725,
    "Tuition Difference": 11940,
    "Diff Percent": 306.4,
    "yikyak": "https://www.yikyak.com/map?lat=30.4286&long=-84.2857"
  },
  {
    "Name": "The University of Texas at El Paso",
    "City": "El Paso",
    "State": "TX",
    "Zipcode": "79968-0691",
    "Latitude": 31.7717,
    "Longitude": -106.5036,
    "Admission Rate": 0.9981,
    "SAT Average": 923,
    "ACT Median": 20,
    "Undergrad Population": 12955,
    "In-state Tuition": 7255,
    "Out-of-state Tuition": 19175,
    "Tuition Difference": 11920,
    "Diff Percent": 264.3,
    "yikyak": "https://www.yikyak.com/map?lat=31.7717&long=-106.5036"
  },
  {
    "Name": "Central Washington University",
    "City": "Ellensburg",
    "State": "WA",
    "Zipcode": "98926-7501",
    "Latitude": 47.005,
    "Longitude": -120.5377,
    "Admission Rate": 0.8216,
    "SAT Average": 986,
    "ACT Median": 21,
    "Undergrad Population": 7603,
    "In-state Tuition": 8976,
    "Out-of-state Tuition": 20886,
    "Tuition Difference": 11910,
    "Diff Percent": 232.69,
    "yikyak": "https://www.yikyak.com/map?lat=47.005&long=-120.5377"
  },
  {
    "Name": "University of Maine at Machias",
    "City": "Machias",
    "State": "ME",
    "Zipcode": "04654-1397",
    "Latitude": 44.7099,
    "Longitude": -67.4565,
    "Admission Rate": 0.854,
    "SAT Average": 937,
    "ACT Median": 22,
    "Undergrad Population": 927,
    "In-state Tuition": 7490,
    "Out-of-state Tuition": 19370,
    "Tuition Difference": 11880,
    "Diff Percent": 258.61,
    "yikyak": "https://www.yikyak.com/map?lat=44.7099&long=-67.4565"
  },
  {
    "Name": "Montana State University-Northern",
    "City": "Havre",
    "State": "MT",
    "Zipcode": 59501,
    "Latitude": 48.5411,
    "Longitude": -109.6865,
    "Admission Rate": 1,
    "SAT Average": 925,
    "ACT Median": 20,
    "Undergrad Population": 1389,
    "In-state Tuition": 5480,
    "Out-of-state Tuition": 17312,
    "Tuition Difference": 11832,
    "Diff Percent": 315.91,
    "yikyak": "https://www.yikyak.com/map?lat=48.5411&long=-109.6865"
  },
  {
    "Name": "Emporia State University",
    "City": "Emporia",
    "State": "KS",
    "Zipcode": "66801-5087",
    "Latitude": 38.4126,
    "Longitude": -96.1795,
    "Admission Rate": 0.6069,
    "SAT Average": 1030,
    "ACT Median": 22,
    "Undergrad Population": 4198,
    "In-state Tuition": 5614,
    "Out-of-state Tuition": 17388,
    "Tuition Difference": 11774,
    "Diff Percent": 309.73,
    "yikyak": "https://www.yikyak.com/map?lat=38.4126&long=-96.1795"
  },
  {
    "Name": "University of Hawaii at Hilo",
    "City": "Hilo",
    "State": "HI",
    "Zipcode": "96720-4091",
    "Latitude": 19.7019,
    "Longitude": -155.0813,
    "Admission Rate": 0.752,
    "SAT Average": 967,
    "ACT Median": 21,
    "Undergrad Population": 2646,
    "In-state Tuition": 6536,
    "Out-of-state Tuition": 18296,
    "Tuition Difference": 11760,
    "Diff Percent": 279.93,
    "yikyak": "https://www.yikyak.com/map?lat=19.7019&long=-155.0813"
  },
  {
    "Name": "Towson University",
    "City": "Towson",
    "State": "MD",
    "Zipcode": "21252-0001",
    "Latitude": 39.393,
    "Longitude": -76.6123,
    "Admission Rate": 0.6034,
    "SAT Average": 1078,
    "ACT Median": 23,
    "Undergrad Population": 13905,
    "In-state Tuition": 8342,
    "Out-of-state Tuition": 20020,
    "Tuition Difference": 11678,
    "Diff Percent": 239.99,
    "yikyak": "https://www.yikyak.com/map?lat=39.393&long=-76.6123"
  },
  {
    "Name": "Johnson State College",
    "City": "Johnson",
    "State": "VT",
    "Zipcode": "05656-9464",
    "Latitude": 44.6417,
    "Longitude": -72.6712,
    "Admission Rate": 0.9688,
    "SAT Average": 948,
    "ACT Median": 19,
    "Undergrad Population": 1361,
    "In-state Tuition": 10286,
    "Out-of-state Tuition": 21950,
    "Tuition Difference": 11664,
    "Diff Percent": 213.4,
    "yikyak": "https://www.yikyak.com/map?lat=44.6417&long=-72.6712"
  },
  {
    "Name": "Eastern Washington University",
    "City": "Cheney",
    "State": "WA",
    "Zipcode": "99004-2496",
    "Latitude": 47.4913,
    "Longitude": -117.5894,
    "Admission Rate": 0.7967,
    "SAT Average": 970,
    "ACT Median": 21,
    "Undergrad Population": 7567,
    "In-state Tuition": 7961,
    "Out-of-state Tuition": 19612,
    "Tuition Difference": 11651,
    "Diff Percent": 246.35,
    "yikyak": "https://www.yikyak.com/map?lat=47.4913&long=-117.5894"
  },
  {
    "Name": "University of Maryland-Baltimore County",
    "City": "Baltimore",
    "State": "MD",
    "Zipcode": 21250,
    "Latitude": 39.2567,
    "Longitude": -76.7116,
    "Admission Rate": 0.6315,
    "SAT Average": 1209,
    "ACT Median": 27,
    "Undergrad Population": 9101,
    "In-state Tuition": 10068,
    "Out-of-state Tuition": 21642,
    "Tuition Difference": 11574,
    "Diff Percent": 214.96,
    "yikyak": "https://www.yikyak.com/map?lat=39.2567&long=-76.7116"
  },
  {
    "Name": "University of Northern Colorado",
    "City": "Greeley",
    "State": "CO",
    "Zipcode": 80639,
    "Latitude": 40.4032,
    "Longitude": -104.7017,
    "Admission Rate": 0.6957,
    "SAT Average": 1029,
    "ACT Median": 22,
    "Undergrad Population": 10213,
    "In-state Tuition": 6968,
    "Out-of-state Tuition": 18507,
    "Tuition Difference": 11539,
    "Diff Percent": 265.6,
    "yikyak": "https://www.yikyak.com/map?lat=40.4032&long=-104.7017"
  },
  {
    "Name": "Utah State University",
    "City": "Logan",
    "State": "UT",
    "Zipcode": "84322-1400",
    "Latitude": 41.7407,
    "Longitude": -111.8139,
    "Admission Rate": 0.9674,
    "SAT Average": 1087,
    "ACT Median": 24,
    "Undergrad Population": 17903,
    "In-state Tuition": 6030,
    "Out-of-state Tuition": 17550,
    "Tuition Difference": 11520,
    "Diff Percent": 291.04,
    "yikyak": "https://www.yikyak.com/map?lat=41.7407&long=-111.8139"
  },
  {
    "Name": "University of Hawaii-West Oahu",
    "City": "Kapolei",
    "State": "HI",
    "Zipcode": "96707-4507",
    "Latitude": 21.3941,
    "Longitude": -157.9821,
    "Admission Rate": 0.7643,
    "SAT Average": 891,
    "ACT Median": 19,
    "Undergrad Population": 665,
    "In-state Tuition": 6336,
    "Out-of-state Tuition": 17856,
    "Tuition Difference": 11520,
    "Diff Percent": 281.82,
    "yikyak": "https://www.yikyak.com/map?lat=21.3941&long=-157.9821"
  },
  {
    "Name": "Central Connecticut State University",
    "City": "New Britain",
    "State": "CT",
    "Zipcode": 6050,
    "Latitude": 41.6903,
    "Longitude": -72.7701,
    "Admission Rate": 0.6413,
    "SAT Average": 1006,
    "ACT Median": 22,
    "Undergrad Population": 9443,
    "In-state Tuition": 8706,
    "Out-of-state Tuition": 20211,
    "Tuition Difference": 11505,
    "Diff Percent": 232.15,
    "yikyak": "https://www.yikyak.com/map?lat=41.6903&long=-72.7701"
  },
  {
    "Name": "Eastern Connecticut State University",
    "City": "Willimantic",
    "State": "CT",
    "Zipcode": 6226,
    "Latitude": 41.7217,
    "Longitude": -72.2188,
    "Admission Rate": 0.6453,
    "SAT Average": 1017,
    "ACT Median": 22,
    "Undergrad Population": 4821,
    "In-state Tuition": 9376,
    "Out-of-state Tuition": 20881,
    "Tuition Difference": 11505,
    "Diff Percent": 222.71,
    "yikyak": "https://www.yikyak.com/map?lat=41.7217&long=-72.2188"
  },
  {
    "Name": "Southern Connecticut State University",
    "City": "New Haven",
    "State": "CT",
    "Zipcode": "06515-1355",
    "Latitude": 41.3319,
    "Longitude": -72.9488,
    "Admission Rate": 0.7542,
    "SAT Average": 921,
    "ACT Median": 20,
    "Undergrad Population": 8080,
    "In-state Tuition": 9020,
    "Out-of-state Tuition": 20486,
    "Tuition Difference": 11466,
    "Diff Percent": 227.12,
    "yikyak": "https://www.yikyak.com/map?lat=41.3319&long=-72.9488"
  },
  {
    "Name": "University of Colorado Colorado Springs",
    "City": "Colorado Springs",
    "State": "CO",
    "Zipcode": 80918,
    "Latitude": 38.8927,
    "Longitude": -104.8003,
    "Admission Rate": 0.91,
    "SAT Average": 1068,
    "ACT Median": 23,
    "Undergrad Population": 4967,
    "In-state Tuition": 7024,
    "Out-of-state Tuition": 18437,
    "Tuition Difference": 11413,
    "Diff Percent": 262.49,
    "yikyak": "https://www.yikyak.com/map?lat=38.8927&long=-104.8003"
  },
  {
    "Name": "New Mexico Institute of Mining and Technology",
    "City": "Socorro",
    "State": "NM",
    "Zipcode": 87801,
    "Latitude": 34.066,
    "Longitude": -106.9075,
    "Admission Rate": 0.4136,
    "SAT Average": 1200,
    "ACT Median": 26,
    "Undergrad Population": 1238,
    "In-state Tuition": 5714,
    "Out-of-state Tuition": 17073,
    "Tuition Difference": 11359,
    "Diff Percent": 298.79,
    "yikyak": "https://www.yikyak.com/map?lat=34.066&long=-106.9075"
  },
  {
    "Name": "University of Arkansas",
    "City": "Fayetteville",
    "State": "AR",
    "Zipcode": 72701,
    "Latitude": 36.0615,
    "Longitude": -94.1782,
    "Admission Rate": 0.5858,
    "SAT Average": 1156,
    "ACT Median": 26,
    "Undergrad Population": 12502,
    "In-state Tuition": 7818,
    "Out-of-state Tuition": 19074,
    "Tuition Difference": 11256,
    "Diff Percent": 243.98,
    "yikyak": "https://www.yikyak.com/map?lat=36.0615&long=-94.1782"
  },
  {
    "Name": "Morehead State University",
    "City": "Morehead",
    "State": "KY",
    "Zipcode": 40351,
    "Latitude": 38.1885,
    "Longitude": -83.4297,
    "Admission Rate": 0.8449,
    "SAT Average": 1028,
    "ACT Median": 22,
    "Undergrad Population": 6747,
    "In-state Tuition": 7498,
    "Out-of-state Tuition": 18746,
    "Tuition Difference": 11248,
    "Diff Percent": 250.01,
    "yikyak": "https://www.yikyak.com/map?lat=38.1885&long=-83.4297"
  },
  {
    "Name": "San Diego State University",
    "City": "San Diego",
    "State": "CA",
    "Zipcode": 92182,
    "Latitude": 32.7753,
    "Longitude": -117.0712,
    "Admission Rate": 0.3121,
    "SAT Average": 1090,
    "ACT Median": 24,
    "Undergrad Population": 25658,
    "In-state Tuition": 6766,
    "Out-of-state Tuition": 17926,
    "Tuition Difference": 11160,
    "Diff Percent": 264.94,
    "yikyak": "https://www.yikyak.com/map?lat=32.7753&long=-117.0712"
  },
  {
    "Name": "California State University-Long Beach",
    "City": "Long Beach",
    "State": "CA",
    "Zipcode": "90840-0115",
    "Latitude": 33.7828,
    "Longitude": -118.1123,
    "Admission Rate": 0.3082,
    "SAT Average": 1012,
    "ACT Median": 21,
    "Undergrad Population": 25153,
    "In-state Tuition": 6240,
    "Out-of-state Tuition": 17400,
    "Tuition Difference": 11160,
    "Diff Percent": 278.85,
    "yikyak": "https://www.yikyak.com/map?lat=33.7828&long=-118.1123"
  },
  {
    "Name": "California State University-Fullerton",
    "City": "Fullerton",
    "State": "CA",
    "Zipcode": "92831-3599",
    "Latitude": 33.8836,
    "Longitude": -117.8853,
    "Admission Rate": 0.4579,
    "SAT Average": 1021,
    "ACT Median": 22,
    "Undergrad Population": 23385,
    "In-state Tuition": 6186,
    "Out-of-state Tuition": 17346,
    "Tuition Difference": 11160,
    "Diff Percent": 280.41,
    "yikyak": "https://www.yikyak.com/map?lat=33.8836&long=-117.8853"
  },
  {
    "Name": "California State University-Northridge",
    "City": "Northridge",
    "State": "CA",
    "Zipcode": 91330,
    "Latitude": 34.2367,
    "Longitude": -118.5268,
    "Admission Rate": 0.4624,
    "SAT Average": 918,
    "ACT Median": 19,
    "Undergrad Population": 22553,
    "In-state Tuition": 6525,
    "Out-of-state Tuition": 17685,
    "Tuition Difference": 11160,
    "Diff Percent": 271.03,
    "yikyak": "https://www.yikyak.com/map?lat=34.2367&long=-118.5268"
  },
  {
    "Name": "San Jose State University",
    "City": "San Jose",
    "State": "CA",
    "Zipcode": "95192-0001",
    "Latitude": 37.3352,
    "Longitude": -121.8812,
    "Admission Rate": 0.6347,
    "SAT Average": 1030,
    "ACT Median": 22,
    "Undergrad Population": 20711,
    "In-state Tuition": 7343,
    "Out-of-state Tuition": 18503,
    "Tuition Difference": 11160,
    "Diff Percent": 251.98,
    "yikyak": "https://www.yikyak.com/map?lat=37.3352&long=-121.8812"
  },
  {
    "Name": "San Francisco State University",
    "City": "San Francisco",
    "State": "CA",
    "Zipcode": 94132,
    "Latitude": 37.7213,
    "Longitude": -122.4779,
    "Admission Rate": 0.6379,
    "SAT Average": 998,
    "ACT Median": 22,
    "Undergrad Population": 20365,
    "In-state Tuition": 6450,
    "Out-of-state Tuition": 17610,
    "Tuition Difference": 11160,
    "Diff Percent": 273.02,
    "yikyak": "https://www.yikyak.com/map?lat=37.7213&long=-122.4779"
  },
  {
    "Name": "California State University-Sacramento",
    "City": "Sacramento",
    "State": "CA",
    "Zipcode": "95819-2694",
    "Latitude": 38.5575,
    "Longitude": -121.4219,
    "Admission Rate": 0.6968,
    "SAT Average": 945,
    "ACT Median": 20,
    "Undergrad Population": 20342,
    "In-state Tuition": 6628,
    "Out-of-state Tuition": 17788,
    "Tuition Difference": 11160,
    "Diff Percent": 268.38,
    "yikyak": "https://www.yikyak.com/map?lat=38.5575&long=-121.4219"
  },
  {
    "Name": "California State Polytechnic University-Pomona",
    "City": "Pomona",
    "State": "CA",
    "Zipcode": 91768,
    "Latitude": 34.0543,
    "Longitude": -117.819,
    "Admission Rate": 0.5218,
    "SAT Average": 1070,
    "ACT Median": 23,
    "Undergrad Population": 16436,
    "In-state Tuition": 6350,
    "Out-of-state Tuition": 17510,
    "Tuition Difference": 11160,
    "Diff Percent": 275.75,
    "yikyak": "https://www.yikyak.com/map?lat=34.0543&long=-117.819"
  },
  {
    "Name": "California Polytechnic State University-San Luis Obispo",
    "City": "San Luis Obispo",
    "State": "CA",
    "Zipcode": 93407,
    "Latitude": 35.2989,
    "Longitude": -120.6586,
    "Admission Rate": 0.3123,
    "SAT Average": 1242,
    "ACT Median": 28,
    "Undergrad Population": 15867,
    "In-state Tuition": 8724,
    "Out-of-state Tuition": 19884,
    "Tuition Difference": 11160,
    "Diff Percent": 227.92,
    "yikyak": "https://www.yikyak.com/map?lat=35.2989&long=-120.6586"
  },
  {
    "Name": "California State University-Fresno",
    "City": "Fresno",
    "State": "CA",
    "Zipcode": 93740,
    "Latitude": 36.8145,
    "Longitude": -119.7483,
    "Admission Rate": 0.5815,
    "SAT Average": 920,
    "ACT Median": 19,
    "Undergrad Population": 15413,
    "In-state Tuition": 6287,
    "Out-of-state Tuition": 17447,
    "Tuition Difference": 11160,
    "Diff Percent": 277.51,
    "yikyak": "https://www.yikyak.com/map?lat=36.8145&long=-119.7483"
  },
  {
    "Name": "California State University-Chico",
    "City": "Chico",
    "State": "CA",
    "Zipcode": "95929-0150",
    "Latitude": 39.728,
    "Longitude": -121.8463,
    "Admission Rate": 0.7161,
    "SAT Average": 1014,
    "ACT Median": 22,
    "Undergrad Population": 13907,
    "In-state Tuition": 6972,
    "Out-of-state Tuition": 18132,
    "Tuition Difference": 11160,
    "Diff Percent": 260.07,
    "yikyak": "https://www.yikyak.com/map?lat=39.728&long=-121.8463"
  },
  {
    "Name": "California State University-Los Angeles",
    "City": "Los Angeles",
    "State": "CA",
    "Zipcode": 90032,
    "Latitude": 34.0669,
    "Longitude": -118.169,
    "Admission Rate": 0.6752,
    "SAT Average": 871,
    "ACT Median": 18,
    "Undergrad Population": 13476,
    "In-state Tuition": 6344,
    "Out-of-state Tuition": 17504,
    "Tuition Difference": 11160,
    "Diff Percent": 275.91,
    "yikyak": "https://www.yikyak.com/map?lat=34.0669&long=-118.169"
  },
  {
    "Name": "California State University-San Bernardino",
    "City": "San Bernardino",
    "State": "CA",
    "Zipcode": "92407-2397",
    "Latitude": 34.183,
    "Longitude": -117.3225,
    "Admission Rate": 0.5831,
    "SAT Average": 888,
    "ACT Median": 18,
    "Undergrad Population": 10273,
    "In-state Tuition": 6550,
    "Out-of-state Tuition": 17710,
    "Tuition Difference": 11160,
    "Diff Percent": 270.38,
    "yikyak": "https://www.yikyak.com/map?lat=34.183&long=-117.3225"
  },
  {
    "Name": "California State University-East Bay",
    "City": "Hayward",
    "State": "CA",
    "Zipcode": 94542,
    "Latitude": 37.6571,
    "Longitude": -122.0581,
    "Admission Rate": 0.6872,
    "SAT Average": 910,
    "ACT Median": 19,
    "Undergrad Population": 9337,
    "In-state Tuition": 6550,
    "Out-of-state Tuition": 17710,
    "Tuition Difference": 11160,
    "Diff Percent": 270.38,
    "yikyak": "https://www.yikyak.com/map?lat=37.6571&long=-122.0581"
  },
  {
    "Name": "California State University-Dominguez Hills",
    "City": "Carson",
    "State": "CA",
    "Zipcode": "90747-0005",
    "Latitude": 33.8652,
    "Longitude": -118.2593,
    "Admission Rate": 0.5747,
    "SAT Average": 845,
    "ACT Median": 17,
    "Undergrad Population": 7733,
    "In-state Tuition": 6100,
    "Out-of-state Tuition": 17260,
    "Tuition Difference": 11160,
    "Diff Percent": 282.95,
    "yikyak": "https://www.yikyak.com/map?lat=33.8652&long=-118.2593"
  },
  {
    "Name": "Humboldt State University",
    "City": "Arcata",
    "State": "CA",
    "Zipcode": "95521-8299",
    "Latitude": 40.8741,
    "Longitude": -124.0814,
    "Admission Rate": 0.8018,
    "SAT Average": 1008,
    "ACT Median": 21,
    "Undergrad Population": 6469,
    "In-state Tuition": 7144,
    "Out-of-state Tuition": 18304,
    "Tuition Difference": 11160,
    "Diff Percent": 256.22,
    "yikyak": "https://www.yikyak.com/map?lat=40.8741&long=-124.0814"
  },
  {
    "Name": "Sonoma State University",
    "City": "Rohnert Park",
    "State": "CA",
    "Zipcode": "94928-3609",
    "Latitude": 38.341,
    "Longitude": -122.6733,
    "Admission Rate": 0.8186,
    "SAT Average": 1006,
    "ACT Median": 22,
    "Undergrad Population": 6211,
    "In-state Tuition": 7234,
    "Out-of-state Tuition": 18394,
    "Tuition Difference": 11160,
    "Diff Percent": 254.27,
    "yikyak": "https://www.yikyak.com/map?lat=38.341&long=-122.6733"
  },
  {
    "Name": "California State University-Stanislaus",
    "City": "Turlock",
    "State": "CA",
    "Zipcode": "95382-0299",
    "Latitude": 37.5258,
    "Longitude": -120.8525,
    "Admission Rate": 0.7215,
    "SAT Average": 917,
    "ACT Median": 19,
    "Undergrad Population": 5353,
    "In-state Tuition": 6491,
    "Out-of-state Tuition": 17651,
    "Tuition Difference": 11160,
    "Diff Percent": 271.93,
    "yikyak": "https://www.yikyak.com/map?lat=37.5258&long=-120.8525"
  },
  {
    "Name": "California State University-San Marcos",
    "City": "San Marcos",
    "State": "CA",
    "Zipcode": "92096-0001",
    "Latitude": 33.1291,
    "Longitude": -117.158,
    "Admission Rate": 0.6251,
    "SAT Average": 966,
    "ACT Median": 21,
    "Undergrad Population": 5005,
    "In-state Tuition": 6649,
    "Out-of-state Tuition": 17809,
    "Tuition Difference": 11160,
    "Diff Percent": 267.84,
    "yikyak": "https://www.yikyak.com/map?lat=33.1291&long=-117.158"
  },
  {
    "Name": "California State University-Bakersfield",
    "City": "Bakersfield",
    "State": "CA",
    "Zipcode": "93311-1099",
    "Latitude": 35.35,
    "Longitude": -119.1047,
    "Admission Rate": 0.6626,
    "SAT Average": 901,
    "ACT Median": 19,
    "Undergrad Population": 4809,
    "In-state Tuition": 6775,
    "Out-of-state Tuition": 17935,
    "Tuition Difference": 11160,
    "Diff Percent": 264.72,
    "yikyak": "https://www.yikyak.com/map?lat=35.35&long=-119.1047"
  },
  {
    "Name": "California State University-Monterey Bay",
    "City": "Seaside",
    "State": "CA",
    "Zipcode": "93955-8001",
    "Latitude": 36.6537,
    "Longitude": -121.7992,
    "Admission Rate": 0.444,
    "SAT Average": 976,
    "ACT Median": 21,
    "Undergrad Population": 2367,
    "In-state Tuition": 5963,
    "Out-of-state Tuition": 17123,
    "Tuition Difference": 11160,
    "Diff Percent": 287.15,
    "yikyak": "https://www.yikyak.com/map?lat=36.6537&long=-121.7992"
  },
  {
    "Name": "California Maritime Academy",
    "City": "Vallejo",
    "State": "CA",
    "Zipcode": 94590,
    "Latitude": 38.0691,
    "Longitude": -122.2316,
    "Admission Rate": 0.748,
    "SAT Average": 1080,
    "ACT Median": 24,
    "Undergrad Population": 653,
    "In-state Tuition": 6536,
    "Out-of-state Tuition": 17696,
    "Tuition Difference": 11160,
    "Diff Percent": 270.75,
    "yikyak": "https://www.yikyak.com/map?lat=38.0691&long=-122.2316"
  },
  {
    "Name": "Louisiana Tech University",
    "City": "Ruston",
    "State": "LA",
    "Zipcode": 71272,
    "Latitude": 32.5255,
    "Longitude": -92.6496,
    "Admission Rate": 0.6744,
    "SAT Average": 1089,
    "ACT Median": 24,
    "Undergrad Population": 8921,
    "In-state Tuition": 7302,
    "Out-of-state Tuition": 18441,
    "Tuition Difference": 11139,
    "Diff Percent": 252.55,
    "yikyak": "https://www.yikyak.com/map?lat=32.5255&long=-92.6496"
  },
  {
    "Name": "Indiana University-East",
    "City": "Richmond",
    "State": "IN",
    "Zipcode": "47374-1289",
    "Latitude": 39.8671,
    "Longitude": -84.8862,
    "Admission Rate": 0.5381,
    "SAT Average": 943,
    "ACT Median": 21,
    "Undergrad Population": 2262,
    "In-state Tuition": 6639,
    "Out-of-state Tuition": 17778,
    "Tuition Difference": 11139,
    "Diff Percent": 267.78,
    "yikyak": "https://www.yikyak.com/map?lat=39.8671&long=-84.8862"
  },
  {
    "Name": "Indiana University of Pennsylvania-Main Campus",
    "City": "Indiana",
    "State": "PA",
    "Zipcode": "15705-1098",
    "Latitude": 40.6156,
    "Longitude": -79.1599,
    "Admission Rate": 0.9049,
    "SAT Average": 973,
    "ACT Median": 20,
    "Undergrad Population": 3925,
    "In-state Tuition": 9080,
    "Out-of-state Tuition": 20216,
    "Tuition Difference": 11136,
    "Diff Percent": 222.64,
    "yikyak": "https://www.yikyak.com/map?lat=40.6156&long=-79.1599"
  },
  {
    "Name": "Indiana University-Kokomo",
    "City": "Kokomo",
    "State": "IN",
    "Zipcode": "46904-9003",
    "Latitude": 40.4599,
    "Longitude": -86.1321,
    "Admission Rate": 0.7355,
    "SAT Average": 950,
    "ACT Median": 21,
    "Undergrad Population": 2381,
    "In-state Tuition": 6675,
    "Out-of-state Tuition": 17778,
    "Tuition Difference": 11103,
    "Diff Percent": 266.34,
    "yikyak": "https://www.yikyak.com/map?lat=40.4599&long=-86.1321"
  },
  {
    "Name": "University of Kentucky",
    "City": "Lexington",
    "State": "KY",
    "Zipcode": "40506-0032",
    "Latitude": 38.0281,
    "Longitude": -84.5107,
    "Admission Rate": 0.6861,
    "SAT Average": 1140,
    "ACT Median": 25,
    "Undergrad Population": 16897,
    "In-state Tuition": 10110,
    "Out-of-state Tuition": 21192,
    "Tuition Difference": 11082,
    "Diff Percent": 209.61,
    "yikyak": "https://www.yikyak.com/map?lat=38.0281&long=-84.5107"
  },
  {
    "Name": "North Carolina A & T State University",
    "City": "Greensboro",
    "State": "NC",
    "Zipcode": 27411,
    "Latitude": 36.0767,
    "Longitude": -79.7702,
    "Admission Rate": 0.6964,
    "SAT Average": 902,
    "ACT Median": 19,
    "Undergrad Population": 6850,
    "In-state Tuition": 5422,
    "Out-of-state Tuition": 16503,
    "Tuition Difference": 11081,
    "Diff Percent": 304.37,
    "yikyak": "https://www.yikyak.com/map?lat=36.0767&long=-79.7702"
  },
  {
    "Name": "Indiana University-Southeast",
    "City": "New Albany",
    "State": "IN",
    "Zipcode": 47150,
    "Latitude": 38.343,
    "Longitude": -85.8194,
    "Admission Rate": 0.7945,
    "SAT Average": 950,
    "ACT Median": 20,
    "Undergrad Population": 5655,
    "In-state Tuition": 6700,
    "Out-of-state Tuition": 17778,
    "Tuition Difference": 11078,
    "Diff Percent": 265.34,
    "yikyak": "https://www.yikyak.com/map?lat=38.343&long=-85.8194"
  },
  {
    "Name": "Indiana University-Northwest",
    "City": "Gary",
    "State": "IN",
    "Zipcode": "46408-1197",
    "Latitude": 41.5567,
    "Longitude": -87.3385,
    "Admission Rate": 0.7625,
    "SAT Average": 918,
    "ACT Median": 20,
    "Undergrad Population": 4101,
    "In-state Tuition": 6739,
    "Out-of-state Tuition": 17778,
    "Tuition Difference": 11039,
    "Diff Percent": 263.81,
    "yikyak": "https://www.yikyak.com/map?lat=41.5567&long=-87.3385"
  },
  {
    "Name": "Southern Polytechnic State University",
    "City": "Marietta",
    "State": "GA",
    "Zipcode": "30060-2896",
    "Latitude": 33.939,
    "Longitude": -84.5193,
    "Admission Rate": 0.7798,
    "SAT Average": 1123,
    "ACT Median": 24,
    "Undergrad Population": 2943,
    "In-state Tuition": 5732,
    "Out-of-state Tuition": 16760,
    "Tuition Difference": 11028,
    "Diff Percent": 292.39,
    "yikyak": "https://www.yikyak.com/map?lat=33.939&long=-84.5193"
  },
  {
    "Name": "University of Mississippi",
    "City": "University",
    "State": "MS",
    "Zipcode": "38677-1848",
    "Latitude": 34.3621,
    "Longitude": -89.5394,
    "Admission Rate": 0.5936,
    "SAT Average": 1100,
    "ACT Median": 24,
    "Undergrad Population": 9608,
    "In-state Tuition": 6760,
    "Out-of-state Tuition": 17728,
    "Tuition Difference": 10968,
    "Diff Percent": 262.25,
    "yikyak": "https://www.yikyak.com/map?lat=34.3621&long=-89.5394"
  },
  {
    "Name": "Indiana University-South Bend",
    "City": "South Bend",
    "State": "IN",
    "Zipcode": "46634-7111",
    "Latitude": 41.6657,
    "Longitude": -86.223,
    "Admission Rate": 0.7003,
    "SAT Average": 962,
    "ACT Median": 21,
    "Undergrad Population": 5897,
    "In-state Tuition": 6816,
    "Out-of-state Tuition": 17778,
    "Tuition Difference": 10962,
    "Diff Percent": 260.83,
    "yikyak": "https://www.yikyak.com/map?lat=41.6657&long=-86.223"
  },
  {
    "Name": "Southern Illinois University-Edwardsville",
    "City": "Edwardsville",
    "State": "IL",
    "Zipcode": "62026-1259",
    "Latitude": 38.7939,
    "Longitude": -89.9978,
    "Admission Rate": 0.8419,
    "SAT Average": 1050,
    "ACT Median": 23,
    "Undergrad Population": 9576,
    "In-state Tuition": 9666,
    "Out-of-state Tuition": 20610,
    "Tuition Difference": 10944,
    "Diff Percent": 213.22,
    "yikyak": "https://www.yikyak.com/map?lat=38.7939&long=-89.9978"
  },
  {
    "Name": "Valdosta State University",
    "City": "Valdosta",
    "State": "GA",
    "Zipcode": 31698,
    "Latitude": 30.8492,
    "Longitude": -83.2899,
    "Admission Rate": 0.5522,
    "SAT Average": 1033,
    "ACT Median": 22,
    "Undergrad Population": 7482,
    "In-state Tuition": 5889,
    "Out-of-state Tuition": 16814,
    "Tuition Difference": 10925,
    "Diff Percent": 285.52,
    "yikyak": "https://www.yikyak.com/map?lat=30.8492&long=-83.2899"
  },