Name,City,State,Zipcode,Latitude,Longitude,Admission Rate,SAT Average,ACT Median,Undergrad Population,In-state Tuition,Out-of-state Tuition,Tuition Difference,Diff Percent
University of Virginia-Main Campus,Charlottesville,VA,22903-2628,38.0365,-78.5026,0.2999,1362,31,13712,12668,40054,27386,316.18
University of Michigan-Ann Arbor,Ann Arbor,MI,48109,42.2761,-83.7431,0.3326,1352,30,24412,13142,40392,27250,307.35
The University of Texas at Austin,Austin,TX,78712,30.2847,-97.7373,0.4019,1262,28,38162,9798,33842,24044,345.4
College of William and Mary,Williamsburg,VA,23187-8795,37.3095,-76.731,0.3321,1358,30,5585,15463,38440,22977,248.59
University of California-Los Angeles,Los Angeles,CA,90095-1405,34.0689,-118.4439,0.2199,1289,28,25011,12697,35575,22878,280.18
University of California-Berkeley,Berkeley,CA,94720,37.8715,-122.2604,0.18,1350,30,22678,12864,35742,22878,277.85
University of California-Davis,Davis,CA,95616-8678,38.5399,-121.752,0.4521,1192,26,20388,13895,36773,22878,264.65
University of California-Santa Barbara,Santa Barbara,CA,93106,34.4155,-119.8481,0.4444,1212,27,17538,13746,36624,22878,266.43
University of California-San Diego,La Jolla,CA,92093,32.8766,-117.2378,0.375,1276,28,16496,13271,36149,22878,272.39
University of California-Irvine,Irvine,CA,92697,33.667,-117.7686,0.4239,1122,24,16223,13149,36027,22878,273.99
University of California-Riverside,Riverside,CA,92521,33.9759,-117.3311,0.62,1078,23,11436,12960,35838,22878,276.53
University of California-Santa Cruz,Santa Cruz,CA,95064-1011,36.9973,-122.068,0.5991,1087,23,11075,13397,36275,22878,270.77
University of Florida,Gainesville,FL,32611,29.6382,-82.3612,0.4655,1272,29,32680,6263,28541,22278,455.71
Indiana University-Bloomington,Bloomington,IN,47405-7000,39.1664,-86.5269,0.7217,1198,27,29383,10209,32350,22141,316.88
University of North Carolina at Chapel Hill,Chapel Hill,NC,27599,35.9122,-79.051,0.2759,1313,30,15608,8340,30122,21782,361.18
University of Colorado Boulder,Boulder,CO,80309-0017,40.0044,-105.2671,0.8771,1192,27,23612,10347,32115,21768,310.38
Virginia Military Institute,Lexington,VA,24450-0304,37.7843,-79.5258,0.4732,1141,25,1300,14404,35392,20988,245.71
University of Vermont,Burlington,VT,05405-0160,44.4793,-73.1981,0.7755,1190,27,8618,15718,36646,20928,233.15
Michigan State University,East Lansing,MI,48824-1046,42.7248,-84.4736,0.6865,1158,26,34342,12862,33750,20888,262.4
Indiana University-Purdue University-Indianapolis,Indianapolis,IN,46202-5143,39.7729,-86.1722,0.6958,1013,22,20211,8756,29571,20815,337.72
University of Oregon,Eugene,OR,97403,44.0445,-123.074,0.7417,1108,25,14076,9763,29788,20025,305.11
University of Washington-Seattle Campus,Seattle,WA,98195-4550,47.6562,-122.3131,0.5523,1234,28,25987,12397,31971,19574,257.89
University of Washington-Tacoma Campus,Tacoma,WA,98402-3100,47.245,-122.4375,0.8523,963,20,1406,11902,31476,19574,264.46
University of Washington-Bothell Campus,Bothell,WA,98011-8246,47.7607,-122.1915,0.7568,1014,21,1298,11911,31485,19574,264.34
Florida Gulf Coast University,Fort Myers,FL,33965-6565,26.4643,-81.7736,0.6579,1024,22,2977,6118,25440,19322,415.82
Georgia Institute of Technology-Main Campus,Atlanta,GA,30332-0530,33.7737,-84.396,0.5493,1352,30,10745,10650,29954,19304,281.26
University of Maryland-College Park,College Park,MD,20742,38.9886,-76.9397,0.4699,1310,,24638,9162,28348,19186,309.41
University of Connecticut,Storrs,CT,6269,41.8082,-72.2495,0.5366,1233,28,13251,12022,30970,18948,257.61
University of Connecticut-Tri-Campus,Waterbury,CT,6702,41.5547,-73.0388,0.4207,1015,22,1826,10056,29004,18948,288.42
University of Connecticut-Stamford,Stamford,CT,06901-2315,41.0559,-73.5427,0.4107,1017,21,997,10066,29014,18948,288.24
University of Connecticut-Avery Point,Groton,CT,06340-6097,41.3172,-72.0639,0.594,1020,24,607,10056,29004,18948,288.42
University of Iowa,Iowa City,IA,52242-1316,41.6607,-91.5357,0.8023,1208,27,19284,8061,26931,18870,334.09
Purdue University-Main Campus,West Lafayette,IN,47907-2040,40.4282,-86.9144,0.6042,1211,27,32669,9992,28794,18802,288.17
Citadel Military College of South Carolina,Charleston,SC,29409,32.797,-79.9614,0.8041,1080,23,1995,10838,29639,18801,273.47
George Mason University,Fairfax,VA,22030-4444,38.8309,-77.3079,0.6203,1155,26,15185,9908,28592,18684,288.57
The University of Tennessee-Knoxville,Knoxville,TN,37996,35.9551,-83.9297,0.7249,1199,27,20009,11194,29684,18490,265.18
University of Georgia,Athens,GA,30602,33.9435,-83.3738,0.5608,1247,28,24213,10262,28472,18210,277.45
Massachusetts College of Art and Design,Boston,MA,02115-5882,42.3369,-71.0995,0.6982,1081,25,2221,10400,28600,18200,275
Louisiana State University and Agricultural & Mechanical College,Baton Rouge,LA,70803-2750,30.5521,-91.1967,0.7623,1162,26,26121,7873,25790,17917,327.58
Georgia College and State University,Milledgeville,GA,31061,33.0828,-83.232,0.6798,1126,24,3976,8790,26690,17900,303.64
University of Delaware,Newark,DE,19716,39.6798,-75.7536,0.6468,1178,27,16110,12112,29932,17820,247.13
University of South Carolina-Columbia,Columbia,SC,29208,34.0062,-81.0377,0.606,1200,27,15266,10816,28528,17712,263.76
University of Hawaii at Manoa,Honolulu,HI,96822-2217,21.2926,-157.8166,0.8009,1087,24,11721,9904,27472,17568,277.38
Virginia Commonwealth University,Richmond,VA,23284-2512,37.5476,-77.4536,0.6913,1102,24,16505,12002,29473,17471,245.57
Clemson University,Clemson,SC,29634,34.6773,-82.8345,0.5787,1259,29,14066,13054,30488,17434,233.55
University of Maine,Orono,ME,4469,44.896,-68.6738,0.8106,1085,24,8220,10600,27970,17370,263.87
University of Arizona,Tucson,AZ,85721-0066,32.2321,-110.9508,0.7692,1106,24,26404,10391,27383,16992,263.53
Texas A & M University-College Station,College Station,TX,77843-1244,30.5963,-96.3067,0.6947,1182,26,36229,8506,25126,16620,295.39
Auburn University,Auburn University,AL,36849,32.6002,-85.4924,0.8274,1215,27,18326,9852,26364,16512,267.6
College of Charleston,Charleston,SC,29424-0001,32.7831,-79.9373,0.7031,1165,26,9750,10626,27090,16464,254.94
University of Utah,Salt Lake City,UT,84112-9008,40.7625,-111.846,0.8174,1109,24,19718,7457,23736,16279,318.3
University of Wisconsin-Madison,Madison,WI,53706-1380,43.0739,-89.4054,0.6792,1268,28,29697,10403,26653,16250,256.2
University of Central Florida,Orlando,FL,32816,28.6011,-81.1988,0.4894,1175,26,28252,6317,22416,16099,354.85
Colorado School of Mines,Golden,CO,80401,39.7508,-105.2271,0.3743,1298,29,2559,16485,32415,15930,196.63
Colorado State University-Fort Collins,Fort Collins,CO,80523-0100,40.5748,-105.0808,0.7743,1127,25,20728,9313,25166,15853,270.22
Miami University-Oxford,Oxford,OH,45056,39.5096,-84.7318,0.6676,1240,28,14957,13800,29590,15790,214.42
Virginia Polytechnic Institute and State University,Blacksburg,VA,24061-0131,37.2375,-80.4348,0.7028,1220,,21428,11455,27211,15756,237.55
Ohio State University-Main Campus,Columbus,OH,43210,39.9984,-83.009,0.5553,1289,29,35749,10037,25757,15720,256.62
The University of Montana,Missoula,MT,59812,46.8611,-113.9829,0.9423,1090,24,10666,6045,21719,15674,359.29
Old Dominion University,Norfolk,VA,23529,36.8849,-76.3097,0.7679,1016,21,12786,8550,24210,15660,283.16
University of Rhode Island,Kingston,RI,2881,41.4816,-71.5311,0.7871,1076,24,10647,12450,28016,15566,225.03
Eastern Michigan University,Ypsilanti,MI,48197,42.2479,-83.6271,0.6398,1011,22,18189,9364,24909,15545,266.01
University of Massachusetts-Boston,Boston,MA,02125-3393,42.3145,-71.0387,0.7141,1015,,10442,11966,27430,15464,229.23
Middle Tennessee State University,Murfreesboro,TN,37132,35.8491,-86.3621,0.6996,1011,22,17247,7546,23002,15456,304.82
East Tennessee State University,Johnson City,TN,37614-0000,36.3016,-82.367,0.8649,1026,22,9125,7249,22561,15312,311.23
Portland State University,Portland,OR,97201,45.5112,-122.6836,0.6117,1045,,13625,7878,23088,15210,293.07
The University of Tennessee-Chattanooga,Chattanooga,TN,37403-2598,35.0482,-85.2998,0.7757,1069,23,6993,7554,22760,15206,301.3
Oregon State University,Corvallis,OR,97331,44.5645,-123.2742,0.7894,1102,24,13766,8322,23514,15192,282.55
The University of Texas at Dallas,Richardson,TX,75080-3021,32.9894,-96.7484,0.5857,1262,28,6560,10864,26038,15174,239.67
Florida State University,Tallahassee,FL,32306-1037,30.4397,-84.2909,0.5681,1212,27,27021,6507,21673,15166,333.07
Missouri University of Science and Technology,Rolla,MO,65409,37.9559,-91.7759,0.8215,1263,28,3698,9510,24675,15165,259.46
The University of Virginia's College at Wise,Wise,VA,24293-4400,36.9715,-82.5587,0.7449,949,20,1447,8509,23565,15056,276.94
University of Cincinnati-Main Campus,Cincinnati,OH,45221-0063,39.1312,-84.5143,0.7325,1141,25,20039,10784,25816,15032,239.39
Tennessee Technological University,Cookeville,TN,38505-0001,36.1747,-85.504,0.9316,1071,23,6876,7063,22063,15000,312.37
Ball State University,Muncie,IN,47306,40.1989,-85.4089,0.6054,1053,22,16350,9160,24124,14964,263.36
Massachusetts Maritime Academy,Buzzards Bay,MA,02532-1803,41.7405,-70.624,0.7726,1051,22,830,7127,22033,14906,309.15
Michigan Technological University,Houghton,MI,49931-1295,47.1183,-88.5464,0.7659,1206,27,5666,13728,28608,14880,208.39
University of Massachusetts-Amherst,Amherst,MA,1003,42.391,-72.5274,0.6294,1209,27,19061,13443,28159,14716,209.47
University of Memphis,Memphis,TN,38152,35.1159,-89.9935,0.6841,1031,22,15296,8312,23024,14712,277
Georgia State University,Atlanta,GA,30303-3083,33.7527,-84.3867,0.5466,1060,23,16444,8368,22936,14568,274.09
The University of Alabama,Tuscaloosa,AL,35487-0166,33.2144,-87.5458,0.5655,1171,26,15318,9450,23950,14500,253.44
Austin Peay State University,Clarksville,TN,37044,36.5333,-87.3541,0.8595,1009,22,6658,6876,21372,14496,310.82
James Madison University,Harrisonburg,VA,22807,38.4353,-78.8717,0.6356,1149,25,14280,9176,23654,14478,257.78
University of North Florida,Jacksonville,FL,32224-7699,30.2709,-81.5079,0.5343,1143,25,10663,6353,20756,14403,326.71
University of Illinois at Urbana-Champaign,Champaign,IL,61820-5711,40.1089,-88.2303,0.6239,1303,29,28414,14750,29132,14382,197.51
University of Missouri-Columbia,Columbia,MO,65211,38.941,-92.3264,0.7861,1165,26,18058,9415,23764,14349,252.41
University of Colorado Denver,Denver,CO,80217-3364,39.7464,-104.9993,0.7587,1073,23,8093,7933,22057,14124,278.04
East Carolina University,Greenville,NC,27858-4353,35.6063,-77.3662,0.6217,1050,23,15018,6143,20256,14113,329.74
University of Massachusetts-Lowell,Lowell,MA,01854-5104,42.6537,-71.3251,0.6397,1132,25,9543,12097,26146,14049,216.14
Rutgers University-New Brunswick,New Brunswick,NJ,08901-1281,40.5038,-74.4505,0.5951,1210,,27938,13499,27523,14024,203.89
Rutgers University-Newark,Newark,NJ,7102,40.7413,-74.1753,0.5401,1059,,5873,12998,27022,14024,207.89
Montana State University,Bozeman,MT,59717,45.6668,-111.0499,0.8449,1115,24,10441,6752,20717,13965,306.83
University of Nevada-Las Vegas,Las Vegas,NV,89154,36.107,-115.1412,0.8512,1003,22,17327,6690,20600,13910,307.92
University of Nevada-Reno,Reno,NV,89557,39.5528,-119.8256,0.8396,1081,24,10134,6610,20520,13910,310.44
University of Louisville,Louisville,KY,40292-0001,38.2158,-85.7588,0.7112,1142,25,14464,9946,23834,13888,239.63
University of New Mexico-Main Campus,Albuquerque,NM,87106,35.0839,-106.6202,0.6458,1038,22,16414,6846,20688,13842,302.19
University of North Carolina at Asheville,Asheville,NC,28804-8510,35.6166,-82.5653,0.6403,1190,26,3245,6241,20063,13822,321.47
St Mary's College of Maryland,St. Mary's City,MD,20686-3001,38.1886,-76.4257,0.7204,1221,28,1547,14864,28664,13800,192.84
University of North Carolina at Greensboro,Greensboro,NC,27402-6170,36.0675,-79.8098,0.6002,1029,23,10109,6382,20180,13798,316.2
Arizona State University-Tempe,Tempe,AZ,85287,33.4219,-111.94,0.8023,1145,25,33985,9861,23654,13793,239.87
Castleton State College,Castleton,VT,5735,43.608,-73.1815,0.9205,954,20,1480,10286,24014,13728,233.46
Oregon Institute of Technology,Klamath Falls,OR,97601-8801,42.2572,-121.7852,0.7135,1025,23,2804,8548,22188,13640,259.57
Rutgers University-Camden,Camden,NJ,8102,39.9486,-75.1253,0.5859,1035,,3717,13348,26908,13560,201.59
Western Kentucky University,Bowling Green,KY,42101-1000,36.9857,-86.4559,0.9232,1009,22,13235,8722,22248,13526,255.08
Norfolk State University,Norfolk,VA,23504-8000,36.8483,-76.2639,0.6499,879,18,5890,7126,20596,13470,289.03
North Carolina State University at Raleigh,Raleigh,NC,27695-7001,35.7851,-78.6745,0.5001,1229,28,21990,8206,21661,13455,263.97
New Mexico State University-Main Campus,Las Cruces,NM,88003-8001,32.2829,-106.7478,0.852,982,21,12453,6220,19644,13424,315.82
University of Nebraska-Lincoln,Lincoln,NE,68588,40.8223,-96.7022,0.6404,1147,25,17968,8060,21388,13328,265.36
West Virginia University,Morgantown,WV,26506-6201,39.6347,-79.9539,0.851,1062,24,15463,6456,19632,13176,304.09
University of North Carolina School of the Arts,Winston-Salem,NC,27117-2189,36.0748,-80.2366,0.4521,1105,23,692,8271,21416,13145,258.93
Western Oregon University,Monmouth,OR,97361-1394,44.8519,-123.2388,0.882,950,,4201,8634,21759,13125,252.02
Washington State University,Pullman,WA,99164-5910,46.7304,-117.1582,0.8208,1030,22,4224,12327,25409,13082,206.12
University of Idaho,Moscow,ID,83844-2282,46.7269,-117.0243,0.6565,1070,23,8759,6524,19600,13076,300.43
New Jersey Institute of Technology,Newark,NJ,7102,40.742,-74.1771,0.6547,1142,26,5637,15218,28274,13056,185.79
Coastal Carolina University,Conway,SC,29526,33.7977,-79.013,0.7404,993,21,4405,9760,22770,13010,233.3
The University of West Florida,Pensacola,FL,32514-5750,30.5429,-87.2181,0.4808,1062,24,6753,6357,19238,12881,302.63
University of Mary Washington,Fredericksburg,VA,22401-5300,38.3022,-77.4744,0.8096,1110,24,4103,9720,22590,12870,232.41
Longwood University,Farmville,VA,23909,37.3011,-78.3958,0.8136,1002,21,3387,11340,24210,12870,213.49
University of New Hampshire-Main Campus,Durham,NH,03824-3547,43.1342,-70.9345,0.7784,1100,,5954,16496,29216,12720,177.11
University of New Hampshire at Manchester,Manchester,NH,03101-1113,42.9903,-71.4688,0.7306,1020,,5945,13762,26482,12720,192.43
Southern Illinois University-Carbondale,Carbondale,IL,62901-4512,37.7192,-89.2176,0.7887,1032,22,17788,12093,24716,12623,204.38
Boise State University,Boise,ID,83725,43.6044,-116.2058,0.7766,1050,23,14756,6292,18892,12600,300.25
Oklahoma State University-Main Campus,Stillwater,OK,74078-1015,36.1231,-97.0697,0.7602,1138,25,16574,7442,20027,12585,269.11
Pennsylvania State University-Main Campus,University Park,PA,16802-1503,40.8007,-77.8616,0.542,1199,27,34406,16992,29566,12574,174
Winthrop University,Rock Hill,SC,29733,34.9385,-81.0287,0.7225,1030,22,4649,13670,26240,12570,191.95
Iowa State University,Ames,IA,50011-2030,42.0264,-93.6484,0.8252,1145,25,22087,7726,20278,12552,262.46
University of North Carolina at Charlotte,Charlotte,NC,28223-0001,35.3068,-80.7358,0.6852,1066,23,14388,6107,18636,12529,305.16
University of New Orleans,New Orleans,LA,70148,30.0285,-90.0685,0.5036,1072,23,12260,6578,19068,12490,289.88
University of Massachusetts-Dartmouth,North Dartmouth,MA,02747-2300,41.6289,-71.0055,0.7213,1061,23,6423,11681,24156,12475,206.8
Southern Oregon University,Ashland,OR,97520,42.1865,-122.694,0.7304,1020,,4879,7438,19900,12462,267.55
Central Michigan University,Mount Pleasant,MI,48859,43.6109,-84.7767,0.6304,1029,22,18620,11220,23670,12450,210.96
Florida Atlantic University,Boca Raton,FL,33431-0991,26.3725,-80.1023,0.4773,1039,22,17496,4790,17234,12444,359.79
Florida International University,Miami,FL,33199,25.7571,-80.3776,0.4304,1154,26,26222,6496,18895,12399,290.87
University of Illinois at Chicago,Chicago,IL,60607,41.8727,-87.6511,0.714,1092,24,16140,13410,25800,12390,192.39
University of Southern Maine,Portland,ME,4103,43.6626,-70.276,0.828,1003,23,8726,8920,21280,12360,238.57
Northern Arizona University,Flagstaff,AZ,86011-4132,35.1801,-111.6577,0.9137,1050,23,13905,9738,22093,12355,226.87
University of Alabama in Huntsville,Huntsville,AL,35899,34.7228,-86.6384,0.8062,1180,26,5220,9192,21506,12314,233.96
Appalachian State University,Boone,NC,28608,36.2017,-81.6626,0.6323,1156,26,12112,6462,18670,12208,288.92
Albany State University,Albany,GA,31705,31.5714,-84.1431,0.1992,887,19,3129,6024,18226,12202,302.56
Fort Valley State University,Fort Valley,GA,31030-4313,32.5382,-83.8955,0.3273,830,,2212,6438,18640,12202,289.53
University of Oklahoma-Norman Campus,Norman,OK,73019-3072,35.2082,-97.4457,0.8044,1176,26,17771,8916,21105,12189,236.71
Radford University,Radford,VA,24141-0672,37.1369,-80.5497,0.7831,980,20,7622,8976,21141,12165,235.53
Montana Tech of the University of Montana,Butte,MT,59701-8997,46.0122,-112.557,0.8891,1115,24,1420,6464,18606,12142,287.84
University of North Carolina Wilmington,Wilmington,NC,28403-5963,34.2252,-77.8755,0.5419,1154,24,9343,6343,18480,12137,291.34
Murray State University,Murray,KY,42071-3318,36.6124,-88.3235,0.8217,1029,22,7487,7044,19164,12120,272.06
Metropolitan State University of Denver,Denver,CO,80217-3362,39.7422,-105.0024,0.7116,973,21,17688,5744,17837,12093,310.53
The Evergreen State College,Olympia,WA,98505-0001,47.0738,-122.9775,0.9709,1081,24,3901,8574,20661,12087,240.97
Southern Utah University,Cedar City,UT,84720,37.6746,-113.0701,0.5709,1066,23,5729,5924,17902,11978,302.19
University at Buffalo,Buffalo,NY,14260-1660,43.0004,-78.7892,0.5652,1158,26,16683,8211,20151,11940,245.41
Stony Brook University,Stony Brook,NY,11794,40.9164,-73.1473,0.3948,1253,28,13257,7995,19935,11940,249.34
Florida Agricultural and Mechanical University,Tallahassee,FL,32307,30.4286,-84.2857,0.45,947,20,10707,5785,17725,11940,306.4
The University of Texas at El Paso,El Paso,TX,79968-0691,31.7717,-106.5036,0.9981,923,20,12955,7255,19175,11920,264.3
Central Washington University,Ellensburg,WA,98926-7501,47.005,-120.5377,0.8216,986,21,7603,8976,20886,11910,232.69
University of Maine at Machias,Machias,ME,04654-1397,44.7099,-67.4565,0.854,937,22,927,7490,19370,11880,258.61
Montana State University-Northern,Havre,MT,59501,48.5411,-109.6865,1,925,20,1389,5480,17312,11832,315.91
Emporia State University,Emporia,KS,66801-5087,38.4126,-96.1795,0.6069,1030,22,4198,5614,17388,11774,309.73
University of Hawaii at Hilo,Hilo,HI,96720-4091,19.7019,-155.0813,0.752,967,21,2646,6536,18296,11760,279.93
Towson University,Towson,MD,21252-0001,39.393,-76.6123,0.6034,1078,23,13905,8342,20020,11678,239.99
Johnson State College,Johnson,VT,05656-9464,44.6417,-72.6712,0.9688,948,19,1361,10286,21950,11664,213.4
Eastern Washington University,Cheney,WA,99004-2496,47.4913,-117.5894,0.7967,970,21,7567,7961,19612,11651,246.35
University of Maryland-Baltimore County,Baltimore,MD,21250,39.2567,-76.7116,0.6315,1209,27,9101,10068,21642,11574,214.96
University of Northern Colorado,Greeley,CO,80639,40.4032,-104.7017,0.6957,1029,22,10213,6968,18507,11539,265.6
Utah State University,Logan,UT,84322-1400,41.7407,-111.8139,0.9674,1087,24,17903,6030,17550,11520,291.04
University of Hawaii-West Oahu,Kapolei,HI,96707-4507,21.3941,-157.9821,0.7643,891,19,665,6336,17856,11520,281.82
Central Connecticut State University,New Britain,CT,6050,41.6903,-72.7701,0.6413,1006,22,9443,8706,20211,11505,232.15
Eastern Connecticut State University,Willimantic,CT,6226,41.7217,-72.2188,0.6453,1017,22,4821,9376,20881,11505,222.71
Southern Connecticut State University,New Haven,CT,06515-1355,41.3319,-72.9488,0.7542,921,20,8080,9020,20486,11466,227.12
University of Colorado Colorado Springs,Colorado Springs,CO,80918,38.8927,-104.8003,0.91,1068,23,4967,7024,18437,11413,262.49
New Mexico Institute of Mining and Technology,Socorro,NM,87801,34.066,-106.9075,0.4136,1200,26,1238,5714,17073,11359,298.79
University of Arkansas,Fayetteville,AR,72701,36.0615,-94.1782,0.5858,1156,26,12502,7818,19074,11256,243.98
Morehead State University,Morehead,KY,40351,38.1885,-83.4297,0.8449,1028,22,6747,7498,18746,11248,250.01
San Diego State University,San Diego,CA,92182,32.7753,-117.0712,0.3121,1090,24,25658,6766,17926,11160,264.94
California State University-Long Beach,Long Beach,CA,90840-0115,33.7828,-118.1123,0.3082,1012,21,25153,6240,17400,11160,278.85
California State University-Fullerton,Fullerton,CA,92831-3599,33.8836,-117.8853,0.4579,1021,22,23385,6186,17346,11160,280.41
California State University-Northridge,Northridge,CA,91330,34.2367,-118.5268,0.4624,918,19,22553,6525,17685,11160,271.03
San Jose State University,San Jose,CA,95192-0001,37.3352,-121.8812,0.6347,1030,22,20711,7343,18503,11160,251.98
San Francisco State University,San Francisco,CA,94132,37.7213,-122.4779,0.6379,998,22,20365,6450,17610,11160,273.02
California State University-Sacramento,Sacramento,CA,95819-2694,38.5575,-121.4219,0.6968,945,20,20342,6628,17788,11160,268.38
California State Polytechnic University-Pomona,Pomona,CA,91768,34.0543,-117.819,0.5218,1070,23,16436,6350,17510,11160,275.75
California Polytechnic State University-San Luis Obispo,San Luis Obispo,CA,93407,35.2989,-120.6586,0.3123,1242,28,15867,8724,19884,11160,227.92
California State University-Fresno,Fresno,CA,93740,36.8145,-119.7483,0.5815,920,19,15413,6287,17447,11160,277.51
California State University-Chico,Chico,CA,95929-0150,39.728,-121.8463,0.7161,1014,22,13907,6972,18132,11160,260.07
California State University-Los Angeles,Los Angeles,CA,90032,34.0669,-118.169,0.6752,871,18,13476,6344,17504,11160,275.91
California State University-San Bernardino,San Bernardino,CA,92407-2397,34.183,-117.3225,0.5831,888,18,10273,6550,17710,11160,270.38
California State University-East Bay,Hayward,CA,94542,37.6571,-122.0581,0.6872,910,19,9337,6550,17710,11160,270.38
California State University-Dominguez Hills,Carson,CA,90747-0005,33.8652,-118.2593,0.5747,845,17,7733,6100,17260,11160,282.95
Humboldt State University,Arcata,CA,95521-8299,40.8741,-124.0814,0.8018,1008,21,6469,7144,18304,11160,256.22
Sonoma State University,Rohnert Park,CA,94928-3609,38.341,-122.6733,0.8186,1006,22,6211,7234,18394,11160,254.27
California State University-Stanislaus,Turlock,CA,95382-0299,37.5258,-120.8525,0.7215,917,19,5353,6491,17651,11160,271.93
California State University-San Marcos,San Marcos,CA,92096-0001,33.1291,-117.158,0.6251,966,21,5005,6649,17809,11160,267.84
California State University-Bakersfield,Bakersfield,CA,93311-1099,35.35,-119.1047,0.6626,901,19,4809,6775,17935,11160,264.72
California State University-Monterey Bay,Seaside,CA,93955-8001,36.6537,-121.7992,0.444,976,21,2367,5963,17123,11160,287.15
California Maritime Academy,Vallejo,CA,94590,38.0691,-122.2316,0.748,1080,24,653,6536,17696,11160,270.75
Louisiana Tech University,Ruston,LA,71272,32.5255,-92.6496,0.6744,1089,24,8921,7302,18441,11139,252.55
Indiana University-East,Richmond,IN,47374-1289,39.8671,-84.8862,0.5381,943,21,2262,6639,17778,11139,267.78
Indiana University of Pennsylvania-Main Campus,Indiana,PA,15705-1098,40.6156,-79.1599,0.9049,973,20,3925,9080,20216,11136,222.64
Indiana University-Kokomo,Kokomo,IN,46904-9003,40.4599,-86.1321,0.7355,950,21,2381,6675,17778,11103,266.34
University of Kentucky,Lexington,KY,40506-0032,38.0281,-84.5107,0.6861,1140,25,16897,10110,21192,11082,209.61
North Carolina A & T State University,Greensboro,NC,27411,36.0767,-79.7702,0.6964,902,19,6850,5422,16503,11081,304.37
Indiana University-Southeast,New Albany,IN,47150,38.343,-85.8194,0.7945,950,20,5655,6700,17778,11078,265.34
Indiana University-Northwest,Gary,IN,46408-1197,41.5567,-87.3385,0.7625,918,20,4101,6739,17778,11039,263.81
Southern Polytechnic State University,Marietta,GA,30060-2896,33.939,-84.5193,0.7798,1123,24,2943,5732,16760,11028,292.39
University of Mississippi,University,MS,38677-1848,34.3621,-89.5394,0.5936,1100,24,9608,6760,17728,10968,262.25
Indiana University-South Bend,South Bend,IN,46634-7111,41.6657,-86.223,0.7003,962,21,5897,6816,17778,10962,260.83
Southern Illinois University-Edwardsville,Edwardsville,IL,62026-1259,38.7939,-89.9978,0.8419,1050,23,9576,9666,20610,10944,213.22
Valdosta State University,Valdosta,GA,31698,30.8492,-83.2899,0.5522,1033,22,7482,5889,16814,10925,285.52
University of South Florida-Main Campus,Tampa,FL,33620-9951,28.0566,-82.4159,0.4524,1168,26,27384,6410,17324,10914,270.27
McNeese State University,Lake Charles,LA,70605,30.1808,-93.2156,0.6151,1030,22,6703,5701,16603,10902,291.23
Western Washington University,Bellingham,WA,98225-9008,48.7372,-122.4849,0.8371,1114,25,11564,8863,19752,10889,222.86
Elizabeth City State University,Elizabeth City,NC,27909,36.2735,-76.2101,0.5715,849,17,2022,4429,15286,10857,345.13
Fort Lewis College,Durango,CO,81301-3999,37.2754,-107.867,0.875,1049,23,4285,6923,17763,10840,256.58
Maine Maritime Academy,Castine,ME,04420-0001,44.3873,-68.8032,0.6536,1026,22,710,11950,22770,10820,190.54
Fayetteville State University,Fayetteville,NC,28301-4298,35.0725,-78.8947,0.5496,851,18,3706,4605,15401,10796,334.44
Rhode Island College,Providence,RI,2908,41.8427,-71.4669,0.6915,930,20,6917,7602,18300,10698,240.73
Lyndon State College,Lyndonville,VT,05851-0919,44.5343,-72.0246,0.9934,930,20,1188,10286,20942,10656,203.6
Frostburg State University,Frostburg,MD,21532-1099,39.6515,-78.9339,0.5945,963,20,4430,7728,18376,10648,237.78
Adams State University,Alamosa,CO,81101,37.4772,-105.8809,0.526,939,20,2080,7449,18081,10632,242.73
Texas Woman's University,Denton,TX,76201,33.227,-97.1291,0.8603,953,20,4476,7339,17965,10626,244.79
Stephen F Austin State University,Nacogdoches,TX,75961,31.5856,-94.5855,0.5687,998,22,10246,8412,19032,10620,226.25
Texas Southern University,Houston,TX,77004,29.7225,-95.362,0.4503,832,17,5124,7946,18566,10620,233.65
Texas A & M University-Kingsville,Kingsville,TX,78363,27.5249,-97.8823,0.881,895,19,4822,6940,17560,10620,253.03
Texas A & M University-Commerce,Commerce,TX,75429-3011,33.2438,-95.9069,0.6818,987,21,4362,6583,17203,10620,261.32
The University of Texas at Tyler,Tyler,TX,75799-6699,32.3147,-95.2491,0.8203,1064,23,2602,7222,17842,10620,247.05
University of Houston-Victoria,Victoria,TX,77901,28.8164,-96.9782,0.5102,903,19,850,6248,16868,10620,269.97
University of Pittsburgh-Johnstown,Johnstown,PA,15904,40.2686,-78.8326,0.9038,1021,22,3031,13130,23734,10604,180.76
University of Pittsburgh-Greensburg,Greensburg,PA,15601-5860,40.2928,-79.5358,0.9311,1017,22,1587,13128,23732,10604,180.77
University of Pittsburgh-Bradford,Bradford,PA,16701,41.9442,-78.673,0.8532,973,21,1204,13078,23682,10604,181.08
North Dakota State University-Main Campus,Fargo,ND,58108-6050,46.8945,-96.8057,0.841,1091,24,8973,7660,18242,10582,238.15
North Carolina Central University,Durham,NC,27707,35.9742,-78.8986,0.5033,859,18,4057,5526,16099,10573,291.33
Bowie State University,Bowie,MD,20715-9465,39.0182,-76.7597,0.5176,886,19,3109,6971,17538,10567,251.59
Vermont Technical College,Randolph Center,VT,05061-0500,43.9393,-72.6052,0.8257,933,19,1145,12494,23006,10512,184.14
Southwest Tennessee Community College,Memphis,TN,38103,35.1376,-90.0365,1,756,16,12194,3641,14081,10440,386.73
Motlow State Community College,Tullahoma,TN,37388,35.3655,-86.2994,0.4226,910,19,3331,3888,14328,10440,368.52
The College of New Jersey,Ewing,NJ,08628-0718,40.2687,-74.7774,0.4311,1235,,6010,14730,25135,10405,170.64
Colorado State University-Pueblo,Pueblo,CO,81001-4901,38.3092,-104.5798,0.9434,967,21,5303,7327,17649,10322,240.88
SUNY at Albany,Albany,NY,12222,42.6869,-73.825,0.5545,1102,24,11780,8040,18360,10320,228.36
SUNY at Binghamton,Vestal,NY,13850-6000,42.088,-75.9711,0.4287,1297,29,9858,8144,18464,10320,226.72
Lewis-Clark State College,Lewiston,ID,83501-2698,46.41,-117.0264,0.9977,936,20,2693,5786,16096,10310,278.19
University of North Dakota,Grand Forks,ND,58202-8193,47.9219,-97.0708,0.737,1090,24,9122,7508,17794,10286,237
Mississippi State University,Mississippi State,MS,39762,33.425,-88.8797,0.6482,1106,24,13307,6772,16960,10188,250.44
West Chester University of Pennsylvania,West Chester,PA,19383,39.9491,-75.5946,0.5156,1105,,10324,8850,18974,10124,214.4
Kutztown University of Pennsylvania,Kutztown,PA,19530-0730,40.5137,-75.7854,0.8179,959,20,7033,8819,18943,10124,214.8
Bloomsburg University of Pennsylvania,Bloomsburg,PA,17815,41.008,-76.4464,0.8856,990,21,6843,8582,18706,10124,217.97
Millersville University of Pennsylvania,Millersville,PA,17551-0302,39.998,-76.3544,0.7186,1014,22,6497,8866,18990,10124,214.19
East Stroudsburg University of Pennsylvania,East Stroudsburg,PA,18301-2999,40.9962,-75.1726,0.7844,946,20,4732,8991,19115,10124,212.6
Mansfield University of Pennsylvania,Mansfield,PA,16933,41.8077,-77.0753,0.9229,964,21,2891,9192,19316,10124,210.14
Northwestern State University of Louisiana,Natchitoches,LA,71497-0002,31.7507,-93.0977,0.84,1007,22,8270,6207,16327,10120,263.04
Kennesaw State University,Kennesaw,GA,30144-5591,34.0363,-84.5808,0.5654,1068,23,11977,5818,15898,10080,273.26
Georgia Southern University,Statesboro,GA,30460-8126,32.4273,-81.7799,0.52,1094,23,12648,6071,16137,10066,265.8
University of West Georgia,Carrollton,GA,30118-0001,33.5744,-85.099,0.5385,950,20,7109,5837,15903,10066,272.45
Columbus State University,Columbus,GA,31907-5645,32.5016,-84.9408,0.5543,984,21,4450,5514,15556,10042,282.12
University of South Carolina-Upstate,Spartanburg,SC,29303-4999,34.9964,-81.9706,0.6422,982,21,3585,10198,20226,10028,198.33
Temple University,Philadelphia,PA,19122-6096,39.9809,-75.1583,0.6387,1121,25,18394,14096,24122,10026,171.13
Colorado Mesa University,Grand Junction,CO,81501-3122,39.0764,-108.5403,0.8212,972,21,5092,6725,16748,10023,249.04
University of Pittsburgh-Pittsburgh Campus,Pittsburgh,PA,15260,40.4445,-79.9547,0.5613,1258,28,17424,17100,27106,10006,158.51
University of Maine at Fort Kent,Fort Kent,ME,04743-1292,47.2503,-68.5884,0.6293,908,23,886,7575,17535,9960,231.49
Western State Colorado University,Gunnison,CO,81231,38.5474,-106.9197,0.932,1005,22,2325,7343,17284,9941,235.38
Purdue University-North Central Campus,Westville,IN,46391-9542,41.5838,-86.8952,0.7218,954,20,3416,7186,17105,9919,238.03
Christopher Newport University,Newport News,VA,23606-3072,37.0633,-76.4949,0.5902,1161,26,5101,11092,20992,9900,189.25
University of South Carolina-Beaufort,Bluffton,SC,29909,32.3033,-80.9736,0.7304,932,20,1175,8972,18824,9852,209.81
Richard Bland College of the College of William and Mary,Petersburg,VA,23805,37.1569,-77.3993,0.5572,837,15,1267,4020,13858,9838,344.73
Indiana University-Purdue University-Fort Wayne,Fort Wayne,IN,46805-1499,41.1154,-85.1117,0.8309,996,22,9772,7013,16845,9832,240.2
University of Arkansas at Little Rock,Little Rock,AR,72204,34.7266,-92.3418,0.5274,1077,24,8283,7094,16871,9777,237.82
Armstrong Atlantic State University,Savannah,GA,31419-1997,31.9781,-81.1604,0.6998,997,21,4988,5085,14847,9762,291.98
Clayton State University,Morrow,GA,30260-0285,33.5941,-84.3282,0.477,939,20,4455,5153,14915,9762,289.44
Georgia Southwestern State University,Americus,GA,31709-4693,32.0582,-84.2178,0.6803,950,20,1981,5035,14797,9762,293.88
Savannah State University,Savannah,GA,31404-5310,32.0248,-81.0634,0.8299,847,18,2070,5415,15176,9761,280.26
Indiana State University,Terre Haute,IN,47809,39.4687,-87.4071,0.8306,910,19,9537,8256,17992,9736,217.93
University of Wyoming,Laramie,WY,82071,41.3119,-105.572,0.9569,1123,25,8550,4404,14124,9720,320.71
Mississippi University for Women,Columbus,MS,39701,33.4933,-88.4186,0.4349,995,21,2660,5640,15360,9720,272.34
University of Montevallo,Montevallo,AL,35115-6000,33.1063,-86.8651,0.8729,1070,23,2557,10000,19690,9690,196.9
Western Carolina University,Cullowhee,NC,28723-9646,35.3089,-83.1846,0.3766,1034,22,5611,6265,15862,9597,253.18
Shepherd University,Shepherdstown,WV,25443,39.4343,-77.8048,0.8102,1007,22,4703,6256,15840,9584,253.2
Nicholls State University,Thibodaux,LA,70310,29.7927,-90.8029,0.8694,1030,22,6556,6468,15959,9491,246.74
SUNY College at Oswego,Oswego,NY,13126,43.453,-76.5439,0.4863,1110,24,6989,7181,16631,9450,231.6
SUNY College at Brockport,Brockport,NY,14420-2919,43.2099,-77.9498,0.4774,1069,24,6751,7222,16672,9450,230.85
State University of New York at New Paltz,New Paltz,NY,12561-2443,41.7372,-74.0887,0.4359,1129,25,6028,7083,16533,9450,233.42
SUNY College at Cortland,Cortland,NY,13045-0900,42.5589,-76.1856,0.4683,1058,23,5648,7327,16777,9450,228.98
SUNY College at Plattsburgh,Plattsburgh,NY,12901-2681,44.6911,-73.4673,0.4564,1026,22,5377,7179,16629,9450,231.63
SUNY Oneonta,Oneonta,NY,13820-4015,42.4666,-75.0642,0.5073,1097,24,5341,7230,16680,9450,230.71
SUNY College at Geneseo,Geneseo,NY,14454-1465,42.7969,-77.822,0.4566,1274,28,5197,7430,16880,9450,227.19
Farmingdale State College,Farmingdale,NY,11735-1021,40.7541,-73.4264,0.5264,969,21,5045,7125,16575,9450,232.63
SUNY at Fredonia,Fredonia,NY,14063-1136,42.451,-79.3361,0.5154,1056,24,4743,7400,16850,9450,227.7
SUNY at Purchase College,Purchase,NY,10577-1400,41.0471,-73.7001,0.3319,1082,24,3940,7573,17023,9450,224.79
Morrisville State College,Morrisville,NY,13408,42.8914,-75.6044,0.5898,930,19,3033,7412,16862,9450,227.5
SUNY College of Agriculture and Technology at Cobleskill,Cobleskill,NY,12043,42.6616,-74.5049,0.7309,975,19,2303,7149,16599,9450,232.19
SUNY Institute of Technology at Utica-Rome,Utica,NY,13502,43.1353,-75.2292,0.4754,1053,24,2190,7090,16540,9450,233.29
SUNY College of Environmental Science and Forestry,Syracuse,NY,13210,43.0344,-76.1392,0.5052,1155,25,1166,7033,16483,9450,234.37
SUNY Maritime College,Throggs Neck,NY,10465-4198,40.809,-73.8003,0.6396,1056,23,622,7109,16559,9450,232.93
Morgan State University,Baltimore,MD,21251-0001,39.3442,-76.5842,0.5757,893,18,5685,7218,16632,9414,230.42
Virginia State University,Petersburg,VA,23806,37.2365,-77.4199,0.9459,811,17,3473,7784,17192,9408,220.86
University of Pittsburgh-Titusville,Titusville,PA,16354,41.6285,-79.6669,0.954,878,18,509,11324,20698,9374,182.78
Buffalo State SUNY,Buffalo,NY,14222,42.9342,-78.8807,0.4853,975,,9386,7022,16382,9360,233.3
SUNY College at Old Westbury,Old Westbury,NY,11568-0210,40.7898,-73.571,0.5804,998,21,2995,6624,15874,9250,239.64
Eastern Oregon University,La Grande,OR,97850,45.3204,-118.0938,0.67,935,,2545,7530,16755,9225,222.51
University of North Carolina at Pembroke,Pembroke,NC,28372-1510,34.6872,-79.2019,0.7204,926,20,3076,5144,14351,9207,278.99
Texas State University,San Marcos,TX,78666,29.8892,-97.9364,0.7508,1045,23,19412,8060,17264,9204,214.19
University of Alabama at Birmingham,Birmingham,AL,35294-0110,33.5022,-86.8092,0.8673,1146,25,10331,7206,16398,9192,227.56
Grambling State University,Grambling,LA,71245,32.5227,-92.7174,0.4363,863,18,4289,5950,15118,9168,254.08
University of South Carolina-Sumter,Sumter,SC,29150-2498,33.9335,-80.3742,0.5456,927,19,1173,6482,15632,9150,241.16
University of South Carolina-Lancaster,Lancaster,SC,29720,34.7365,-80.7873,0.888,865,18,837,6482,15632,9150,241.16
University of South Carolina-Salkehatchie,Allendale,SC,29810,33.0114,-81.2988,0.7313,789,16,785,6482,15632,9150,241.16
University of South Carolina-Union,Union,SC,29379,34.7163,-81.6192,0.7692,826,16,363,6482,15632,9150,241.16
South Carolina State University,Orangeburg,SC,29117-0001,33.4974,-80.8512,0.5079,851,18,3639,9776,18910,9134,193.43
University of Toledo,Toledo,OH,43606-3390,41.658,-83.6152,0.9073,1031,22,15950,9275,18395,9120,198.33
Northern Illinois University,Dekalb,IL,60115-2828,41.9338,-88.7661,0.5613,1010,22,17151,12976,22072,9096,170.1
Eastern Kentucky University,Richmond,KY,40475-3102,37.7404,-84.3014,0.6002,1009,22,13285,7536,16608,9072,220.38
Lander University,Greenwood,SC,29649-2099,34.2011,-82.1664,0.4216,945,20,2436,10100,19136,9036,189.47
University of South Carolina-Aiken,Aiken,SC,29801,33.5729,-81.7679,0.5122,973,21,3148,9308,18340,9032,197.03
Francis Marion University,Florence,SC,29506,34.1923,-79.6555,0.5667,938,20,2793,9386,18364,8978,195.65
Ohio University-Main Campus,Athens,OH,45701-2979,39.3274,-82.0981,0.7295,1104,24,16712,10446,19410,8964,185.81
Massachusetts College of Liberal Arts,North Adams,MA,01247-4100,42.6924,-73.1035,0.672,1032,23,1387,8525,17470,8945,204.93
University of Michigan-Flint,Flint,MI,48502-1950,43.0188,-83.6885,0.7809,993,21,5786,9356,18238,8882,194.93
Montclair State University,Montclair,NJ,07043-1624,40.8592,-74.1995,0.6532,970,,10188,11318,20196,8878,178.44
University of Southern Indiana,Evansville,IN,47712,37.9662,-87.6767,0.6934,1004,22,8539,6698,15553,8855,232.2
Winston-Salem State University,Winston-Salem,NC,27110-0001,36.0892,-80.2249,0.5565,889,18,2844,5468,14281,8813,261.17
West Virginia University Institute of Technology,Montgomery,WV,25136,38.1794,-81.3252,0.5131,990,21,2311,5808,14616,8808,251.65
Kentucky State University,Frankfort,KY,40601-2355,38.2011,-84.8555,0.3774,860,18,2129,6276,15072,8796,240.15
Ramapo College of New Jersey,Mahwah,NJ,07430-1680,41.0075,-74.1164,0.5526,1096,23,4906,13388,22038,8650,164.61
Prairie View A & M University,Prairie View,TX,77446,30.0946,-95.9921,0.4232,845,18,5285,6764,15350,8586,226.94
The University of Texas at San Antonio,San Antonio,TX,78249-1644,29.5824,-98.6214,0.7327,1050,23,16026,7457,16031,8574,214.98
University of Maryland Eastern Shore,Princess Anne,MD,21853-1299,38.2112,-75.6872,0.5502,871,18,2969,6998,15504,8506,221.55
University of Houston,Houston,TX,77204-2018,29.72,-95.3449,0.5841,1136,25,24350,8401,16897,8496,201.13
University of North Texas,Denton,TX,76203-1277,33.211,-97.1512,0.5969,1100,24,21059,8745,17241,8496,197.15
Texas Tech University,Lubbock,TX,79409-5005,33.5803,-101.8769,0.663,1116,25,20518,7517,16013,8496,213.02
The University of Texas at Arlington,Arlington,TX,76013,32.7284,-97.1151,0.5998,1077,23,15449,8878,17374,8496,195.7
The University of Texas-Pan American,Edinburg,TX,78539-2999,26.3066,-98.1721,0.6217,937,20,11186,5173,13669,8496,264.24
Sam Houston State University,Huntsville,TX,77340,30.7247,-95.5519,0.6499,999,21,10855,7022,15518,8496,220.99
Lamar University,Beaumont,TX,77705,30.0443,-94.0734,0.7682,974,21,10713,7429,15925,8496,214.36
University of Houston-Downtown,Houston,TX,77002-1014,29.7638,-95.3595,0.9509,894,19,8932,5238,13734,8496,262.2
Tarleton State University,Stephenville,TX,76401-0000,32.2157,-98.2201,0.5682,984,21,6222,5856,14352,8496,245.08
Angelo State University,San Angelo,TX,76909,31.4415,-100.4665,0.8049,965,21,5773,6559,15055,8496,229.53
Texas A & M University-Corpus Christi,Corpus Christi,TX,78412-5503,27.7186,-97.3319,0.9258,960,20,5329,7172,15668,8496,218.46
Texas A & M International University,Laredo,TX,78041-1900,27.5735,-99.4352,0.4785,892,18,2263,5818,14314,8496,246.03
Sul Ross State University,Alpine,TX,79832,30.3629,-103.6506,0.522,865,18,1990,5436,13932,8496,256.29
Shippensburg University of Pennsylvania,Shippensburg,PA,17257-2299,40.0574,-77.5229,0.8341,980,20,5990,9448,17916,8468,189.63
University of Baltimore,Baltimore,MD,21201-5720,39.3058,-76.6166,0.7295,940,,2016,7838,16288,8450,207.81
The University of Texas of the Permian Basin,Odessa,TX,79762-0001,31.8895,-102.3296,0.8401,1008,21,1642,5250,13674,8424,260.46
Texas A & M University-Texarkana,Texarkana,TX,75503,33.4956,-94.104,0.3723,993,21,793,5578,14002,8424,251.02
New Jersey City University,Jersey City,NJ,7305,40.7099,-74.0873,0.4129,917,,6398,10653,19065,8412,178.96
University of the Virgin Islands,Charlotte Amalie,VI,00802-9990,18.3442,-64.9729,0.9782,807,17,1275,4794,13174,8380,274.8
University of Akron Main Campus,Akron,OH,44325-4702,41.0778,-81.5103,0.9649,1016,22,17394,10054,18418,8364,183.19
Delaware State University,Dover,DE,19901,39.1872,-75.5405,0.4168,890,18,2855,7336,15692,8356,213.9
Salisbury University,Salisbury,MD,21801-6862,38.3454,-75.6057,0.5494,1145,24,5883,8128,16474,8346,202.68
Purdue University-Calumet Campus,Hammond,IN,46323-2094,41.5847,-87.4738,0.6063,975,,8088,6624,14966,8342,225.94
University of Southern Mississippi,Hattiesburg,MS,39406-0001,31.3275,-89.3379,0.6631,1082,24,12143,6744,15024,8280,222.78
Marshall University,Huntington,WV,25755,38.4226,-82.4307,0.7868,1022,22,11621,6216,14446,8230,232.4
Lock Haven University,Lock Haven,PA,17745-2390,41.1421,-77.4636,0.8777,937,20,1923,8899,17023,8124,191.29
Northern Kentucky University,Highland Heights,KY,41099,39.0292,-84.466,0.467,1024,22,10838,8376,16464,8088,196.56
Valley City State University,Valley City,ND,58072,46.9191,-98.0018,0.829,967,21,1090,6516,14596,8080,224
Wichita State University,Wichita,KS,67260-0124,37.7165,-97.2967,0.9576,1089,24,11377,6926,14960,8034,216
Glenville State College,Glenville,WV,26351-1292,38.9353,-80.8336,0.7446,879,19,2126,6384,14400,8016,225.56
Kent State University at Kent,Kent,OH,44242-0001,41.1538,-81.3512,0.8302,1048,23,17580,9816,17776,7960,181.09
West Virginia State University,Institute,WV,25112-1000,38.379,-81.768,0.4478,942,20,4824,5932,13864,7932,233.72
College of Coastal Georgia,Brunswick,GA,31520-3644,31.1812,-81.4891,0.8221,940,20,1912,4388,12246,7858,279.08
Rowan University,Glassboro,NJ,8028,39.7098,-75.118,0.5923,1120,,8051,12380,20186,7806,163.05
Abraham Baldwin Agricultural College,Tifton,GA,31793-2601,31.4819,-83.5283,0.709,897,19,2630,3848,11516,7668,299.27
Saint Cloud State University,Saint Cloud,MN,56301-4498,45.5524,-94.153,0.8691,1010,22,13949,7514,15156,7642,201.7
University of Wisconsin-Whitewater,Whitewater,WI,53190-1790,42.8356,-88.7424,0.8468,1030,22,9460,7578,15151,7573,199.93
William Paterson University of New Jersey,Wayne,NJ,7470,40.9463,-74.1995,0.6811,1010,,8454,11918,19458,7540,163.27
Central State University,Wilberforce,OH,45384-1004,39.7165,-83.8768,0.3328,825,17,1075,6058,13510,7452,223.01
Plymouth State University,Plymouth,NH,03264-1595,43.7574,-71.6912,0.7748,965,21,3472,12610,20030,7420,158.84
East Central University,Ada,OK,74820-6999,34.7738,-96.6642,0.9814,969,21,3260,5241,12643,7402,241.23
Keene State College,Keene,NH,03435-1506,42.926,-72.2814,0.8185,975,,4297,12776,20161,7385,157.8
Concord University,Athens,WV,24712,37.4239,-81.0057,0.457,980,21,3048,6160,13490,7330,218.99
University of Illinois at Springfield,Springfield,IL,62703-5407,39.7299,-89.6149,0.5977,1085,24,2118,9178,16498,7320,179.76
West Liberty University,West Liberty,WV,26074,40.1644,-80.6023,0.7122,984,21,2606,6226,13540,7314,217.48
Bowling Green State University-Main Campus,Bowling Green,OH,43403,41.377,-83.6375,0.7247,1009,22,15494,10726,18034,7308,168.13
Pennsylvania State University-Penn State Altoona,Altoona,PA,16601-3777,40.5407,-78.4091,0.8519,990,21,3749,14240,21302,7062,149.59
Pennsylvania State University-Penn State Erie-Behrend College,Erie,PA,16563-4117,42.1194,-79.9839,0.8408,1052,22,3606,14240,21302,7062,149.59
Pennsylvania State University-Penn State Berks,Reading,PA,19610-1016,40.358,-75.9721,0.8307,988,22,2186,14240,21302,7062,149.59
Pennsylvania State University-Penn State Harrisburg,Middletown,PA,17057-4846,40.2052,-76.742,0.7994,1027,23,1865,14240,21302,7062,149.59
Alabama State University,Montgomery,AL,36104-0271,32.3643,-86.2957,0.5125,830,17,4348,8720,15656,6936,179.54
Minnesota State University-Moorhead,Moorhead,MN,56563,46.8665,-96.7634,0.8911,1049,23,7044,7816,14714,6898,188.25
Jacksonville State University,Jacksonville,AL,36265,33.8221,-85.7666,0.8326,1036,23,6491,7092,13884,6792,195.77
Pennsylvania State University-Penn State Abington,Abington,PA,19001-3918,40.117,-75.1107,0.7774,942,21,3048,13608,20284,6676,149.06
Pennsylvania State University-Penn State York,York,PA,17403-3326,39.9523,-76.7028,0.845,984,23,1743,13602,20278,6676,149.08
Pennsylvania State University-Penn State Brandywine,Media,PA,19063-5522,39.9284,-75.4478,0.7905,968,20,1678,13608,20284,6676,149.06
Pennsylvania State University-Penn State Worthington Scranton,Dunmore,PA,18512-1602,41.4403,-75.6206,0.8186,941,21,1539,13486,20162,6676,149.5
Pennsylvania State University-Penn State Hazleton,Hazleton,PA,18202-8025,40.9842,-76.0316,0.8634,948,22,1372,13550,20226,6676,149.27
Pennsylvania State University-Penn State Schuylkill,Schuylkill Haven,PA,17972-2202,40.6426,-76.1664,0.811,850,20,1096,13550,20226,6676,149.27
Pennsylvania State University-Penn State Lehigh Valley,Center Valley,PA,18034-8447,40.5577,-75.4018,0.8548,1004,24,665,13602,20278,6676,149.08
SUNY College of Technology at Alfred,Alfred,NY,14802,42.2296,-77.818,0.5494,1090,24,2735,7294,13954,6660,191.31
University of South Alabama,Mobile,AL,36688-0002,30.6951,-88.1819,0.8604,1064,23,9232,6948,13596,6648,195.68
Pennsylvania State University-Penn State Mont Alto,Mont Alto,PA,17237-9700,39.8419,-77.5441,0.8271,960,22,1176,13470,20076,6606,149.04
Pennsylvania State University-Penn State Fayette- Eberly,Lemont Furnace,PA,15456-1025,39.9471,-79.6579,0.8918,940,20,1127,13412,20018,6606,149.25
Pennsylvania State University-Penn State Dubois,DuBois,PA,15801-2549,41.1269,-78.7518,0.8793,951,21,1005,13354,19960,6606,149.47
Pennsylvania State University-Penn State Greater Allegheny,McKeesport,PA,15132-7644,40.3445,-79.8273,0.7983,957,21,901,13464,20070,6606,149.06
Pennsylvania State University-Penn State New Kensington,New Kensington,PA,15068-1765,40.5538,-79.7033,0.7379,991,22,871,13412,20018,6606,149.25
Pennsylvania State University-Penn State Wilkes-Barre,Lehman,PA,18627-0217,41.3065,-76.0172,0.8199,995,21,831,13354,19960,6606,149.47
Pennsylvania State University-Penn State Beaver,Monaca,PA,15061-2764,40.6783,-80.2962,0.8731,955,20,759,13470,20076,6606,149.04
Pennsylvania State University-Penn State Shenango,Sharon,PA,16146-1537,41.2349,-80.5082,0.6943,889,19,1032,13318,19874,6556,149.23
CUNY Hunter College,New York,NY,10065,40.7687,-73.9648,0.2972,1160,,15421,6129,12639,6510,206.22
CUNY Bernard M Baruch College,New York,NY,10010,40.7402,-73.9834,0.2483,1225,,13025,6210,12720,6510,204.83
CUNY New York City College of Technology,Brooklyn,NY,11201,40.6955,-73.9879,0.768,937,,11028,6069,12579,6510,207.27
CUNY Queens College,Flushing,NY,11367,40.7378,-73.8154,0.3702,1100,,10964,6207,12717,6510,204.88
CUNY Brooklyn College,Brooklyn,NY,11210,40.6319,-73.9531,0.3198,1100,,10094,6184,12694,6510,205.27
College of Staten Island CUNY,Staten Island,NY,10314,40.6039,-74.1487,0.9975,1000,,9735,6158,12668,6510,205.72
CUNY John Jay College of Criminal Justice,New York,NY,10019,40.7703,-73.9884,0.3405,950,,9559,6059,12569,6510,207.44
CUNY City College,New York,NY,10031,40.8198,-73.9506,0.341,1110,,8155,6089,12599,6510,206.91
CUNY Lehman College,Bronx,NY,10468,40.8739,-73.8946,0.2328,1020,,6922,6108,12618,6510,206.58
CUNY York College,Jamaica,NY,11451,40.7027,-73.7946,0.351,905,,5357,6096,12606,6510,206.79
CUNY Medgar Evers College,Brooklyn,NY,11225,40.6663,-73.9571,0.9141,838,,4614,6032,12542,6510,207.92
Missouri State University-Springfield,Springfield,MO,65897,37.198,-93.2768,0.851,1090,24,14699,6908,13388,6480,193.8
Fairmont State University,Fairmont,WV,26554-2470,39.4859,-80.1618,0.6649,965,21,6496,5824,12288,6464,210.99
University of Science and Arts of Oklahoma,Chickasha,OK,73018-5322,35.0314,-97.9564,0.6246,990,21,1409,4866,11298,6432,232.18
The Richard Stockton College of New Jersey,Galloway,NJ,08205-9441,39.4723,-74.4801,0.6211,1068,22,5976,12322,18715,6393,151.88
Chicago State University,Chicago,IL,60628-1598,41.7188,-87.6103,0.2865,892,19,5060,9032,15424,6392,170.77
Gordon State College,Barnesville,GA,30204,33.0452,-84.1525,0.4529,840,17,2890,3408,9695,6287,284.48
University of Minnesota-Twin Cities,Minneapolis,MN,55455-0213,44.9779,-93.2354,0.4442,1270,28,31824,13555,19805,6250,146.11
Kean University,Union,NJ,7083,40.6794,-74.2347,0.8037,905,,9300,10918,17141,6223,157
Bridgewater State University,Bridgewater,MA,2325,41.9878,-70.9661,0.786,991,22,7080,8053,14193,6140,176.24
Salem State University,Salem,MA,1970,42.5029,-70.8893,0.6929,986,22,6279,8130,14270,6140,175.52
Henderson State University,Arkadelphia,AR,71999-0001,34.1278,-93.0603,0.6221,1011,22,3182,7580,13700,6120,180.74
Worcester State University,Worcester,MA,01602-2597,42.2675,-71.844,0.6062,1016,22,4569,8157,14237,6080,174.54
Westfield State University,Westfield,MA,01086-1630,42.1316,-72.7957,0.7487,995,20,4276,8694,14774,6080,169.93
Framingham State University,Framingham,MA,01701-9101,42.2973,-71.4372,0.5167,1040,22,4042,8080,14160,6080,175.25
Fitchburg State University,Fitchburg,MA,01420-2697,42.5893,-71.7894,0.7211,987,20,3238,8985,15065,6080,167.67
Marion Military Institute,Marion,AL,36756-3207,32.6224,-87.318,0.6034,1040,22,175,8570,14570,6000,170.01
Truman State University,Kirksville,MO,63501-4221,40.1882,-92.5805,0.7219,1243,28,5812,7368,13240,5872,179.7
University of Nebraska at Kearney,Kearney,NE,68849-1212,40.7008,-99.0982,0.8486,1049,23,5502,6542,12370,5828,189.09
University of Arkansas at Pine Bluff,Pine Bluff,AR,71601,34.2422,-92.0213,0.277,842,18,2926,5938,11638,5700,195.99
Arkansas State University-Main Campus,Jonesboro,AR,72401,35.8428,-90.6805,0.7551,1088,24,9289,7510,13120,5610,174.7
University of North Alabama,Florence,AL,35632-0001,34.8066,-87.681,0.8092,1028,22,4944,7078,12670,5592,179.01
Alabama A & M University,Normal,AL,35762,34.7834,-86.5685,0.8989,823,17,4380,7182,12774,5592,177.86
University of Arkansas-Fort Smith,Fort Smith,AR,72913-3649,35.3853,-94.3741,0.5736,1028,22,5286,4528,10072,5544,222.44
Eastern New Mexico University-Main Campus,Portales,NM,88130,34.1783,-103.3473,0.6321,932,20,2942,4558,10069,5511,220.91
Southeast Missouri State University,Cape Girardeau,MO,63701,37.3158,-89.5291,0.8546,1049,23,7758,6863,12195,5332,177.69
Lincoln University of Pennsylvania,Lincoln University,PA,19352-0999,39.8077,-75.9283,0.6133,853,18,1322,9804,15084,5280,153.86
Northwest Missouri State University,Maryville,MO,64468-6001,40.3527,-94.8843,0.7241,1050,23,5568,6390,11391,5001,178.26
Bluefield State College,Bluefield,WV,24701,37.2669,-81.2354,0.4267,905,19,2648,5564,10536,4972,189.36
Coppin State University,Baltimore,MD,21216-3698,39.3108,-76.6585,0.355,880,,3092,6252,11186,4934,178.92
Lake Superior State University,Sault Ste Marie,MI,49783,46.4917,-84.3655,0.9183,1050,23,3068,9960,14880,4920,149.4
Arkansas Tech University,Russellville,AR,72801-2222,35.2952,-93.1323,0.8503,1008,22,4675,5598,10374,4776,185.32
New Mexico Military Institute,Roswell,NM,88201-5173,33.4095,-104.5249,0.4186,967,20,451,4336,9010,4674,207.8
Grand Valley State University,Allendale,MI,49401-9403,42.9652,-85.8875,0.826,1090,24,15211,10716,15388,4672,143.6
Muhlenberg Harold B and Dorothy A Snyder Schools-School of Nursing,Plainfield,NJ,7061,40.6071,-74.4049,0.7778,950,,273,15819,20479,4660,129.46
Edinboro University of Pennsylvania,Edinboro,PA,16444-0001,41.87,-80.1264,0.8735,930,20,6552,8849,12701,3852,143.53
California University of Pennsylvania,California,PA,15419-1394,40.0665,-79.8845,0.9269,964,19,5003,9239,13091,3852,141.69
Clarion University of Pennsylvania,Clarion,PA,16214,41.2097,-79.3748,0.9348,915,,2847,9404,13237,3833,140.76
University of Minnesota-Duluth,Duluth,MN,55812,46.8189,-92.0852,0.7822,1109,24,8400,12815,16480,3665,128.6
Slippery Rock University of Pennsylvania,Slippery Rock,PA,16057-1383,41.0608,-80.0518,0.6698,1002,21,6294,9027,12529,3502,138.79
Cleveland State University,Cleveland,OH,44115-2214,41.5029,-81.6731,0.6287,1030,22,10133,9499,12678,3179,133.47
Southern Arkansas University Main Campus,Magnolia,AR,71753,33.2912,-93.2351,0.6081,989,21,2781,7466,10616,3150,142.19
University of Puerto Rico-Carolina,Carolina,PR,00984-4800,18.3915,-65.9897,0.8065,1029,,4198,3026,6058,3032,200.2
South Dakota School of Mines and Technology,Rapid City,SD,57701-3995,44.0754,-103.2058,0.8608,1183,26,1995,10040,12870,2830,128.19
University of Puerto Rico-Cayey,Cayey,PR,00737-2230,18.1172,-66.1631,0.8342,1094,,3972,2212,4908,2696,221.88
Dickinson State University,Dickinson,ND,58601-4896,46.8827,-102.8005,0.4868,965,21,2012,5846,8198,2352,140.23
South Dakota State University,Brookings,SD,57007-1898,44.3194,-96.7834,0.919,1050,23,7448,7713,9795,2082,126.99
University of Puerto Rico-Rio Piedras,San Juan,PR,00931-0000,18.403,-66.0459,0.5248,1195,,17910,2082,4104,2022,197.12
University of Puerto Rico-Aguadilla,Ramey,PR,00604-0160,18.4987,-67.1379,0.9234,1038,,3218,2019,4041,2022,200.15
Black Hills State University,Spearfish,SD,57799-9500,44.4955,-103.87,0.8924,993,21,3549,7617,9617,2000,126.26
Dakota State University,Madison,SD,57042-1799,44.0127,-97.1096,0.8297,1010,22,1631,7506,9506,2000,126.65
Midwestern State University,Wichita Falls,TX,76308-2099,33.8771,-98.5177,0.7178,993,21,5151,7665,9615,1950,125.44
West Texas A & M University,Canyon,TX,79016-0001,34.982,-101.9158,0.7403,994,22,5623,6500,7220,720,111.08
Brigham Young University-Provo,Provo,UT,84602,40.2509,-111.6493,0.4942,1277,29,29688,4850,4850,0,100
Northeastern University,Boston,MA,02115-5005,42.34,-71.0888,0.3231,1394,32,19588,41686,41686,0,100
New York University,New York,NY,10012-1091,40.7295,-73.9973,0.2605,1352,30,18628,44848,44848,0,100
Boston University,Boston,MA,2215,42.3496,-71.0998,0.4561,1279,28,17819,44880,44880,0,100
University of Southern California,Los Angeles,CA,90089,34.0211,-118.2839,0.1984,1380,31,15705,46298,46298,0,100
St John's University-New York,Queens,NY,11439,40.722,-73.7953,0.5316,1093,24,14229,37260,37260,0,100
DePaul University,Chicago,IL,60604,41.9233,-87.6541,0.5987,1163,26,12436,33990,33990,0,100
Syracuse University,Syracuse,NY,13244,43.0376,-76.1351,0.4949,1158,26,12386,40458,40458,0,100
Baylor University,Waco,TX,76798,31.546,-97.1194,0.5747,1215,27,11806,35972,35972,0,100
Rochester Institute of Technology,Rochester,NY,14623-5603,43.0903,-77.6752,0.6016,1232,28,11786,34424,34424,0,100
University of Pennsylvania,Philadelphia,PA,19104-6303,39.951,-75.1936,0.1224,1442,32,11686,45890,45890,0,100
Embry-Riddle Aeronautical University-Daytona Beach,Daytona Beach,FL,32114-3900,29.1892,-81.0495,0.7405,1105,24,11289,31334,31334,0,100
Drexel University,Philadelphia,PA,19104,39.9549,-75.1887,0.815,1197,27,10582,37505,37505,0,100
Harvard University,Cambridge,MA,2138,42.3744,-71.1182,0.0584,1501,34,9884,42292,42292,0,100
Saint Louis University,Saint Louis,MO,63103-2097,38.6365,-90.2334,0.6443,1237,28,9821,36726,36726,0,100
Boston College,Chestnut Hill,MA,2467,42.3377,-71.1715,0.3222,1375,32,9764,45622,45622,0,100
Hofstra University,Hempstead,NY,11549,40.716,-73.6008,0.5871,1165,26,9346,37400,37400,0,100
Northwestern University,Evanston,IL,60208,42.0584,-87.6737,0.1532,1458,33,9013,45527,45527,0,100
University of Miami,Coral Gables,FL,33146,25.7204,-80.2765,0.4044,1332,30,8955,42852,42852,0,100
Brigham Young University-Idaho,Rexburg,ID,83460-1690,43.8154,-111.7847,0.9963,1036,23,8949,3850,3850,0,100
George Washington University,Washington,DC,20052,38.8987,-77.0479,0.3308,1297,29,8837,47343,47343,0,100
Cornell University,Ithaca,NY,14853,42.4453,-76.4827,0.1556,1422,32,8381,45358,45358,0,100
University of Notre Dame,Notre Dame,IN,46556,41.6167,-86.2898,0.223,1450,33,8038,44605,44605,0,100
Stanford University,Stanford,CA,94305,37.4317,-122.1822,0.0569,1466,33,7886,43683,43683,0,100
Marquette University,Milwaukee,WI,53233,43.0388,-87.9281,0.5745,1217,27,7496,34640,34640,0,100
Tulane University of Louisiana,New Orleans,LA,70118-5698,29.9397,-90.1204,0.2643,1341,31,7353,46930,46930,0,100
Loyola University Chicago,Chicago,IL,60660,41.9992,-87.6574,0.914,1195,27,7141,35573,35573,0,100
University of Dayton,Dayton,OH,45469,39.7369,-84.1737,0.5297,1181,27,7138,35800,35800,0,100
Villanova University,Villanova,PA,19085-1699,40.0394,-75.3455,0.489,1316,30,7083,44430,44430,0,100
Fordham University,Bronx,NY,10458,40.8612,-73.8896,0.4713,1258,28,6989,43902,43902,0,100
Washington University in St Louis,Saint Louis,MO,63130-4899,38.6481,-90.3116,0.1555,1474,33,6695,44841,44841,0,100
Texas Christian University,Fort Worth,TX,76129,32.7096,-97.3615,0.4739,1206,27,6675,36590,36590,0,100
Columbia University in the City of New York,New York,NY,10027,40.8083,-73.9619,0.0742,1471,33,6623,49138,49138,0,100
Howard University,Washington,DC,20059-0001,38.9207,-77.0195,0.493,1081,24,6569,22683,22683,0,100
Fairleigh Dickinson University-Metropolitan Campus,Teaneck,NJ,7666,40.8962,-74.03,0.7341,985,,6560,34882,34882,0,100
Georgetown University,Washington,DC,20057-0001,38.9088,-77.0735,0.1697,1398,31,6418,44805,44805,0,100
Duke University,Durham,NC,27708,36.0016,-78.9423,0.1342,1444,32,6325,45376,45376,0,100
Emory University,Atlanta,GA,30322,33.7988,-84.3258,0.2633,1363,31,6316,44008,44008,0,100
Hawaii Pacific University,Honolulu,HI,96813,21.3101,-157.8593,0.6411,1005,22,6313,20180,20180,0,100
LIU Post,Brookville,NY,11548-1300,40.82,-73.5933,0.8067,974,21,6032,34070,34070,0,100
Brown University,Providence,RI,2912,41.8276,-71.4045,0.0918,1425,32,6029,45612,45612,0,100
Vanderbilt University,Nashville,TN,37240,36.1444,-86.8049,0.1274,1475,33,5935,42978,42978,0,100
Barry University,Miami,FL,33161-6695,25.8789,-80.1961,0.4678,930,19,5777,28160,28160,0,100
Pace University-New York,New York,NY,10038-1598,40.711,-74.0047,0.7683,1043,23,5755,38069,38069,0,100
American University,Washington,DC,20016-8001,38.9378,-77.0901,0.4312,1258,28,5701,40649,40649,0,100
Southern Methodist University,Dallas,TX,75275-0221,32.8453,-96.7849,0.507,1302,29,5662,43800,43800,0,100
LIU Brooklyn,Brooklyn,NY,11201-5372,40.6901,-73.9809,0.869,921,20,5554,34120,34120,0,100
Duquesne University,Pittsburgh,PA,15282,40.4375,-79.993,0.7409,1122,25,5499,31385,31385,0,100
University of St Thomas,Saint Paul,MN,55105-1078,44.9417,-93.1894,0.8617,1165,26,5469,35308,35308,0,100
Regis University,Denver,CO,80221-1099,39.7898,-105.0314,0.6986,1087,24,5446,32424,32424,0,100
Seton Hall University,South Orange,NJ,07079-2697,40.7429,-74.2488,0.7916,1121,25,5403,35820,35820,0,100
Liberty University,Lynchburg,VA,24515,37.3503,-79.1797,0.2165,1030,23,5403,20768,20768,0,100
University of Hartford,West Hartford,CT,06117-1599,41.7965,-72.715,0.6173,1053,23,5367,33358,33358,0,100
Yale University,New Haven,CT,6520,41.3102,-72.9289,0.0705,1497,34,5351,44000,44000,0,100
Johns Hopkins University,Baltimore,MD,21218-2688,39.3284,-76.6208,0.1813,1418,32,5278,45470,45470,0,100
Carnegie Mellon University,Pittsburgh,PA,15213-3890,40.4446,-79.9429,0.2549,1432,32,5224,47642,47642,0,100
Indiana Wesleyan University,Marion,IN,46953-4974,40.5185,-85.662,0.9515,1083,24,5220,23628,23628,0,100
The College of New Rochelle,New Rochelle,NY,10805-2339,40.8994,-73.7811,0.5695,986,24,5191,31260,31260,0,100
Rensselaer Polytechnic Institute,Troy,NY,12180-3590,42.729,-73.6788,0.412,1366,29,5167,46269,46269,0,100
Bradley University,Peoria,IL,61625-0001,40.6976,-89.6146,0.6694,1163,26,5116,29664,29664,0,100
York College Pennsylvania,York,PA,17403-3651,39.9467,-76.7273,0.7351,1045,23,5073,17010,17010,0,100
School of Visual Arts,New York,NY,10010,40.7387,-73.9822,0.7489,1020,23,4972,32270,32270,0,100
Hampton University,Hampton,VA,23668-0099,37.0221,-76.3376,0.3605,990,21,4891,20724,20724,0,100
Tufts University,Medford,MA,02155-5555,42.406,-71.1206,0.1884,1428,32,4886,46598,46598,0,100
Quinnipiac University,Hamden,CT,6518,41.4195,-72.8955,0.6722,1102,25,4843,39330,39330,0,100
University of San Diego,San Diego,CA,92110-2492,32.7714,-117.1887,0.4885,1228,28,4793,41392,41392,0,100
The New School,New York,NY,10011-8603,40.7353,-73.9946,0.6659,1131,25,4746,40426,40426,0,100
Lehigh University,Bethlehem,PA,18015,40.6072,-75.3789,0.3084,1322,30,4685,43520,43520,0,100
Roosevelt University,Chicago,IL,60605-1394,41.8761,-87.625,0.7878,1035,22,4665,26500,26500,0,100
University of San Francisco,San Francisco,CA,94117-1080,37.7756,-122.451,0.6129,1161,25,4664,40294,40294,0,100
Princeton University,Princeton,NJ,08544-0070,40.3482,-74.6644,0.0741,1495,33,4663,40170,40170,0,100
Wayland Baptist University,Plainview,TX,79072,34.1867,-101.7296,0.9862,940,20,4634,12550,12550,0,100
Campbell University,Buies Creek,NC,27506,35.4093,-78.7395,0.6983,1030,22,4594,26240,26240,0,100
Saint Joseph's University,Philadelphia,PA,19131-1395,39.9944,-75.2383,0.7873,1110,24,4517,39040,39040,0,100
University of Rochester,Rochester,NY,14627-0011,43.1266,-77.6316,0.3568,1353,31,4480,45372,45372,0,100
Providence College,Providence,RI,02918-0001,41.8441,-71.4379,0.5979,1158,26,4405,43245,43245,0,100
Bentley University,Waltham,MA,02452-4705,42.3888,-71.2201,0.4379,1234,28,4316,41110,41110,0,100
Santa Clara University,Santa Clara,CA,95053,37.3527,-121.9382,0.5122,1294,29,4308,42156,42156,0,100
Calvin College,Grand Rapids,MI,49546,42.9299,-85.5875,0.6975,1183,26,4263,28250,28250,0,100
Massachusetts Institute of Technology,Cambridge,MA,02139-4307,42.3601,-71.0921,0.0815,1503,34,4258,43498,43498,0,100
Savannah College of Art and Design,Savannah,GA,31402-3146,32.073,-81.0939,0.6547,1078,24,4249,33450,33450,0,100
Abilene Christian University,Abilene,TX,79699,32.4692,-99.7095,0.4894,1087,24,4231,28350,28350,0,100
Monmouth University,West Long Branch,NJ,07764-1898,40.2801,-74.0064,0.7791,1063,24,4194,31018,31018,0,100
Rider University,Lawrenceville,NJ,08648-3099,40.2831,-74.7428,0.7187,1038,22,4178,35270,35270,0,100
Nova Southeastern University,Fort Lauderdale,FL,33314-7796,26.0793,-80.2425,0.5746,1084,24,4110,25430,25430,0,100
Dartmouth College,Hanover,NH,03755-3529,43.7137,-72.2603,0.0978,1446,32,4057,46752,46752,0,100
Drury University,Springfield,MO,65802-3791,37.2198,-93.2858,0.8095,1146,25,4053,22295,22295,0,100
Baldwin Wallace University,Berea,OH,44017-2088,41.3739,-81.8491,0.6396,1096,24,4043,27840,27840,0,100
Clark Atlanta University,Atlanta,GA,30314-4391,33.7488,-84.4128,0.568,880,19,4030,21100,21100,0,100
Xavier University,Cincinnati,OH,45207-1092,39.1493,-84.4776,0.6997,1132,25,4019,33000,33000,0,100
University of Chicago,Chicago,IL,60637,41.7892,-87.6012,0.0881,1504,34,4008,47514,47514,0,100
University of Denver,Denver,CO,80208,39.696,-104.9646,0.7673,1231,28,3992,40707,40707,0,100
Lindenwood University,Saint Charles,MO,63301-1695,38.7882,-90.5028,0.6629,1045,23,3991,15150,15150,0,100
Harding University,Searcy,AR,72143,35.2496,-91.729,0.7628,1139,25,3982,16170,16170,0,100
University of Scranton,Scranton,PA,18510-4629,41.4072,-75.658,0.7503,1121,25,3970,38754,38754,0,100
Elon University,Elon,NC,27244-2010,36.1041,-79.5056,0.5398,1200,25,3900,30149,30149,0,100
Concordia University-Wisconsin,Mequon,WI,53097-2402,43.2542,-87.9166,0.6992,1049,23,3852,25160,25160,0,100
University of Detroit Mercy,Detroit,MI,48221-3038,42.4172,-83.1384,0.6147,1142,25,3830,35920,35920,0,100
Creighton University,Omaha,NE,68178,41.2653,-95.947,0.7665,1214,27,3765,34330,34330,0,100
Robert Morris University,Moon Township,PA,15108-1189,40.5211,-80.2118,0.8051,1041,23,3714,25114,25114,0,100
Loyola University New Orleans,New Orleans,LA,70118-6143,29.9361,-90.1204,0.8707,1143,25,3688,36860,36860,0,100
Northwood University-Michigan,Midland,MI,48640-2398,43.629,-84.2763,0.6538,1029,22,3657,22130,22130,0,100
University of Richmond,University of Richmond,VA,23173,37.5776,-77.5387,0.3116,1313,30,3652,45320,45320,0,100
Webster University,Saint Louis,MO,63119-3194,38.5893,-90.3457,0.5806,1107,24,3639,23760,23760,0,100
Southern University at New Orleans,New Orleans,LA,70126,30.0267,-90.0444,0.4888,808,17,3573,4911,4911,0,100
St Catherine University,Saint Paul,MN,55105,44.9245,-93.1819,0.6089,1051,23,3555,34744,34744,0,100
John Carroll University,University Heights,OH,44118-4581,41.4894,-81.5323,0.8334,1112,25,3525,34480,34480,0,100
Loyola University Maryland,Baltimore,MD,21210-2699,39.346,-76.6234,0.58,1194,27,3476,43250,43250,0,100
The University of Findlay,Findlay,OH,45840-3653,41.0544,-83.6521,0.6832,1083,24,3459,29798,29798,0,100
Azusa Pacific University,Azusa,CA,91702-7000,34.1309,-117.888,0.7985,1098,24,3453,32256,32256,0,100
Bucknell University,Lewisburg,PA,17837,40.9545,-76.8863,0.2951,1306,30,3443,46902,46902,0,100
Suffolk University,Boston,MA,02108-2770,42.3591,-71.0618,0.825,1014,23,3438,31716,31716,0,100
Case Western Reserve University,Cleveland,OH,44106,41.5008,-81.6058,0.4188,1377,31,3434,41800,41800,0,100
Louisiana State University-Shreveport,Shreveport,LA,71115-2399,32.4288,-93.7038,0.8349,1030,22,3422,5606,5606,0,100
Iona College,New Rochelle,NY,10801-1890,40.9271,-73.7856,0.9212,1009,22,3422,32770,32770,0,100
Lakeland College,Plymouth,WI,53073,43.8419,-87.885,0.6621,1007,22,3390,22950,22950,0,100
Springfield College,Springfield,MA,01109-3797,42.105,-72.5557,0.6992,1029,23,3371,32560,32560,0,100
Delta State University,Cleveland,MS,38733,33.7439,-90.7344,0.8941,950,20,3356,6562,6562,0,100
Widener University-Main Campus,Chester,PA,19013-5792,39.8616,-75.3567,0.6726,1025,,3355,38028,38028,0,100
Canisius College,Buffalo,NY,14208-1098,42.9253,-78.8518,0.7251,1101,25,3349,33332,33332,0,100
Lewis University,Romeoville,IL,60446-2200,41.6054,-88.079,0.5587,1088,24,3327,26780,26780,0,100
Saint Joseph's College of Maine,Standish,ME,04084-5236,43.8265,-70.4835,0.7778,960,,3322,30990,30990,0,100
University of La Verne,La Verne,CA,91750-4401,34.1009,-117.7726,0.3895,1035,23,3319,35000,35000,0,100
Butler University,Indianapolis,IN,46208,39.8407,-86.1718,0.661,1212,28,3315,34368,34368,0,100
Seattle University,Seattle,WA,98122-4340,47.6101,-122.3197,0.7323,1175,27,3303,36465,36465,0,100
Xavier University of Louisiana,New Orleans,LA,70125-1098,29.9642,-90.1073,0.5443,1048,23,3284,20560,20560,0,100
Brandeis University,Waltham,MA,02454-9110,42.3649,-71.2547,0.3704,1347,30,3282,45856,45856,0,100
Siena College,Loudonville,NY,12211-1462,42.7186,-73.7515,0.6805,1122,25,3278,31368,31368,0,100
Pacific Lutheran University,Tacoma,WA,98447-0003,47.1455,-122.4454,0.7676,1112,25,3247,34740,34740,0,100
Lee University,Cleveland,TN,37311,35.1662,-84.87,0.9165,1094,24,3236,13750,13750,0,100
Dallas Baptist University,Dallas,TX,75211-9299,32.71,-96.947,0.423,1078,23,3190,22350,22350,0,100
Wentworth Institute of Technology,Boston,MA,2115,42.3366,-71.095,0.5761,1109,24,3187,29200,29200,0,100
Emerson College,Boston,MA,02116-4624,42.3553,-71.074,0.4798,1240,28,3168,35730,35730,0,100
Western New England University,Springfield,MA,01119-2684,42.1158,-72.5188,0.8151,1077,24,3136,33020,33020,0,100
Oral Roberts University,Tulsa,OK,74171,36.0507,-95.9542,0.4354,1037,23,3132,22508,22508,0,100
Madonna University,Livonia,MI,48150-1176,42.3865,-83.4073,0.6125,1034,22,3130,16340,16340,0,100
Cardinal Stritch University,Milwaukee,WI,53217-3985,43.1398,-87.909,0.8423,1027,22,3124,25450,25450,0,100
Saint Edward's University,Austin,TX,78704-6489,30.2298,-97.7576,0.7853,1117,24,3105,33720,33720,0,100
Southern New Hampshire University,Manchester,NH,03106-1045,43.0399,-71.4539,0.7866,965,,3099,28884,28884,0,100
Adelphi University,Garden City,NY,11530-0701,40.7214,-73.6533,0.6814,1098,22,3099,30800,30800,0,100
University of the Pacific,Stockton,CA,95211-0197,37.9806,-121.3073,0.7265,1172,26,3093,39810,39810,0,100
Pepperdine University,Malibu,CA,90263,34.0419,-118.7077,0.3734,1235,,3068,44902,44902,0,100
New York Institute of Technology,Old Westbury,NY,11568-8000,40.8144,-73.6089,0.7407,1039,22,3052,30780,30780,0,100
Saint Mary's College of California,Moraga,CA,94575,37.84,-122.1068,0.6947,1115,25,3035,39890,39890,0,100
Mercyhurst University,Erie,PA,16546,42.104,-80.0556,0.7536,1064,24,3022,30300,30300,0,100
Gonzaga University,Spokane,WA,99258-0001,47.6681,-117.4031,0.6651,1204,27,3019,35062,35062,0,100
University of Redlands,Redlands,CA,92373-0999,34.0636,-117.1638,0.672,1135,25,3015,41290,41290,0,100
Hope College,Holland,MI,49423-3607,42.7881,-86.1054,0.7253,1204,27,3015,28720,28720,0,100
St Olaf College,Northfield,MN,55057-1098,44.4629,-93.1836,0.5919,1290,29,3014,40700,40700,0,100
University of the Incarnate Word,San Antonio,TX,78209,29.4681,-98.4677,0.9307,967,21,3003,24790,24790,0,100
Valparaiso University,Valparaiso,IN,46383,41.4632,-87.0459,0.7969,1158,26,2979,33480,33480,0,100
Lawrence Technological University,Southfield,MI,48075-1058,42.4741,-83.25,0.4365,1145,25,2975,28948,28948,0,100
Morehouse College,Atlanta,GA,30314,33.7479,-84.4152,0.6684,990,21,2970,25468,25468,0,100
The University of Tampa,Tampa,FL,33606-1490,27.9472,-82.4656,0.5221,1075,24,2961,25772,25772,0,100
Chapman University,Orange,CA,92866,33.7937,-117.8515,0.4471,1208,27,2953,43573,43573,0,100
Augsburg College,Minneapolis,MN,55454,44.9656,-93.2414,0.6086,1053,23,2913,33209,33209,0,100
Minot State University,Minot,ND,58707,48.2469,-101.3006,0.5662,1004,22,2907,6086,6086,0,100
Oberlin College,Oberlin,OH,44074,41.2947,-82.2218,0.3041,1354,30,2905,46870,46870,0,100
Bryant University,Smithfield,RI,02917-1291,41.9201,-71.5391,0.7655,1137,25,2901,37234,37234,0,100
Drake University,Des Moines,IA,50311-4505,41.6038,-93.6541,0.6595,1240,28,2890,30889,30889,0,100
University of Tulsa,Tulsa,OK,74104-3189,36.1519,-95.9452,0.4059,1279,29,2874,34835,34835,0,100
Samford University,Birmingham,AL,35229-2240,33.4646,-86.7909,0.7697,1153,26,2870,26328,26328,0,100
University of St Francis,Joliet,IL,60435-6188,41.5333,-88.0964,0.5141,1070,23,2858,27970,27970,0,100
University of Indianapolis,Indianapolis,IN,46227-3697,39.7097,-86.1347,0.8443,1018,22,2856,24660,24660,0,100
Cedarville University,Cedarville,OH,45314-0601,39.7503,-83.8121,0.7401,1195,27,2847,26420,26420,0,100
Concordia College at Moorhead,Moorhead,MN,56562,46.8594,-96.7656,0.7998,1144,25,2826,32814,32814,0,100
Ashland University,Ashland,OH,44805,40.861,-82.3206,0.7438,1043,23,2819,29836,29836,0,100
Colgate University,Hamilton,NY,13346-1398,42.8188,-75.535,0.2638,1370,31,2811,46380,46380,0,100
Philadelphia University,Philadelphia,PA,19144-5497,40.0216,-75.1927,0.6408,1062,23,2809,33690,33690,0,100
Biola University,La Mirada,CA,90639-0001,33.9048,-118.0173,0.7286,1123,25,2797,32142,32142,0,100
Messiah College,Mechanicsburg,PA,17055,40.1587,-76.9885,0.659,1154,26,2797,30470,30470,0,100
Furman University,Greenville,SC,29613-6162,34.9208,-82.4415,0.6397,1237,28,2789,43164,43164,0,100
University of Minnesota-Crookston,Crookston,MN,56716-5001,47.802,-96.6099,0.6916,1004,22,2775,11448,11448,0,100
Bethune-Cookman University,Daytona Beach,FL,32114-3099,29.2102,-81.0314,0.666,812,17,2745,14410,14410,0,100
Yeshiva University,New York,NY,10033-3299,40.8508,-73.9285,0.8216,1217,26,2744,37600,37600,0,100
Capital University,Columbus,OH,43209-2394,39.9549,-82.9379,0.7604,1102,24,2740,31990,31990,0,100
Wesleyan University,Middletown,CT,6459,41.5568,-72.6568,0.2092,1387,31,2722,47244,47244,0,100
Southwest Baptist University,Bolivar,MO,65613-2596,37.6016,-93.4105,0.9022,1062,23,2714,20040,20040,0,100
LeTourneau University,Longview,TX,75607-7001,32.4677,-94.7273,0.4066,1175,26,2708,25740,25740,0,100
Manhattan College,Riverdale,NY,10471-4098,40.8898,-73.9019,0.6617,1090,25,2694,35725,35725,0,100
Rice University,Houston,TX,77005-1827,29.7165,-95.4036,0.1674,1454,33,2692,38941,38941,0,100
Seattle Pacific University,Seattle,WA,98119-1997,47.6493,-122.3629,0.7214,1145,26,2692,33813,33813,0,100
Saint Peter's University,Jersey City,NJ,07306-5997,40.7271,-74.0715,0.5408,913,19,2687,32284,32284,0,100
Friends University,Wichita,KS,67213,37.6785,-97.3667,0.5862,977,21,2668,23430,23430,0,100
Bethel University,Saint Paul,MN,55112,45.0571,-93.1593,0.9485,1144,25,2652,31760,31760,0,100
Stonehill College,Easton,MA,02357-6110,42.0614,-71.0781,0.7091,1133,25,2638,36160,36160,0,100
Kettering University,Flint,MI,48504-6214,43.0131,-83.7144,0.6159,1198,27,2632,35600,35600,0,100
University of Evansville,Evansville,IN,47722,37.97,-87.532,0.8409,1147,26,2624,30596,30596,0,100
High Point University,High Point,NC,27262-3598,35.9727,-79.9945,0.6418,1087,24,2623,30715,30715,0,100
Luther College,Decorah,IA,52101-1045,43.3136,-91.804,0.7212,1175,26,2621,37530,37530,0,100
University of Puget Sound,Tacoma,WA,98416,47.2637,-122.4797,0.8522,1233,28,2619,41868,41868,0,100
St Mary's University,San Antonio,TX,78228-8586,29.4518,-98.5643,0.5823,1050,23,2618,25126,25126,0,100
Saint Xavier University,Chicago,IL,60655,41.7078,-87.7135,0.5054,1010,22,2611,28970,28970,0,100
Catholic University of America,Washington,DC,20064,38.9358,-76.999,0.6007,1118,25,2609,38526,38526,0,100
Missouri Baptist University,Saint Louis,MO,63141-8698,38.642,-90.4626,0.6095,1001,22,2574,21790,21790,0,100
Maryville University of Saint Louis,Saint Louis,MO,63141-7299,38.6455,-90.5051,0.7611,1142,25,2573,25002,25002,0,100
Muhlenberg College,Allentown,PA,18104,40.5974,-75.509,0.4616,1246,28,2543,42755,42755,0,100
Clarkson University,Potsdam,NY,13699,44.6638,-74.9999,0.6403,1187,26,2539,40540,40540,0,100
University of New Haven,West Haven,CT,6516,41.2913,-72.9615,0.7441,1034,23,2537,33740,33740,0,100
Point Park University,Pittsburgh,PA,15222-1984,40.4385,-80.0015,0.7393,997,22,2531,26170,26170,0,100
Champlain College,Burlington,VT,5401,44.473,-73.2044,0.7079,1122,25,2530,31350,31350,0,100
University of Portland,Portland,OR,97203-5798,45.5718,-122.7269,0.668,1195,,2512,38670,38670,0,100
Otterbein University,Westerville,OH,43081,40.1254,-82.9356,0.7374,1087,24,2511,31424,31424,0,100
Belmont University,Nashville,TN,37212-3757,36.1339,-86.7947,0.7987,1193,27,2507,27380,27380,0,100
Marymount Manhattan College,New York,NY,10021-4597,40.7691,-73.9597,0.7463,1053,24,2497,26640,26640,0,100
Elmhurst College,Elmhurst,IL,60126-3096,41.8992,-87.9461,0.718,1084,24,2484,32920,32920,0,100
Gardner-Webb University,Boiling Springs,NC,28017-0997,35.2473,-81.6681,0.4817,1018,22,2474,25830,25830,0,100
Niagara University,Niagara University,NY,14109,43.1386,-79.0311,0.6633,1038,23,2473,28200,28200,0,100
Gannon University,Erie,PA,16541-0001,42.1261,-80.0863,0.8042,1050,23,2470,27546,27546,0,100
Tuskegee University,Tuskegee,AL,36088-1920,32.431,-85.7103,0.3511,937,20,2467,18900,18900,0,100
Skidmore College,Saratoga Springs,NY,12866,43.0927,-73.7851,0.3505,1247,28,2451,45874,45874,0,100
Mississippi College,Clinton,MS,39058,32.3346,-90.3305,0.673,1098,24,2440,14868,14868,0,100
Meredith College,Raleigh,NC,27607-5298,35.7972,-78.6892,0.6232,1040,23,2432,30562,30562,0,100
Loyola Marymount University,Los Angeles,CA,90045-2659,33.9706,-118.4157,0.5412,1202,27,2430,40265,40265,0,100
Wheaton College,Wheaton,IL,60187-5593,41.8709,-88.0968,0.6871,1318,30,2418,30880,30880,0,100
University of Mary Hardin-Baylor,Belton,TX,76513-2599,31.0668,-97.4635,0.8468,1069,24,2401,25200,25200,0,100
Vassar College,Poughkeepsie,NY,12604,41.6851,-73.8943,0.2411,1394,32,2400,47890,47890,0,100
Le Moyne College,Syracuse,NY,13214-1301,43.0473,-76.0884,0.619,1080,24,2399,30460,30460,0,100
Alcorn State University,Alcorn State,MS,39096-7500,31.8772,-91.1429,0.8291,851,18,2398,6108,6108,0,100
Gustavus Adolphus College,Saint Peter,MN,56082-1498,44.325,-93.9719,0.6322,1224,27,2388,39120,39120,0,100
Trinity University,San Antonio,TX,78212-7200,29.4629,-98.4826,0.6393,1270,29,2356,34678,34678,0,100
Brigham Young University-Hawaii,Laie,HI,96762-1294,21.6412,-157.9254,0.3604,1081,24,2353,4770,4770,0,100
Bellarmine University,Louisville,KY,40205-0671,38.2191,-85.7049,0.9478,1116,25,2347,34890,34890,0,100
Florida Southern College,Lakeland,FL,33801-5698,28.0315,-81.9458,0.4989,1102,25,2334,28580,28580,0,100
University of Mount Union,Alliance,OH,44601-3993,40.9051,-81.1086,0.712,1050,23,2334,27380,27380,0,100
Charleston Southern University,Charleston,SC,29406-9121,32.982,-80.0693,0.6887,973,21,2315,22090,22090,0,100
Ohio Northern University,Ada,OH,45810-1599,40.7661,-83.8307,0.6785,1153,26,2308,36720,36720,0,100
Millikin University,Decatur,IL,62522-2084,39.8426,-88.9746,0.5512,1087,24,2307,28644,28644,0,100
Point Loma Nazarene University,San Diego,CA,92106-2899,32.7133,-117.2512,0.6654,1155,26,2304,30356,30356,0,100
St Francis College,Brooklyn Heights,NY,11201-9902,40.6931,-73.9917,0.6433,940,,2304,20700,20700,0,100
Middlebury College,Middlebury,VT,5753,44.0091,-73.1761,0.1716,1391,32,2292,45314,45314,0,100
Wellesley College,Wellesley,MA,02481-8203,42.2938,-71.308,0.2911,1399,31,2287,43554,43554,0,100
Barnard College,New York,NY,10027-6598,40.8091,-73.964,0.2053,1340,30,2285,44790,44790,0,100
Lafayette College,Easton,PA,18042-1768,40.7005,-75.2091,0.3414,1283,29,2279,44670,44670,0,100
Milwaukee School of Engineering,Milwaukee,WI,53202-3109,43.0454,-87.9077,0.6839,1244,28,2279,34470,34470,0,100
Wittenberg University,Springfield,OH,45504,39.9375,-83.8141,0.8932,1119,24,2273,38030,38030,0,100
Lipscomb University,Nashville,TN,37204-3951,36.1047,-86.7993,0.527,1149,25,2264,26094,26094,0,100
Gettysburg College,Gettysburg,PA,17325-1486,39.8361,-77.235,0.4163,1282,28,2234,45870,45870,0,100
Our Lady of the Lake University,San Antonio,TX,78207-4689,29.4256,-98.544,0.6561,882,18,2233,23938,23938,0,100
Immaculata University,Immaculata,PA,19345-0702,40.028,-75.5706,0.7964,943,20,2231,30740,30740,0,100
DePauw University,Greencastle,IN,46135-1772,39.6395,-86.8636,0.6121,1215,27,2223,40640,40640,0,100
Curry College,Milton,MA,02186-2395,42.2406,-71.114,0.6692,931,18,2218,34715,34715,0,100
St Bonaventure University,Saint Bonaventure,NY,14778,42.0786,-78.4759,0.7999,1075,24,2202,29589,29589,0,100
Stevenson University,Stevenson,MD,21153-0641,39.4213,-76.7012,0.5959,990,21,2185,27082,27082,0,100
Saint John Fisher College,Rochester,NY,14618-3597,43.1171,-77.517,0.6277,1095,25,2175,28430,28430,0,100
Mercer University,Macon,GA,31207,32.8297,-83.651,0.69,1171,26,2156,33120,33120,0,100
Stetson University,DeLand,FL,32723,29.0363,-81.3016,0.5925,1168,26,2155,38330,38330,0,100
Newbury College,Brookline,MA,2445,42.331,-71.1421,0.5953,850,,2152,28950,28950,0,100
Carthage College,Kenosha,WI,53140-1994,42.6229,-87.8207,0.7018,1105,24,2147,34850,34850,0,100
Methodist University,Fayetteville,NC,28311-1420,35.1379,-78.875,0.6122,961,21,2134,27830,27830,0,100
Spring Arbor University,Spring Arbor,MI,49283-9799,42.2062,-84.5519,0.6505,1069,23,2125,23400,23400,0,100
Union College,Schenectady,NY,12308-2311,42.8176,-73.9285,0.3728,1313,30,2124,46785,46785,0,100
Dickinson College,Carlisle,PA,17013-2896,40.2028,-77.1979,0.4444,1285,29,2115,46094,46094,0,100
Denison University,Granville,OH,43023-0713,40.0726,-82.5206,0.4597,1285,29,2108,43910,43910,0,100
Utica College,Utica,NY,13502-4892,43.0952,-75.2724,0.8542,946,21,2104,33320,33320,0,100
Trinity College,Hartford,CT,06106-3100,41.7467,-72.6887,0.3178,1240,27,2100,47510,47510,0,100
Norwich University,Northfield,VT,05663-1035,44.1394,-72.6601,0.6349,1065,24,2099,33371,33371,0,100
Anderson University,Anderson,IN,46012-3495,40.1122,-85.6623,0.5545,1053,23,2090,26280,26280,0,100
Ohio Dominican University,Columbus,OH,43219,39.9927,-82.9405,0.494,1028,22,2085,28932,28932,0,100
University of Northwestern-St Paul,Saint Paul,MN,55113-1598,45.033,-93.1716,0.6915,1126,25,2081,28020,28020,0,100
Saint Michael's College,Colchester,VT,5439,44.4942,-73.1631,0.7511,1173,26,2073,39015,39015,0,100
College of Mount St Joseph,Cincinnati,OH,45233-1670,39.0945,-84.6401,0.8755,989,22,2061,25800,25800,0,100
Indiana Institute of Technology,Fort Wayne,IN,46803-1228,41.0783,-85.118,0.7225,934,20,2052,24860,24860,0,100
Eastern University,Saint Davids,PA,19087-3696,40.0523,-75.3703,0.6409,1041,21,2039,28090,28090,0,100
Chaminade University of Honolulu,Honolulu,HI,96816-1578,21.2903,-157.8076,0.8359,972,21,2038,20090,20090,0,100
Rockhurst University,Kansas City,MO,64110-2561,39.0308,-94.5712,0.7543,1164,26,2034,31290,31290,0,100
Florida Institute of Technology,Melbourne,FL,32901-6975,28.0645,-80.6246,0.6045,1153,26,2033,36020,36020,0,100
Truett-McConnell College,Cleveland,GA,30528,34.5944,-83.746,0.8064,939,20,2033,16610,16610,0,100
Illinois Wesleyan University,Bloomington,IL,61702-2900,40.4915,-88.9906,0.5838,1241,28,2027,39316,39316,0,100
College of Saint Benedict,Saint Joseph,MN,56374,45.5586,-94.319,0.7554,1157,26,2024,37926,37926,0,100
Williams College,Williamstown,MA,1267,42.7117,-73.2059,0.1702,1439,32,2020,46600,46600,0,100
Molloy College,Rockville Centre,NY,11571-5002,40.686,-73.6263,0.7267,1054,23,2020,25710,25710,0,100
Texas Wesleyan University,Fort Worth,TX,76105-1536,32.7333,-97.2796,0.2992,997,21,2015,22040,22040,0,100
University of Mary,Bismarck,ND,58504,46.7249,-100.7524,0.8307,1046,23,2006,14730,14730,0,100
Marymount University,Arlington,VA,22207-4224,38.9056,-77.1288,0.8252,1030,22,2004,26430,26430,0,100
North Carolina Wesleyan College,Rocky Mount,NC,27804,36.0174,-77.7742,0.4676,863,18,1996,26632,26632,0,100
Carson-Newman University,Jefferson City,TN,37760,36.1222,-83.4922,0.6657,1064,23,1994,23696,23696,0,100
McKendree University,Lebanon,IL,62254-1291,38.6094,-89.8145,0.6289,1046,23,1993,26050,26050,0,100
Oklahoma Baptist University,Shawnee,OK,74804,35.3599,-96.9343,0.5646,1098,24,1993,21842,21842,0,100
Geneva College,Beaver Falls,PA,15010-3599,40.7735,-80.3525,0.6802,1070,23,1991,25220,25220,0,100
Saint Anselm College,Manchester,NH,03102-1310,42.9851,-71.5082,0.7365,1145,25,1985,35204,35204,0,100
La Salle University,Philadelphia,PA,19141-1199,40.0385,-75.153,0.8021,996,22,1984,38200,38200,0,100
Limestone College,Gaffney,SC,29340-3799,35.0529,-81.648,0.5322,1010,22,1967,22080,22080,0,100
Houston Baptist University,Houston,TX,77074-3298,29.6944,-95.516,0.7318,1075,24,1967,27930,27930,0,100
Palm Beach Atlantic University,West Palm Beach,FL,33401,26.7046,-80.0498,0.8412,1061,23,1964,25532,25532,0,100
Dillard University,New Orleans,LA,70122,29.9965,-90.0653,0.3544,884,19,1953,16094,16094,0,100
St Thomas Aquinas College,Sparkill,NY,10976-1050,41.0411,-73.9342,0.8224,931,19,1949,26340,26340,0,100
Oklahoma City University,Oklahoma City,OK,73106-1402,35.4953,-97.5412,0.7198,1163,26,1949,29426,29426,0,100
Union University,Jackson,TN,38305-3697,35.6769,-88.8585,0.7412,1174,26,1948,26880,26880,0,100
Malone University,Canton,OH,44709-3897,40.8265,-81.3835,0.7179,1046,23,1945,25678,25678,0,100
Southern Adventist University,Collegedale,TN,37315-0370,35.0491,-85.0509,0.3826,1050,23,1939,19790,19790,0,100
Carleton College,Northfield,MN,55057-4001,44.4623,-93.1547,0.2095,1406,31,1936,46167,46167,0,100
Notre Dame of Maryland University,Baltimore,MD,21210-2476,39.3513,-76.6197,0.4964,1036,22,1930,32050,32050,0,100
Wilmington College,Wilmington,OH,45177,39.4411,-83.8173,0.4603,1006,22,1930,28190,28190,0,100
Colorado College,Colorado Springs,CO,80903,38.8466,-104.8242,0.2228,1323,30,1919,44222,44222,0,100
Hardin-Simmons University,Abilene,TX,79698-0001,32.4768,-99.7338,0.3759,1035,23,1910,23460,23460,0,100
Allegheny College,Meadville,PA,16335-3902,41.6481,-80.1469,0.6487,1182,26,1904,39100,39100,0,100
University of St Thomas,Houston,TX,77006-4696,29.7381,-95.3942,0.7724,1121,26,1904,28240,28240,0,100
The University of the Arts,Philadelphia,PA,19102-4901,39.946,-75.1659,0.7539,1010,22,1893,36582,36582,0,100
Shorter University,Rome,GA,30165,34.2582,-85.1962,0.6807,954,21,1889,19670,19670,0,100
Mount Vernon Nazarene University,Mount Vernon,OH,43050-9500,40.3739,-82.4747,0.6349,1071,23,1889,23690,23690,0,100
Spelman College,Atlanta,GA,30314-4399,33.7452,-84.4101,0.3802,1024,22,1888,24634,24634,0,100
Saint Johns University,Collegeville,MN,56321,45.5814,-94.3919,0.7516,1155,26,1880,37162,37162,0,100
Ohio Wesleyan University,Delaware,OH,43015-2370,40.2969,-83.0679,0.7533,1123,25,1880,40510,40510,0,100
Westminster College,Salt Lake City,UT,84105,40.7315,-111.8556,0.7517,1134,25,1878,29500,29500,0,100
DeSales University,Center Valley,PA,18034-9568,40.5401,-75.3765,0.758,1069,24,1869,31250,31250,0,100
Lebanon Valley College,Annville,PA,17003-1400,40.3317,-76.5138,0.6686,1112,25,1852,35700,35700,0,100
Hamline University,Saint Paul,MN,55104-1284,44.9657,-93.164,0.6557,1106,24,1851,35108,35108,0,100
Caldwell College,Caldwell,NJ,07006-6195,40.8343,-74.2737,0.6408,949,21,1844,29000,29000,0,100
Taylor University,Upland,IN,46989-1001,40.4584,-85.4969,0.876,1214,28,1843,28753,28753,0,100
University of Minnesota-Morris,Morris,MN,56267,45.5898,-95.9018,0.5764,1168,26,1842,12584,12584,0,100
The College of Wooster,Wooster,OH,44691,40.8105,-81.9347,0.5633,1231,28,1837,41680,41680,0,100
Salve Regina University,Newport,RI,02840-4192,41.4714,-71.3011,0.6706,1109,25,1835,34950,34950,0,100
Flagler College-St Augustine,Saint Augustine,FL,32084,29.8934,-81.3153,0.4987,1096,23,1830,16180,16180,0,100
Rhode Island School of Design,Providence,RI,02903-2784,41.8259,-71.4077,0.2731,1239,28,1829,42932,42932,0,100
Elizabethtown College,Elizabethtown,PA,17022-2298,40.1504,-76.5942,0.6957,1117,25,1825,38200,38200,0,100
Susquehanna University,Selinsgrove,PA,17870-1025,40.7977,-76.8752,0.7233,1129,25,1824,38780,38780,0,100
Berry College,Mount Berry,GA,30149,34.2893,-85.1891,0.6032,1186,27,1822,29090,29090,0,100
Lynn University,Boca Raton,FL,33431-5598,26.3828,-80.1239,0.776,940,20,1817,33600,33600,0,100
California Lutheran University,Thousand Oaks,CA,91360-2787,34.2256,-118.8795,0.4802,1108,24,1816,35720,35720,0,100
Jacksonville University,Jacksonville,FL,32211-3394,30.3503,-81.6071,0.4737,1010,22,1814,29900,29900,0,100
Colby College,Waterville,ME,04901-8840,44.5642,-69.6634,0.2604,1343,30,1814,45760,45760,0,100
Macalester College,Saint Paul,MN,55105-1899,44.9367,-93.1699,0.3416,1350,31,1794,45388,45388,0,100
Holy Family University,Philadelphia,PA,19114-2009,40.0604,-74.9904,0.7585,933,19,1794,27100,27100,0,100
Albertus Magnus College,New Haven,CT,06511-1189,41.3325,-72.9238,0.6821,830,,1791,28378,28378,0,100
Nyack College,Nyack,NY,10960-3698,41.0864,-73.9311,0.9671,915,20,1786,23250,23250,0,100
Bloomfield College,Bloomfield,NJ,7003,40.7942,-74.1959,0.5464,835,,1785,25880,25880,0,100
Delaware Valley College,Doylestown,PA,18901-2697,40.2976,-75.1582,0.6834,1005,22,1785,32890,32890,0,100
Polytechnic Institute of New York University,Brooklyn,NY,11201,40.6944,-73.9868,0.7523,1303,30,1775,41328,41328,0,100
Oakwood University,Huntsville,AL,35896,34.7566,-86.6616,0.3435,924,20,1767,16234,16234,0,100
Hamilton College,Clinton,NY,13323,43.0478,-75.4089,0.2719,1384,31,1765,46080,46080,0,100
University of Mobile,Mobile,AL,36613-2842,30.7932,-88.1289,0.7125,1058,23,1764,18690,18690,0,100
Lesley University,Cambridge,MA,02138-2790,42.3784,-71.1156,0.6749,1065,24,1763,32375,32375,0,100
Wilkes University,Wilkes-Barre,PA,18766,41.2432,-75.8883,0.7598,1060,,1762,30350,30350,0,100
Oklahoma Christian University,Edmond,OK,73013-1100,35.609,-97.4683,0.6321,1124,25,1752,18800,18800,0,100
Babson College,Wellesley,MA,02457-0310,42.2965,-71.2695,0.2821,1258,28,1751,43520,43520,0,100
Willamette University,Salem,OR,97301,44.9357,-123.0307,0.5784,1198,27,1749,42305,42305,0,100
Lynchburg College,Lynchburg,VA,24501-3113,37.3977,-79.1842,0.6369,1002,22,1748,33565,33565,0,100
Illinois Institute of Technology,Chicago,IL,60616,41.8338,-87.6283,0.5697,1252,28,1736,40117,40117,0,100
Andrews University,Berrien Springs,MI,49104,41.9633,-86.3559,0.3751,1070,23,1736,25470,25470,0,100
Albright College,Reading,PA,19612-5234,40.3602,-75.9102,0.6231,1033,23,1728,36660,36660,0,100
Southern Wesleyan University,Central,SC,29630-1020,34.7281,-82.7616,0.937,916,19,1724,22200,22200,0,100
Ouachita Baptist University,Arkadelphia,AR,71998-0001,34.125,-93.0524,0.7011,1090,24,1714,22370,22370,0,100
Siena Heights University,Adrian,MI,49221,41.906,-84.0151,0.6765,990,21,1713,21890,21890,0,100
Mount Olive College,Mount Olive,NC,28365-0919,35.2063,-78.0713,0.4979,915,19,1713,17300,17300,0,100
George Fox University,Newberg,OR,97132,45.304,-122.9684,0.7528,1070,23,1709,31120,31120,0,100
Lewis & Clark College,Portland,OR,97219-7899,45.4505,-122.6725,0.6285,1279,29,1709,41928,41928,0,100
Mount St Mary's College,Los Angeles,CA,90049-1599,34.0821,-118.4805,0.7409,928,19,1708,33852,33852,0,100
Averett University,Danville,VA,24541,36.5773,-79.4132,0.6329,941,20,1707,27500,27500,0,100
Washington and Lee University,Lexington,VA,24450-2116,37.7878,-79.4457,0.1843,1392,32,1705,44507,44507,0,100
Occidental College,Los Angeles,CA,90041-3392,34.1262,-118.2108,0.4239,1303,29,1703,46652,46652,0,100
Franciscan University of Steubenville,Steubenville,OH,43952-1763,40.3761,-80.6231,0.7607,1163,26,1701,23160,23160,0,100
Amherst College,Amherst,MA,01002-5000,42.3725,-72.5185,0.1428,1434,32,1695,46574,46574,0,100
Mount Saint Mary College,Newburgh,NY,12550,41.5112,-74.0129,0.86,1006,22,1694,26250,26250,0,100
Saint Mary's University of Minnesota,Winona,MN,55987-1399,44.0453,-91.6967,0.7485,1068,23,1693,29315,29315,0,100
Husson University,Bangor,ME,04401-2999,44.8289,-68.7913,0.7989,962,19,1679,15130,15130,0,100
Davidson College,Davidson,NC,28035,35.5,-80.8452,0.2561,1353,31,1679,42849,42849,0,100
Roanoke College,Salem,VA,24153-3794,37.2969,-80.0564,0.7281,1086,24,1677,36597,36597,0,100
Nebraska Wesleyan University,Lincoln,NE,68504-2794,40.8388,-96.6484,0.7689,1109,24,1675,27242,27242,0,100
Wagner College,Staten Island,NY,10301-4495,40.615,-74.0957,0.6988,1154,25,1668,39220,39220,0,100
Gwynedd Mercy University,Gwynedd Valley,PA,19437-0901,40.1976,-75.2381,0.6591,944,19,1641,29450,29450,0,100
Misericordia University,Dallas,PA,18612-1098,41.3448,-75.971,0.6489,1057,23,1640,28210,28210,0,100
Cabrini College,Radnor,PA,19087-3698,40.0546,-75.3722,0.7428,896,20,1633,29000,29000,0,100
Carlow University,Pittsburgh,PA,15213-3165,40.4399,-79.9639,0.9522,946,20,1631,25416,25416,0,100
La Roche College,Pittsburgh,PA,15237-5898,40.5698,-80.012,0.5565,931,21,1627,24778,24778,0,100
Loras College,Dubuque,IA,52004-0178,42.5041,-90.6802,0.6903,1088,24,1626,28852,28852,0,100
Arcadia University,Glenside,PA,19038-3295,40.0919,-75.1652,0.5969,1095,25,1625,36810,36810,0,100
Georgian Court University,Lakewood,NJ,08701-2697,40.0987,-74.2262,0.779,900,,1618,29606,29606,0,100
Muskingum University,New Concord,OH,43762,39.9966,-81.7372,0.7596,983,21,1614,23662,23662,0,100
McDaniel College,Westminster,MD,21157,39.5849,-77.0017,0.7587,1105,24,1610,36960,36960,0,100
Bowdoin College,Brunswick,ME,4011,43.9071,-69.9639,0.1495,1423,32,1609,45446,45446,0,100
Marywood University,Scranton,PA,18509-1598,41.435,-75.634,0.713,1050,,1609,30690,30690,0,100
Wartburg College,Waverly,IA,50677-0903,42.7276,-92.4809,0.7765,1077,24,1600,34250,34250,0,100
Stevens Institute of Technology,Hoboken,NJ,07030-5991,40.7448,-74.0253,0.3816,1305,30,1599,44490,44490,0,100
Kenyon College,Gambier,OH,43022,40.3423,-82.3454,0.3838,1328,30,1599,45640,45640,0,100
Endicott College,Beverly,MA,1915,42.5542,-70.8407,0.7165,1070,23,1596,28926,28926,0,100
Cornerstone University,Grand Rapids,MI,49525-5897,42.979,-85.5956,0.6807,1084,24,1592,24168,24168,0,100
Berea College,Berea,KY,40404-2182,37.5733,-84.2893,0.3401,1113,24,1590,23170,23170,0,100
Maryland Institute College of Art,Baltimore,MD,21217-4134,39.3088,-76.621,0.5803,1175,,1588,40890,40890,0,100
Manhattanville College,Purchase,NY,10577,41.0311,-73.7183,0.7674,1075,,1582,35370,35370,0,100
Rose-Hulman Institute of Technology,Terre Haute,IN,47803-3920,39.4809,-87.3236,0.5622,1310,30,1581,42654,42654,0,100
West Virginia Wesleyan College,Buckhannon,WV,26201-2994,38.9905,-80.2171,0.7696,1021,23,1581,26794,26794,0,100
Walla Walla University,College Place,WA,99324-1198,46.047,-118.3898,0.9286,1072,24,1580,25377,25377,0,100
Johnson C Smith University,Charlotte,NC,28216-5398,35.2434,-80.8548,0.3668,826,17,1576,18236,18236,0,100
Pomona College,Claremont,CA,91711-6319,34.0983,-117.7119,0.1392,1454,33,1574,43580,43580,0,100
Eckerd College,Saint Petersburg,FL,33711-4700,27.719,-82.686,0.7104,1138,26,1572,37362,37362,0,100
Dominican College of Blauvelt,Orangeburg,NY,10962-1210,41.0541,-73.9523,0.7189,899,21,1564,24790,24790,0,100
Elmira College,Elmira,NY,14901,42.0927,-76.8113,0.7978,1060,24,1559,38150,38150,0,100
Newman University,Wichita,KS,67213-2097,37.6723,-97.3788,0.4472,1079,24,1557,23650,23650,0,100
Emmanuel College,Boston,MA,2115,42.3412,-71.103,0.6049,1090,24,1556,34670,34670,0,100
University of the Cumberlands,Williamsburg,KY,40769,36.7365,-84.1624,0.7127,1019,22,1554,20000,20000,0,100
Missouri Valley College,Marshall,MO,65340,39.1087,-93.1902,0.2218,920,20,1549,18300,18300,0,100
Drew University,Madison,NJ,7940,40.757,-74.4258,0.7743,1109,25,1537,44068,44068,0,100
Rhodes College,Memphis,TN,38112-1690,35.1544,-89.9892,0.5764,1288,29,1536,39794,39794,0,100
Bethel College-Indiana,Mishawaka,IN,46545-5591,41.6777,-86.1916,0.7158,1047,24,1534,24970,24970,0,100
Linfield College-McMinnville Campus,McMinnville,OR,97128-6894,45.2013,-123.2005,0.9219,1090,24,1534,36310,36310,0,100
Stillman College,Tuscaloosa,AL,35403,33.1992,-87.5852,0.43,882,19,1530,15901,15901,0,100
Gordon College,Wenham,MA,1984,42.5882,-70.8191,0.4133,1156,26,1528,33230,33230,0,100
Albion College,Albion,MI,49224,42.2446,-84.7461,0.5639,1143,25,1525,36051,36051,0,100
California Baptist University,Riverside,CA,92504-3297,33.9286,-117.4259,0.788,984,21,1524,28122,28122,0,100
Cedar Crest College,Allentown,PA,18104-6196,40.5867,-75.5198,0.588,948,21,1519,33000,33000,0,100
Doane College-Crete,Crete,NE,68333,40.6231,-96.9497,0.7173,1077,24,1517,26180,26180,0,100
Wesley College,Dover,DE,19901-3875,39.1633,-75.5274,0.625,841,20,1513,23590,23590,0,100
Fisher College,Boston,MA,2116,42.3553,-71.0741,0.6273,825,,1513,27575,27575,0,100
Lubbock Christian University,Lubbock,TX,79407-2099,33.5763,-101.9348,0.9489,1010,22,1511,18740,18740,0,100
Campbellsville University,Campbellsville,KY,42718-2799,37.3433,-85.3489,0.6844,985,21,1500,22196,22196,0,100
Mount St Mary's University,Emmitsburg,MD,21727-7799,39.6806,-77.3522,0.6741,1060,20,1500,34644,34644,0,100
The College of Saint Scholastica,Duluth,MN,55811-4199,46.8154,-92.1057,0.7265,1085,24,1499,31612,31612,0,100
Medaille College,Buffalo,NY,14214-2695,42.929,-78.8566,0.5429,865,,1496,23812,23812,0,100
Pratt Institute-Main,Brooklyn,NY,11205,40.6912,-73.9621,0.5572,1140,26,1495,43126,43126,0,100
Franklin Pierce University,Rindge,NH,03461-0060,42.7823,-72.0579,0.8472,975,19,1489,31000,31000,0,100
Evangel University,Springfield,MO,65802,37.221,-93.2626,0.6425,1046,23,1488,20040,20040,0,100
Felician College,Lodi,NJ,7644,40.8673,-74.0965,0.8819,877,19,1484,29990,29990,0,100
Howard Payne University,Brownwood,TX,76801-2794,31.7163,-98.985,0.5382,953,20,1480,23200,23200,0,100
Graceland University-Lamoni,Lamoni,IA,50140,40.616,-93.9249,0.5018,969,21,1477,23530,23530,0,100
Neumann University,Aston,PA,19014-1298,39.8749,-75.4379,0.5531,861,18,1474,24948,24948,0,100
Vanguard University of Southern California,Costa Mesa,CA,92626,33.6627,-117.9009,0.6977,980,23,1470,29250,29250,0,100
Westminster College,New Wilmington,PA,16172,41.1185,-80.3314,0.7336,1040,23,1470,32445,32445,0,100
Brenau University,Gainesville,GA,30501-3668,34.3031,-83.8215,0.7829,957,20,1469,23350,23350,0,100
Pacific Union College,Angwin,CA,94508-9707,38.5741,-122.4496,0.5055,1017,22,1465,27480,27480,0,100
Saint Augustine's University,Raleigh,NC,27610-2298,35.785,-78.6218,0.6738,749,15,1465,17890,17890,0,100
Texas Lutheran University,Seguin,TX,78155-5999,29.5733,-97.9846,0.5087,1041,23,1460,25890,25890,0,100
Saint Mary's College,Notre Dame,IN,46556,41.6167,-86.2898,0.8568,1141,26,1449,34600,34600,0,100
William Jewell College,Liberty,MO,64068-1896,39.2478,-94.4121,0.5778,1146,25,1442,31000,31000,0,100
Freed-Hardeman University,Henderson,TN,38340-2399,35.4401,-88.6394,0.9203,1098,24,1438,20468,20468,0,100
Rivier University,Nashua,NH,3060,42.7383,-71.4555,0.8928,932,19,1435,28055,28055,0,100
Alvernia University,Reading,PA,19607-1799,40.3102,-75.9382,0.7762,976,20,1433,29060,29060,0,100
Hartwick College,Oneonta,NY,13820-4020,42.454,-75.0736,0.8424,1126,25,1431,38930,38930,0,100
Belhaven University,Jackson,MS,39202,32.3184,-90.1692,0.4842,1033,22,1429,19970,19970,0,100
Swarthmore College,Swarthmore,PA,19081,39.9041,-75.3561,0.1432,1442,33,1428,44718,44718,0,100
MCPHS University,Boston,MA,02115-5896,42.337,-71.101,0.8921,1094,24,1427,28470,28470,0,100
Whitman College,Walla Walla,WA,99362,46.0714,-118.3302,0.5696,1327,30,1424,43500,43500,0,100
Rollins College,Winter Park,FL,32789-4499,28.592,-81.3487,0.5889,1199,27,1422,41460,41460,0,100
Virginia Wesleyan College,Norfolk,VA,23502-5599,36.8684,-76.1861,0.9311,1021,21,1421,32482,32482,0,100
Dordt College,Sioux Center,IA,51250-1697,43.084,-96.1663,0.7542,1119,25,1420,26540,26540,0,100
Columbus College of Art and Design,Columbus,OH,43215,39.9658,-82.9885,0.8551,1035,22,1416,30390,30390,0,100
College of the Ozarks,Point Lookout,MO,65726-0017,36.616,-93.2382,0.1301,1050,23,1414,18330,18330,0,100
Saint Francis University,Loretto,PA,15940,40.5028,-78.6385,0.7606,1026,23,1412,29992,29992,0,100
Alma College,Alma,MI,48801-1599,43.3792,-84.6701,0.6791,1100,25,1409,32660,32660,0,100
Houghton College,Houghton,NY,14744,42.4268,-78.1569,0.9108,1113,25,1409,27728,27728,0,100
John Brown University,Siloam Springs,AR,72761,36.1911,-94.5591,0.6982,1144,25,1404,22734,22734,0,100
Walsh University,North Canton,OH,44720-3396,40.8733,-81.3691,0.7713,1047,23,1404,25840,25840,0,100
East Texas Baptist University,Marshall,TX,75670-1498,32.555,-94.3722,0.7362,957,20,1402,22590,22590,0,100
Anderson University,Anderson,SC,29621-4035,34.5155,-82.6402,0.6502,1079,24,1398,22790,22790,0,100
Lycoming College,Williamsport,PA,17701-5192,41.2461,-77.0003,0.7162,1047,24,1396,33746,33746,0,100
Birmingham Southern College,Birmingham,AL,35254,33.5155,-86.8536,0.6422,1177,26,1395,30690,30690,0,100
Mary Baldwin College,Staunton,VA,24401,38.1548,-79.0683,0.8835,959,22,1388,28720,28720,0,100
University of Saint Francis-Fort Wayne,Fort Wayne,IN,46808-3994,41.0878,-85.1737,0.5362,981,21,1385,25180,25180,0,100
Sewanee-The University of the South,Sewanee,TN,37383-1000,35.2044,-85.9178,0.6027,1248,28,1385,35756,35756,0,100
William Penn University,Oskaloosa,IA,52577,41.3089,-92.6483,0.5766,926,20,1384,23210,23210,0,100
Lenoir-Rhyne University,Hickory,NC,28601,35.739,-81.3262,0.6806,976,21,1384,29310,29310,0,100
Dean College,Franklin,MA,02038-1941,42.085,-71.399,0.6835,845,17,1379,33230,33230,0,100
Waynesburg University,Waynesburg,PA,15370-1257,39.8994,-80.1873,0.7523,1015,23,1379,20540,20540,0,100
Grand View University,Des Moines,IA,50316,41.6209,-93.605,0.9542,979,21,1378,22628,22628,0,100
Fontbonne University,Saint Louis,MO,63105-3098,38.6427,-90.3157,0.6524,1070,23,1377,22684,22684,0,100
Tusculum College,Greeneville,TN,37743,36.1726,-82.7617,0.7225,961,21,1377,22250,22250,0,100
Reed College,Portland,OR,97202-8199,45.4804,-122.6306,0.4853,1371,31,1366,46010,46010,0,100
Georgetown College,Georgetown,KY,40324-1696,38.2079,-84.5546,0.8219,1085,24,1365,32310,32310,0,100
Alfred University,Alfred,NY,14802-1205,42.2559,-77.7886,0.698,1106,25,1361,25430,25430,0,100
Bryn Mawr College,Bryn Mawr,PA,19010,40.0285,-75.315,0.3992,1334,30,1358,43900,43900,0,100
Post University,Waterbury,CT,6723,41.5353,-73.0805,0.8302,865,19,1356,20925,20925,0,100
Concordia University-Saint Paul,Saint Paul,MN,55104-5494,44.9498,-93.1549,0.5239,991,21,1355,19700,19700,0,100
Saint Mary-of-the-Woods College,Saint Mary of the Woods,IN,47876-1099,39.5106,-87.4604,0.9754,895,19,1354,27672,27672,0,100
Grinnell College,Grinnell,IA,50112-1690,41.747,-92.7212,0.3506,1357,30,1344,43656,43656,0,100
McMurry University,Abilene,TX,79697,32.4296,-99.7503,0.5924,982,21,1344,24296,24296,0,100
Shenandoah University,Winchester,VA,22601-5195,39.1661,-78.1584,0.8456,1016,23,1339,29934,29934,0,100
Asbury University,Wilmore,KY,40390-1198,37.862,-84.6626,0.6573,1110,24,1338,26076,26076,0,100
College of Saint Elizabeth,Morristown,NJ,07960-6989,40.7811,-74.436,0.4836,855,,1337,31095,31095,0,100
Central College,Pella,IA,50219,41.4002,-92.9187,0.658,1089,24,1336,30700,30700,0,100
Westmont College,Santa Barbara,CA,93108-1089,34.4493,-119.6619,0.7016,1193,27,1323,38510,38510,0,100
Benedictine College,Atchison,KS,66002-1499,39.573,-95.1114,0.6057,1145,25,1323,23900,23900,0,100
Catawba College,Salisbury,NC,28144,35.6924,-80.4866,0.4058,985,,1323,26820,26820,0,100
Kalamazoo College,Kalamazoo,MI,49006-3295,42.2904,-85.6013,0.6689,1240,28,1322,39450,39450,0,100
Santa Fe University of Art and Design,Santa Fe,NM,87505-7634,35.6587,-105.9768,0.9975,998,21,1322,30136,30136,0,100
Aurora University,Aurora,IL,60506-4892,41.7545,-88.3495,0.7595,1011,22,1316,20720,20720,0,100
Southwestern University,Georgetown,TX,78626,30.6352,-97.6646,0.5217,1168,26,1309,35240,35240,0,100
MidAmerica Nazarene University,Olathe,KS,66062-1899,38.8726,-94.7826,0.7223,950,20,1302,22290,22290,0,100
Saint Joseph's College-New York,Brooklyn,NY,11205-3688,40.6905,-73.968,0.7538,1054,23,1300,21878,21878,0,100
Vaughn College of Aeronautics and Technology,Flushing,NY,11369,40.7683,-73.8817,0.7706,989,,1297,20450,20450,0,100
Mount Aloysius College,Cresson,PA,16630-1999,40.4599,-78.6014,0.6876,915,20,1297,20268,20268,0,100
Whittier College,Whittier,CA,90601,33.9776,-118.0284,0.6325,1043,23,1294,40296,40296,0,100
