"id","name","lat","lng"
"AAAP","Anaa","-17.050000","-145.416667"
"AAEA","Annaba","36.821667","7.810000"
"AAHA","Aachen","50.822778","6.187222"
"AALB","Aalborg","57.046893","9.919968"
"AALE","Aalesund Vigra","62.537500","6.105300"
"AANA","Al Ain","24.250000","55.750000"
"AARH","Aarhus","56.157200","10.210700"
"AAXA","Araxa","-19.568056","-46.929167"
"AAYA","Al Ghaydah","16.200000","52.183333"
"ABAK","Abakan","53.716700","91.433300"
"ABCA","Albacete","38.983330","-1.850000"
"ABEA","Allentown","40.654722","-75.438333"
"ABER","Aberdeen","57.148161","-2.109375"
"ABIA","Abilene","32.438055","-99.698194"
"ABJA","Abidjan","5.316667","-4.033333"
"ABKA","Kabri Dar","6.733889","44.266111"
"ABLA","Ambler","67.087500","-157.845833"
"ABMA","Bamaga","-10.866667","142.400000"
"ABQA","Albuquerque","35.110703","-106.609991"
"ABRA","Aberdeen","45.462779","-98.485909"
"ABTA","Al-Baha","20.285556","41.633333"
"ABUS","Abu Simbel","22.366700","31.616700"
"ABVA","Abuja","9.066667","7.483333"
"ABXA","Albury","-36.068333","146.976667"
"ABYA","Albany","31.557777","-84.181389"
"ACAA","Acapulco","16.755556","-99.766944"
"ACCA","Accra","5.595278","-0.170833"
"ACKA","Nantucket","41.256667","-70.059722"
"ACTA","Waco","31.551389","-97.155833"
"ACVA","Arcata","40.866389","-124.082778"
"ACZA","Zabol","31.085833","61.535000"
"ADAN","Adana","36.991036","35.326195"
"ADDA","Addis Ababa","9.030000","38.740000"
"ADEA","Aden","12.801758","45.037079"
"ADFA","Adiyaman","37.750000","38.266667"
"ADLA","Adelaide","-34.948333","138.534722"
"ADLE","Sochi","43.450000","39.933300"
"ADQA","Kodiak","57.781574","-152.417777"
"ADZA","San Andres Island","12.583333","-81.700000"
"AEBA","Baise","23.717200","106.950600"
"AEGI","Aek Godang","1.399722","99.416667"
"AEIA","Algeciras","36.183333","-5.450000"
"AEXA","Alexandria","31.364166","-92.423472"
"AFAA","San Rafael","-34.589167","-68.400556"
"AFLA","Alta Floresta","-9.886111","-56.087222"
"AFSA","Zarafshan","41.584891","64.206848"
"AFTA","Afutara","-9.200000","160.850000"
"AGAD","Agadir","30.420180","-9.598150"
"AGEN","Agen","44.204931","0.621153"
"AGMA","Tasiilaq","65.600000","-37.683333"
"AGNA","Angoon","57.503889","-134.583333"
"AGRO","Agri","39.650000","43.025000"
"AGSA","Augusta","33.470970","-81.974840"
"AGTA","Ciudad del Este","-25.516670","-54.616670"
"AGUA","Aguascalientes","21.876000","-102.296000"
"AHBA","Abha","18.223333","42.507222"
"AHNA","Athens","33.948333","-83.326944"
"AIAA","Alliance","42.101630","-102.872140"
"AITC","Aitutaki","-18.850000","-159.750000"
"AIUC","Atiu Island","-20.016670","-158.116670"
"AIXE","Aix en Provence","43.531127","5.454025"
"AIYA","Atlantic City","39.381111","-74.496851"
"AJAC","Ajaccio","41.926670","8.736940"
"AJUA","Aracaju","-10.916700","-37.050000"
"AKIA","Akiak","60.905556","-161.223333"
"AKLN","Auckland","-36.840417","174.739869"
"AKNA","King Salmon","58.668611","-156.635556"
"AKRB","Akron","41.081788","-81.507453"
"AKUR","Akureyri","65.666670","-18.166670"
"AKXA","Aktyubinsk","50.250000","57.216667"
"AKYM","Sittwe","20.146851","92.898502"
"ALAA","Almaty","43.277500","76.895833"
"ALBA","Albany","42.657697","-73.754654"
"ALBT","Albert","50.003767","2.647705"
"ALDE","Alderney","49.719152","-2.199326"
"ALEX","Alexandria","31.198000","29.919200"
"ALEY","Alexandroupolis Dimokritos","40.850000","25.950000"
"ALGA","Algiers","36.700000","3.216667"
"ALGS","Alghero Sardinia","40.000000","9.000000"
"ALHA","Albany","-35.022800","117.881400"
"ALHO","Al Hoceima","35.250000","-3.933333"
"ALIC","Alicante","38.345278","-0.483056"
"ALME","Almeria","36.833333","-2.450000"
"ALOA","Waterloo","42.492760","-92.342960"
"ALPA","Aleppo","36.180833","37.226667"
"ALSA","Alamosa","37.474313","-105.867004"
"ALTA","Alta","69.966791","23.249817"
"ALTE","Altenburg","50.450000","13.450000"
"ALTF","Altenrhein","47.482800","9.552200"
"ALUL","Al `Ula","26.633330","37.916667"
"AMAA","Amarillo","35.221944","-101.777638"
"AMDE","Amderma","69.766700","61.550000"
"AMHA","Arba Mintch","6.033333","37.550000"
"AMII","Mataram","-8.560000","116.096944"
"AMMA","Amman","31.933333","35.933333"
"AMQI","Ambon","-3.695430","128.181400"
"AMST","Amsterdam","52.373056","4.892222"
"ANAD","Anadyr","64.733333","177.516667"
"ANAP","Anapa","44.900000","37.316700"
"ANCA","Anchorage","61.217685","-149.890000"
"ANCO","Ancona","43.598160","13.510080"
"ANDE","Andenes","69.316667","16.133333"
"ANFA","Antofagasta","-23.650000","-70.400000"
"ANGA","Anglesey","53.258436","-4.311790"
"ANGE","Angers","47.468718","-0.549316"
"ANIA","Aniak","61.566667","-159.533333"
"ANKA","Ankara","39.875000","32.833300"
"ANMA","Antalaha","-14.883333","50.283333"
"ANNE","Annecy","45.916000","6.133000"
"ANTA","Antalya","36.886760","30.703697"
"ANTW","Antwerp","51.219787","4.398308"
"AOEA","Eskisehir","39.000000","30.500000"
"AOOA","Martinsburg","40.297222","-78.320000"
"AORM","Alor Setar","6.191111","100.403889"
"APFA","Naples","26.152778","-81.775278"
"APLA","Nampula","-15.101667","39.287222"
"APNA","Alpena","45.081667","-83.555833"
"APWW","Apia","-13.833333","-171.766667"
"AQJA","Aqaba","29.516667","35.000000"
"AQPA","Arequipa","-16.337778","-71.555000"
"ARAX","Araxos","38.250000","21.733000"
"ARCA","Arctic Village","68.137500","-145.524444"
"ARIA","Arica","-18.483333","-70.333333"
"ARKA","Arusha","-3.366667","36.683333"
"ARKH","Arkhangelsk","64.566700","40.533300"
"ARMA","Armidale","-30.528333","151.623333"
"ARRE","Lanzarote","28.570000","-13.370000"
"ARTA","Watertown","44.000000","-76.000000"
"ARVI","Arvidsjaur","65.575300","19.285600"
"ASBA","Ashgabat","37.981667","58.360833"
"ASDA","Andros Town","24.697778","-77.796111"
"ASEA","Aspen","39.224167","-106.868889"
"ASMA","Asmara","15.291111","38.910278"
"ASOA","Asosa","10.066667","34.516667"
"ASPA","Alice Springs","-23.700000","133.870000"
"ASSI","Assiut","27.194793","31.181946"
"ASTR","Astrakhan","46.350000","48.050000"
"ASTY","Astypalaia","36.566667","26.366667"
"ASUA","Asuncion","-25.282197","-57.635100"
"ASWA","Aswan Daraw","24.083300","32.883300"
"ATCA","Arthur's Town","24.628611","-75.671389"
"ATHE","Athens","37.897916","23.730555"
"ATLA","Atlanta","33.730476","-84.419960"
"ATWA","Appleton","44.258889","-88.521111"
"AUAA","Oranjestad","12.502222","-70.013889"
"AUGA","Augusta","44.318056","-69.796667"
"AUGS","Augsburg","48.366667","10.900000"
"AUHA","Abu Dhabi","24.466667","54.366667"
"AUKA","Alakanuk","62.689167","-164.610833"
"AURI","Aurillac Tronquiere","44.875000","2.416700"
"AUSA","Austin","30.241666","-97.708333"
"AUUA","Aurukun Mission","-13.166667","142.250000"
"AUWA","Wausau","44.950000","-89.633333"
"AUYV","Aneityum","-20.225154","169.772415"
"AVIG","Avignon","43.900000","4.900000"
"AVIL","Asturias","43.556510","-5.926781"
"AVLA","Asheville","35.580000","-82.555833"
"AVPA","Wilkes-Barre","41.244444","-75.878056"
"AWZA","Ahvaz","31.337778","48.759722"
"AXAA","The Valley","18.216667","-63.066667"
"AXMA","Armenia","4.450000","-75.766667"
"AXPA","Spring Point","22.441667","-73.970833"
"AXUA","Axum","14.120833","38.716667"
"AYQA","Ayers Rock","-25.333333","131.050000"
"AZDA","Yazd","31.897778","54.281667"
"AZOA","Kalamazoo","42.236389","-85.553611"
"AZRA","Adrar","27.883333","-0.283333"
"BACA","Bacau","46.521946","26.910278"
"BADA","Badajoz Talaveral","38.878889","-6.966944"
"BADE","Baden-Baden","48.762778","8.240833"
"BAHA","Bahrain","26.270833","50.637500"
"BAIA","Baia Mare","47.650000","23.466667"
"BAKA","Baku","40.395278","49.882222"
"BALI","Balikesir","39.616700","27.933300"
"BANJ","Banja Luka","44.766700","17.183300"
"BAQA","Barranquilla","10.896111","-74.778889"
"BARC","Barcelona","41.383333","2.183333"
"BARD","Bardufoss","69.050000","18.533300"
"BARI","Bari","41.124884","16.872253"
"BARN","Barnaul","53.366700","83.750000"
"BARR","Barra","57.012702","-7.425385"
"BASA","Balalae","-6.983333","155.883333"
"BASE","Basel","47.566667","7.600000"
"BAST","Bastia - Corsica","42.700830","9.450280"
"BATM","Batman","37.866700","41.116700"
"BAUA","Bauru","-22.343056","-49.052500"
"BAZA","Barbelos","-0.966944","-62.933611"
"BBAA","Balmaceda","-45.916389","-71.686944"
"BBNM","Bario","3.683333","115.466667"
"BBOA","Berbera","10.389167","44.940833"
"BCAA","Baracoa","20.364722","-74.506667"
"BCEA","Bryce","37.701111","-112.135278"
"BCIA","Barcaldine","-23.559167","145.301944"
"BDAA","Hamilton","32.557639","-64.845000"
"BDBA","Bundaberg","-24.905833","152.320833"
"BDHA","Bandar Lengeh","26.550000","54.883333"
"BDPA","Bhadrapur","26.533333","88.083333"
"BEIR","Beirut","33.887200","35.513400"
"BELA","Belem","-1.450000","-48.483333"
"BELF","Belfast","54.635000","-6.054027"
"BELH","Belgorod","50.633300","36.650000"
"BELI","Belgrade","44.833300","20.500000"
"BENA","Benghazi","32.116667","20.066667"
"BENB","Benbecula","57.441254","-7.303162"
"BERG","Bergerac","44.859276","0.483055"
"BERI","Bergen","60.389444","5.330000"
"BERL","Berlin","52.500556","13.398889"
"BERM","Berlevag","70.858187","29.085789"
"BERN","Bern","46.950000","7.450000"
"BETA","Bethel","60.792222","-161.790694"
"BEUA","Bedourie","-24.350000","139.466667"
"BEWA","Beira","-19.794444","34.911944"
"BEXI","Beziers","43.347615","3.218991"
"BFDA","Bradford","41.959167","-78.644722"
"BFFA","Scottsbluff","41.875278","-103.601111"
"BFLA","Bakersfield","35.430000","-119.052222"
"BFNA","Bloemfontein","-29.100000","26.216667"
"BFQA","Bahia Pinas","7.583333","-78.166667"
"BFVT","Buri Ram","15.226944","103.255278"
"BFWA","Sidi Belabbes","35.171667","-0.589444"
"BGAA","Bucaramanga","7.107222","-73.128056"
"BGFA","Bangui","4.397778","18.519722"
"BGIA","Bridgetown","13.094700","-59.617500"
"BGMA","Binghamton","42.102222","-75.911667"
"BGRA","Bangor","44.807778","-68.827778"
"BGWA","Baghdad","33.261111","44.362500"
"BHEN","Blenheim","-41.516667","173.872222"
"BHGA","Brus Laguna","15.734722","-84.543333"
"BHHA","Bisha","19.984183","42.623269"
"BHIA","Bahia Blanca","-38.716667","-62.266667"
"BHKA","Bukhara","39.766667","64.483333"
"BHMA","Birmingham","33.520660","-86.802490"
"BHQA","Broken Hill","-32.001667","141.466667"
"BHRA","Bharatpur","27.676389","84.432500"
"BHSA","Bathurst","-33.409167","149.653333"
"BHVA","Bahawalpur","29.400000","71.683333"
"BHZA","Belo Horizonte","-19.920830","-43.937780"
"BIAR","Biarritz","43.481667","-1.556111"
"BICA","Big Creek","58.300000","-157.516667"
"BIDA","Block Island","41.166667","-71.579167"
"BIKI","Biak","-1.191944","136.110000"
"BILA","Billings","45.806944","-108.542778"
"BILB","Bilbao","43.160000","-2.560000"
"BILL","Billund","55.730833","9.115278"
"BIMA","Bimini","25.737500","-79.266666"
"BIRA","Biratnagar","26.434722","87.283333"
"BIRM","Birmingham","52.493651","-1.894455"
"BISA","Bismarck","46.808330","-100.783740"
"BJAA","Bejaia","36.750000","5.083333"
"BJBA","Bojnord","37.488333","57.305556"
"BJIA","Bemidji","47.509722","-94.934722"
"BJLA","Banjul","13.350000","-16.666667"
"BJMA","Bujumbura","-3.383333","29.366667"
"BJRA","Bahar Dar","11.583333","37.316667"
"BJSA","Beijing","39.913889","116.391667"
"BJTA","Bentota River","6.483333","79.983333"
"BJXS","Silao","20.940920","-101.431274"
"BKIM","Kota Kinabalu","5.940833","116.050000"
"BKKT","Bangkok","13.689689","100.742483"
"BKOA","Bamako","12.652231","-8.001394"
"BKWA","Beckley","37.781944","-81.124167"
"BLAA","Barcelona","10.109722","-64.687500"
"BLAC","Blackpool","53.771944","-3.036111"
"BLIA","Bellingham","48.794444","-122.534722"
"BLJA","Batna","35.566667","6.183333"
"BLZA","Blantyre","-15.786111","35.005833"
"BMEA","Broome","-17.966670","122.233330"
"BMGA","Bloomington","39.165320","-86.526390"
"BMIA","Bloomington-Normal","40.481944","-88.927500"
"BMOM","Bhamo","24.273889","97.251667"
"BMWA","Bordj Badji Mokhtar","21.316667","1.033333"
"BNAA","Nashville","36.165890","-86.784440"
"BNCA","Beni","0.566667","29.466667"
"BNEA","Brisbane","-27.425000","153.085556"
"BNIA","Benin City","6.341232","5.633583"
"BNKA","Ballina","-28.833333","153.550000"
"BNSA","Barinas","8.618056","-70.221111"
"BOBP","Bora Bora","-16.443056","-151.748333"
"BOCA","Bocas Del Toro","9.340000","-82.251389"
"BODO","Bodo","67.305556","14.549167"
"BODR","Bodrum","37.033333","27.433333"
"BODS","Bodrum Imsik","37.131900","27.667200"
"BOGA","Bogota","4.598056","-74.075833"
"BOIA","Boise","43.565278","-116.225000"
"BOLL","Bol","43.261940","16.655000"
"BOLO","Bologna","44.362917","11.680555"
"BOLZ","Bolzano","46.450000","11.316700"
"BONA","Bonaire","12.134167","-68.273333"
"BORD","Bordeaux","44.500000","0.360000"
"BORL","Borlange Dala","60.490380","15.430298"
"BOSA","Boston","42.354444","-71.027361"
"BOUR","Bournemouth","50.726676","-1.877975"
"BOXA","Borroloola","-16.066667","136.283333"
"BOYA","Bobo Dioulasso","11.163611","-4.324444"
"BPNI","Balikpapan","-1.267222","116.893889"
"BPSA","Porto Seguro","-16.533333","-39.083333"
"BPTA","Beaumont","30.041666","-94.050000"
"BQNA","Aguadilla","18.495833","-67.130000"
"BQTA","Brest","52.133333","23.666667"
"BRAA","Barreiras","-12.073056","-45.008333"
"BRAS","Bratislava","48.166667","17.216667"
"BRAT","Bratsk","56.116667","101.600000"
"BRAU","Braunschweig","52.266667","10.516667"
"BRCA","San Carlos DeBariloche","-41.150000","-71.300000"
"BREM","Bremen","53.075833","8.807500"
"BRES","Brest","48.390834","-4.485556"
"BRIN","Brindisi","40.627730","17.936820"
"BRIS","Bristol","51.461708","-2.593803"
"BRLA","Burlington","40.810691","-91.119232"
"BRMA","Barquisimeto","10.063611","-69.334722"
"BRNO","Brno","49.191128","16.609955"
"BROA","Brownsville","25.901750","-97.497480"
"BRON","Bronnoysund Bronnoy","65.474299","12.208214"
"BRUS","Brussels","50.850174","4.364319"
"BRWA","Barrow","71.283333","-156.768055"
"BSAA","Bossaso","11.283333","49.150000"
"BSBA","Brasilia","-15.860556","-47.915278"
"BSCA","Bahia Solano","6.202778","-77.394444"
"BSGA","Bata","1.905278","9.805556"
"BSKA","Biskra","34.793333","5.738056"
"BSOP","Basco","20.453056","121.977778"
"BSRA","Basra","30.555556","47.791389"
"BSXM","Bassein","16.800000","94.783333"
"BTIA","Barter Island","70.134065","-143.625984"
"BTJI","Banda Aceh","5.516944","95.420000"
"BTMA","Butte","46.006389","-112.529722"
"BTRA","Baton Rouge","30.490833","-91.166944"
"BTUM","Bintulu","3.175000","113.043056"
"BTVA","Burlington","44.477891","-73.214607"
"BUCA","Burketown","-17.750000","139.533333"
"BUCH","Bucharest","44.434270","26.108322"
"BUDA","Budapest","47.300000","19.030000"
"BUEA","Buenos Aires","-34.603333","-58.381667"
"BUFA","Buffalo","42.886027","-78.879776"
"BUGU","Bugulma","54.616700","52.816700"
"BULP","Bulolo","-7.189722","146.647778"
"BUQA","Bulawayo","-20.170000","28.580000"
"BURA","Burbank","34.200000","-118.357778"
"BURG","Bourgas","42.500000","27.466667"
"BUSA","Batumi","41.610833","41.600556"
"BUXA","Bunia","1.566670","30.250000"
"BVBA","Boa Vista","2.833333","-60.666667"
"BVCA","Boa Vista","16.136667","-22.888889"
"BVIA","Birdsville","-25.898333","139.343333"
"BWIA","Baltimore","39.254630","-76.611018"
"BWNA","Bandar Seri Begawan","4.925000","114.927778"
"BWTA","Burnie","-41.063611","145.891944"
"BYCA","Yacuiba","-21.949720","-63.649720"
"BYDG","Bydgoszcz","53.123084","17.992859"
"BYOA","Bonito","-21.229444","-56.456111"
"BZEA","Belize City","17.483333","-88.183333"
"BZNA","Bozeman","45.677778","-111.047222"
"BZVA","Brazzaville","-4.265830","15.283180"
"BZZA","Brize Norton","51.766140","-1.566238"
"CAAT","Altay","43.933333","89.500000"
"CABA","Cabinda","-5.583333","12.200000"
"CACA","Cascavel","-24.950000","-53.466667"
"CACX","Xingyi","25.085556","104.959444"
"CAEA","Columbia","34.000710","-81.034810"
"CAEN","Caen","49.183056","-0.369444"
"CAGL","Cagliari","39.217093","9.109726"
"CAHV","Ca Mau","9.175556","105.179444"
"CAIR","Cairo","30.053643","31.227264"
"CAJA","Canaima","6.241586","-62.855873"
"CALV","Calvi","42.568611","8.756944"
"CAMP","Campbeltown","55.441111","-5.709444"
"CANN","Cannes","43.548460","6.983350"
"CAPA","Cap Haitien","19.733333","-72.200000"
"CAPR","Capri","40.550730","14.242630"
"CAQG","Anqing","30.516667","117.033333"
"CARC","Carcassonne","43.213060","2.352028"
"CARD","Cardiff","51.486942","-3.180542"
"CASA","Casablanca","33.533333","-7.583333"
"CAST","Castletown","54.074372","-4.654422"
"CASU","Castres Mazamet","43.544200","2.285600"
"CATA","Catania","37.503189","15.087662"
"CAVA","An Shun","26.257222","105.872778"
"CAYA","Cayenne","4.922700","-52.326900"
"CBAV","Baotou","40.650833","109.841944"
"CBBA","Cochabamba","-17.428333","-66.171667"
"CBGA","Cambridge","52.200000","0.116670"
"CBHY","Beihai","21.483333","109.083333"
"CBIA","Cape Barren Island","-40.402000","147.991000"
"CBOP","Cotabato","7.166670","124.216390"
"CBQA","Calabar","4.975556","8.348056"
"CBRA","Canberra","-35.308889","149.195000"
"CBSD","Baoshan","25.150000","99.150000"
"CBTA","Catumbela","-12.483333","13.483333"
"CCAN","Guangzhou","23.183333","113.266111"
"CCCA","Cayo Coco","22.512500","-78.508333"
"CCGD","Changde","29.066667","111.583333"
"CCGO","Zhengzhou","34.800000","113.650000"
"CCGQ","Changchun","43.883333","125.316667"
"CCHG","Chaoyang","42.000000","121.000000"
"CCIF","Chifeng","42.283333","118.933333"
"CCIH","Changzhi","36.183333","113.133333"
"CCKG","Chongqing","29.558333","106.566667"
"CCNA","Chakcharan","34.533333","65.266667"
"CCPA","Concepcion","-36.768333","-73.060000"
"CCSA","Caracas","10.500000","-66.916667"
"CCSX","Changsha","28.186667","113.221667"
"CCTU","Chengdu","30.659722","104.063333"
"CCVV","Craig Cove","-16.181046","167.474899"
"CCZX","Changzhou","31.700000","119.966667"
"CDAT","Datong","30.800000","117.733333"
"CDAX","Daxian","31.300000","107.500000"
"CDCA","Cedar City","37.702500","-113.096111"
"CDDG","Dandong","40.116667","124.383333"
"CDJA","Conceicao Do Araguaia","-8.233333","-49.283333"
"CDLC","Dalian","38.912220","121.602220"
"CDLU","Dali City","25.666667","100.316667"
"CDOY","Dongying","37.518333","118.787778"
"CDVA","Cordova","60.521528","-145.610000"
"CEBP","Cebu","10.331667","123.906667"
"CECA","Crescent City","41.780000","-124.235833"
"CEDA","Ceduna","-32.131667","133.705833"
"CEGA","Chester","53.178056","-2.977778"
"CEIT","Chiang Rai","19.886389","99.830556"
"CEMA","Central","65.574722","-144.781944"
"CENA","Ciudad Obregon","27.493889","-109.938889"
"CENH","Enshi","30.283333","109.483333"
"CERW","Chernovtsy","48.266700","25.966700"
"CEUT","Ceuta","35.899167","-5.338333"
"CFBA","Cabo Frio","-22.925000","-42.078611"
"CFGA","Cienfuegos","22.149722","-80.414444"
"CFKA","Chlef","36.212222","1.331667"
"CFOA","Confreza","-10.633333","-51.566667"
"CFOC","Fuzhou","26.100000","119.283333"
"CFSA","Coffs Harbour","-30.321667","153.120833"
"CFUG","Fuyang","32.866667","115.700000"
"CFUO","Fuoshan","29.183820","105.001140"
"CGBA","Cuiaba","-15.650000","-56.116667"
"CGIA","Cape Girardeau","37.309167","-89.546389"
"CGKI","Jakarta","-6.192083","106.768194"
"CGPA","Chittagong","22.257500","91.825556"
"CGRA","Campo Grande","-20.463333","-54.672500"
"CGYP","Cagayan De Oro","8.416111","124.610556"
"CHAA","Chattanooga","35.045556","-85.267222"
"CHAK","Haikou","20.045830","110.341670"
"CHAM","Chambery","45.565025","5.899658"
"CHAT","Chateauroux","46.816700","1.700000"
"CHCN","Christchurch","-43.488333","172.533333"
"CHEB","Cheboksary","56.133300","47.266700"
"CHEL","Chelyabinsk","55.154722","61.375833"
"CHET","Hohhot","40.816667","111.650000"
"CHFE","Hefei","31.850000","117.283333"
"CHGH","Hangzhou","30.250000","120.166667"
"CHIA","Chicago","41.881944","-87.627778"
"CHIO","Chios","38.345000","26.141000"
"CHIT","Chita","52.050000","113.466667"
"CHLH","Ulanhot","46.033333","122.000000"
"CHOA","Charlottesville","38.029900","-78.479000"
"CHRB","Harbin","45.750000","126.666667"
"CHSA","Charleston","32.776570","-79.930920"
"CHXA","Changuinola","9.450000","-82.450000"
"CHYA","Choiseul Bay","-6.973116","156.706238"
"CHYN","Huangyan","28.652031","121.262283"
"CIDA","Cedar Rapids","41.983056","-91.668611"
"CINC","Yinchuan","38.466667","106.266667"
"CIWA","Canouan Island","12.698889","-61.342222"
"CJJA","Cheongju","36.635642","127.483292"
"CJSA","Ciudad Juarez","31.739444","-106.486944"
"CJUA","Jeju","33.511916","126.522846"
"CJZH","Song Pan","32.639410","103.596830"
"CKCA","Kuqa","41.728000","82.936000"
"CKDA","Crooked Creek","61.870833","-158.100833"
"CKHG","Kashi","39.466667","75.983333"
"CKHN","Nanchang","28.683333","115.883333"
"CKMG","Kunming","25.041667","102.705000"
"CKOW","Ganzhou","25.850000","114.950000"
"CKRL","Korla","41.733333","86.150000"
"CKWE","Guiyang","26.583060","106.716390"
"CKWL","Guilin","25.281940","110.286390"
"CKXA","Chicken","64.067778","-141.949167"
"CKYA","Conakry","9.576389","-13.610833"
"CLCX","Longyan","25.675556","116.745556"
"CLEA","Cleveland","41.493796","-81.671759"
"CLER","Clermont-Ferrand","45.783088","3.082352"
"CLHW","Lanzhou","36.061111","103.800000"
"CLJG","Lijiang City","26.683333","100.250000"
"CLLA","College Station","30.589444","-96.364444"
"CLLF","LingLing","26.203502","111.627960"
"CLMA","Port Angeles","48.133101","-123.427277"
"CLOA","Cali","3.420556","-76.522222"
"CLTA","Charlotte","35.217917","-80.892916"
"CLUJ","Cluj-Napoca","46.783300","23.683300"
"CLUM","Luxi","24.450000","98.600000"
"CLWA","Clearwater","27.965850","-82.800100"
"CLXA","Lhasa","29.647482","91.126099"
"CLYA","Luoyang","34.683333","112.466667"
"CLYG","Lianyungang","34.600000","119.166667"
"CMAA","Cunnamulla","-28.031389","145.616111"
"CMBA","Colombo","6.997222","79.886111"
"CMEA","Ciudad Del Carmen","18.650000","-91.800000"
"CMGA","Corumba","-19.008889","-57.652778"
"CMHA","Columbus","39.964907","-83.002222"
"CMIA","Champaign","40.112981","-88.261227"
"CMUP","Kundiawa","-5.993889","144.974444"
"CMWA","Camaguey","21.420278","-77.847222"
"CMXA","Hancock","47.126870","-88.580960"
"CNGB","Ningbo","29.866667","121.516667"
"CNJA","Cloncurry","-20.666667","140.500000"
"CNKG","Nanking / Nanjing","31.995278","118.811667"
"CNMA","Carlsbad","32.337222","-104.262778"
"CNNG","Nanning","22.816667","108.316667"
"CNSA","Cairns","-16.916670","145.766670"
"CNTG","Nantong","32.066667","120.966667"
"CNXT","Chiang Mai","18.771944","98.968333"
"CNYA","Moab","38.572500","-109.549722"
"CODA","Cody / Yellowstone","44.515833","-109.027500"
"COLO","Cologne","50.948911","6.959839"
"CONS","Constanta Kogalniceanu","44.150000","28.600000"
"COOA","Cotonou","6.354167","2.385556"
"COPE","Copenhagen","55.676111","12.568333"
"CORA","Cordoba","-31.313056","-64.199444"
"CORD","Cordoba","37.887860","-4.781799"
"CORF","Corfu","39.620000","19.919720"
"CORK","Cork","51.570000","-8.400000"
"CORT","Crotone","39.050000","17.080000"
"CORV","Corvo Island","39.700000","-31.100000"
"COSA","Colorado Springs","38.825185","-104.741944"
"COUA","Columbia","38.964748","-92.324982"
"CPCA","San Martin DeLos Andes","-40.166667","-71.350000"
"CPQA","Campinas","-22.907171","-47.061996"
"CPRA","Casper","42.834722","-106.325000"
"CPTA","Cape Town","-33.925278","18.423889"
"CPVA","Campina Grande","-7.266667","-35.900000"
"CPVG","Shanghai","31.150000","121.783333"
"CQDA","Shahre-Kord","32.297222","50.842222"
"CQMA","Ciudad Real","38.983334","-3.916667"
"CRAI","Craiova","44.333333","23.816667"
"CRCA","Cartago","4.766667","-75.933333"
"CRDA","Comodoro Rivadavia","-45.787222","-67.462778"
"CRET","Crete","35.327870","25.143410"
"CRIA","Crooked Island","22.750000","-74.150000"
"CRKP","Angeles","15.150000","120.583333"
"CRPA","Corpus Christi","27.751388","-97.380208"
"CRWA","Charleston","38.353234","-81.635628"
"CSGA","Columbus","32.483333","-84.991666"
"CSHA","Shanghai","31.240105","121.469994"
"CSHB","Solovetsky","65.030000","35.733333"
"CSHE","Shenyang","41.816667","123.500000"
"CSJW","Shijiazhuang","38.050000","114.466667"
"CSKA","Cap Skirring","12.388889","-16.741667"
"CSLA","San Luis Obispo","35.236667","-120.639167"
"CSOA","Cochstedt","51.850000","11.416667"
"CSWA","Shantou","23.368140","116.714790"
"CSYX","Sanya","18.300000","109.400000"
"CSZX","Shenzhen","22.550000","114.100000"
"CTAO","Qingdao","36.100000","120.316667"
"CTCA","Catamarca","-28.448333","-65.779722"
"CTEN","Tongren","27.717000","109.185000"
"CTGA","Cartagena","10.446667","-75.510833"
"CTMA","Chetumal","18.501424","-88.298836"
"CTSN","Tianjin","39.133333","117.183333"
"CTXN","Tunxi","29.733333","118.300000"
"CTYN","Taiyuan","37.869444","112.560278"
"CUCA","Cucuta","7.930000","-72.509444"
"CULA","Culiacan","24.764444","-107.474167"
"CUNA","Cancun","21.160556","-86.847500"
"CUNE","Cuneo","44.388654","7.544861"
"CURA","Curacao","12.194167","-68.960556"
"CURC","Urumqi","43.900000","87.483333"
"CUUA","Chihuahua","28.652500","-106.094444"
"CUYN","Yulin","38.290560","109.749440"
"CUZA","Cuzco","-13.529444","-71.959722"
"CVGA","Cincinnati","39.133333","-84.500000"
"CVJA","Cuernavaca","18.916667","-99.250000"
"CVMA","Ciudad Victoria","23.733333","-99.133333"
"CVNA","Clovis","34.405555","-103.197778"
"CWBA","Curitiba","-25.416667","-49.250000"
"CWEF","Weifang","36.716667","119.100000"
"CWEH","Weihai","37.500000","122.083333"
"CWNZ","Wenzhou","27.950000","120.633333"
"CWUH","Wuhan","30.572500","114.279167"
"CWUS","Wuyishan","27.716667","117.966667"
"CWUX","Wuxi","31.583333","120.316667"
"CXBA","Cox's Bazar","21.449758","91.964808"
"CXFN","Xiangfan","32.017000","112.133000"
"CXIA","Christmas Island","1.991167","-157.358667"
"CXJA","Caxias Do Sul","-29.196944","-51.187500"
"CXMN","Xiamen","24.466667","118.116667"
"CXNN","Xining","36.550000","101.750000"
"CYBA","Cayman Brac Is","19.686667","-79.882778"
"CYHY","Hay River","60.815292","-115.785599"
"CYNJ","Yanji","42.900000","129.500000"
"CYNT","Yantai","37.550000","121.333333"
"CYNZ","Yancheng","33.385556","120.125278"
"CYOA","Cayo Largo Del Sur","21.619722","-81.553333"
"CYPP","Calbayog","12.075833","124.543056"
"CYSA","Cheyenne","41.144583","-104.816667"
"CZHA","Zhanjiang","21.253542","110.363159"
"CZLA","Constantine","36.286667","6.621667"
"CZMA","Cozumel","20.510641","-86.945457"
"CZSA","Cruzeiro Do Sul","-7.630833","-72.670000"
"CZUH","Zhuhai","22.250000","113.500000"
"DABA","Daytona Beach","29.210912","-81.028290"
"DACA","Dhaka","23.780556","90.386111"
"DADV","Da Nang","16.067780","108.220830"
"DAKH","Dakhla","23.733300","-15.916700"
"DALA","Dalaman","36.766667","28.800000"
"DAMA","Damascus","33.513000","36.292000"
"DARA","Dar Es Salaam","-6.875278","39.201944"
"DAYA","Dayton","39.758950","-84.191610"
"DBOA","Dubbo","-32.219167","148.577500"
"DDCA","Dodge City","37.752800","-100.017080"
"DEAA","Dera Ghazi Khan","30.050000","70.633333"
"DEAU","Deauville St. Gatien","49.366700","0.166700"
"DEBR","Debrecen","47.466700","21.483300"
"DENA","Denver","39.739167","-104.984722"
"DENI","Denizli Cardak","37.777228","29.076691"
"DERR","Derry","55.000000","-7.200000"
"DEZA","Deirezzor","35.333333","40.150000"
"DFWA","Dallas","32.783060","-96.806670"
"DGOA","Durango","24.016667","-104.666667"
"DHIA","Dhangarhi","28.707301","80.598965"
"DHNA","Dothan","31.223230","-85.390490"
"DIEP","Dieppe","49.933300","1.083300"
"DIJO","Dijon","47.290600","5.042800"
"DIKA","Dickinson","46.879180","-102.789620"
"DILA","Dili","-8.533300","125.577200"
"DINA","Dinard","48.633333","-2.060278"
"DINV","Dien Bien Phu","21.411283","103.036308"
"DIRA","Dire Dawa","9.622222","41.850833"
"DIYA","Diyarbakir","37.915763","40.235023"
"DJER","Djerba","33.500000","10.480000"
"DJGA","Djanet","24.465278","9.488889"
"DKRA","Dakar","14.740833","-17.490556"
"DLAA","Douala","4.050000","9.700000"
"DLGA","Dillingham","59.046667","-158.508611"
"DLHA","Duluth","46.812916","-92.145139"
"DLYV","Dillons Bay","-18.700000","169.150000"
"DMMA","Dammam","26.425830","50.114170"
"DNEP","Dnepropetrovsk","48.450000","34.983300"
"DODA","Dodoma","-6.170358","35.749433"
"DOHA","Doha","25.256944","51.566389"
"DOLE","Dole Tavaux","47.044167","5.412778"
"DOMA","Dominica","15.521528","-61.321250"
"DONC","Doncaster","53.482918","-1.010237"
"DONE","Donegal","54.654769","-8.110657"
"DONF","Donetsk","48.083300","37.750000"
"DORT","Dortmund","51.516660","7.466667"
"DPLP","Dipolog","8.600000","123.350000"
"DPOA","Devonport","-41.170833","146.425000"
"DPSI","Bali (Denpasar)","-8.650000","115.216667"
"DQAA","Daqing","46.590000","125.020000"
"DRAB","Drake Bay","83.650000","8.730000"
"DRBA","Derby","-17.390000","123.680000"
"DRES","Dresden","51.033333","13.733333"
"DROA","Durango","37.275278","-107.880000"
"DRTA","Del Rio","29.362730","-100.896760"
"DRWA","Darwin","-12.416667","130.872222"
"DSKA","Dera Ismail Khan","31.916667","70.900000"
"DSMA","Des Moines","41.533889","-93.656667"
"DTTA","Detroit","42.331389","-83.045833"
"DUBL","Dublin","53.220000","-6.210000"
"DUBR","Dubrovnik","42.400000","18.070000"
"DUDN","Dunedin","-45.866667","170.500000"
"DUND","Dundee","56.462490","-2.968369"
"DURA","Durban","-29.885278","31.029166"
"DUSS","Dusseldorf","51.233333","6.783333"
"DUTA","Dutch Harbor","53.901111","-166.535833"
"DVOP","Davao","7.131667","125.649444"
"DXBA","Dubai","25.250000","55.357778"
"DYUA","Dushanbe","38.550000","68.823611"
"DZNA","Zhezkazgan","47.778559","67.703934"
"EAEV","Emae","-17.069585","168.379211"
"EAMA","Nejran","17.491667","44.132222"
"EARA","Kearney","40.728333","-98.998889"
"EAUA","Eau Claire","44.864444","-91.487222"
"EBBA","Entebbe","0.042500","32.438056"
"EBDA","El Obeid","13.159167","30.248611"
"EBLA","Erbil","36.237500","43.963056"
"EDAA","Edna Bay","55.950000","-133.666667"
"EDIN","Edinburgh","55.948431","-3.194275"
"EDLA","Eldoret","0.516667","35.283333"
"EDOA","Edremit / Korfez","39.583333","27.033333"
"EGEA","Vail","39.640260","-106.374200"
"EGIL","Egilsstadir","65.277000","-14.402000"
"EGNA","Geneina","13.487500","22.469444"
"EIND","Eindhoven","51.438100","5.475200"
"EISA","Beef Island","18.416670","-64.583330"
"EKAT","Ekaterinburg","56.850000","60.600000"
"EKOA","Elko","40.823889","-115.789722"
"ELAT","Elat","29.559721","34.959869"
"ELAZ","Elazig","39.275321","38.633080"
"ELBA","Elba Island","42.747769","10.233765"
"ELHA","North Eleuthera","25.475556","-76.681111"
"ELMA","Elmira","42.085278","-76.809167"
"ELPA","El Paso","31.775555","-106.440972"
"ELQA","Qassim","26.348806","43.968658"
"ELSA","East London","-33.000000","28.000000"
"EMKA","Emmonak","62.776944","-164.520833"
"ENCA","Nancy","48.692222","6.226111"
"ENEI","Ende","-8.848889","121.661944"
"ENIP","El Nido","11.214438","119.460526"
"ENON","Enontekio","68.350000","23.416700"
"ENUA","Enugu","6.474167","7.561944"
"EOIA","Eday","59.183333","-2.783333"
"EPRA","Esperance","-33.861000","121.892000"
"EQSA","Esquel","-42.900000","-71.316667"
"ERCA","Ercan","35.150000","33.483300"
"ERFU","Erfurt","50.983330","11.033333"
"ERIA","Erie","42.080000","-80.178611"
"ERNA","Eirunepe","-6.583333","-69.883333"
"ERRA","Errachidia","31.933517","-4.421997"
"ERZI","Erzincan","39.750000","39.500000"
"ERZU","Erzurum","39.905259","41.276321"
"ESBJ","Esbjerg","55.483333","8.450000"
"ESDA","Eastsound","48.708333","-122.912500"
"ESKI","Eskisehir","39.783300","30.583300"
"ESSA","Essaouira","31.533333","-9.700000"
"EUGA","Eugene","44.052070","-123.086750"
"EUXA","St Eustatius","17.491667","-62.975556"
"EVEN","Evenes","68.526727","16.998596"
"EVNA","Yerevan","40.183333","44.516667"
"EVVA","Evansville","37.974760","-87.555850"
"EWBA","Fall River","41.698056","-71.146944"
"EWNA","New Bern","35.112326","-77.045403"
"EXET","Exeter","50.721677","-3.535538"
"EXIA","Excursion Inlet","58.420833","-135.447222"
"EYPA","El Yopal","5.350000","-72.383333"
"EYWA","Key West","24.553055","-81.779861"
"FACP","Faaite","-16.683333","-145.333333"
"FAIA","Fairbanks","64.835666","-147.772000"
"FARA","Fargo","46.877190","-96.789800"
"FARO","Faro","37.019370","-7.932230"
"FATA","Fresno","36.752222","-119.748472"
"FAYA","Fayetteville","35.052660","-78.878360"
"FBEA","Francisco Beltrao","-26.083333","-53.066667"
"FCAA","Kalispell","48.197778","-114.316111"
"FDFA","Fort De France","14.589722","-61.006111"
"FENA","Fernando De Noronha","-3.850278","-32.416944"
"FEZS","Fes","34.046401","-4.996719"
"FIGA","Figari","41.488520","9.129639"
"FIHA","Kinshasa","-4.354027","15.380833"
"FINK","Finkenwerder","53.533166","9.861946"
"FKLA","Franklin","41.379167","-79.859722"
"FKQI","Fak Fak","-2.883060","132.250000"
"FLAA","Florencia","1.590278","-75.563889"
"FLLA","Fort Lauderdale","26.070417","-80.150833"
"FLNA","Florianopolis","-27.670278","-48.552222"
"FLOA","Florence","34.188889","-79.724444"
"FLOR","Florence","43.783333","11.250000"
"FLOT","Floro","61.599444","5.032778"
"FMNA","Farmington","36.741111","-108.229167"
"FMYA","Fort Myers","26.559750","-81.810917"
"FNAA","Freetown","8.498425","-13.197314"
"FNJA","Pyongyang","39.019444","125.738056"
"FNLA","Fort Collins","40.565981","-105.080109"
"FNTA","Flint","43.010000","-83.690000"
"FODA","Fort Dodge","42.552500","-94.189722"
"FOGG","Foggia Gino Lisa","41.416700","15.533300"
"FORA","Fortaleza","-3.776667","-38.534444"
"FORD","Forde","61.451568","5.833740"
"FPOA","Freeport","26.555278","-78.700000"
"FRAN","Frankfurt","50.114414","8.670959"
"FRIE","Friedrichshafen","47.654167","9.479167"
"FRSA","Flores","16.916667","-89.883333"
"FRUA","Bishkek","42.870177","74.591331"
"FRWA","Francistown","-21.160556","27.482222"
"FSDA","Sioux Falls","43.553276","-96.700630"
"FSMA","Fort Smith","35.336111","-94.370000"
"FTEA","El Calafate","-50.333333","-72.283333"
"FTUA","Fort Dauphin","-25.033060","46.950000"
"FUER","Fuerteventura","28.333333","-14.016667"
"FUNA","Funafuti","-8.516667","179.208333"
"FUNC","Madeira","32.633330","-16.900000"
"FUTA","Futuna Island","-14.290335","-178.120308"
"FWAA","Fort Wayne","41.080450","-85.139150"
"FYVA","Fayetteville","36.140833","-94.153333"
"FZOA","Filton","51.519444","-2.590833"
"GADA","Gdansk","54.354556","18.644485"
"GALA","Galena","64.736389","-156.931667"
"GALL","Gallivare","67.143298","20.657043"
"GALW","Galway","53.277532","-9.067841"
"GANA","Gan Island","-0.683333","73.166667"
"GAOA","Guantanamo","20.123889","-75.195694"
"GAZI","Gaziantep","37.059440","37.382500"
"GBEA","Gaborone","-24.550000","25.916667"
"GCMA","Grand Cayman Island","19.285140","-81.366291"
"GCNA","Grand Canyon","36.053333","-112.139444"
"GDEA","Gode / Iddidole","5.902222","43.628333"
"GDLA","Guadalajara","20.666714","-103.350342"
"GDQA","Gondar","12.533060","37.433060"
"GDTA","Grand Turk Is","21.466667","-71.133333"
"GEGA","Spokane","47.650092","-117.445740"
"GELA","Santo Angelo","-28.281667","-54.168889"
"GELE","Gelendzik","44.566700","38.016700"
"GENE","Geneva","46.200000","6.150000"
"GENO","Genoa","44.418088","8.933258"
"GEOA","Georgetown","6.500000","-58.250000"
"GERA","Nueva Gerona","21.838333","-82.779167"
"GERO","Gerona","41.984440","2.821111"
"GESP","General Santos","6.109444","125.234722"
"GETA","Geraldton","-28.779000","114.607000"
"GFFA","Griffith","-34.250833","146.065833"
"GFKA","Grand Forks","48.000000","-97.000000"
"GGGA","Gladewater","32.542778","-94.946944"
"GGTA","George Town","23.500000","-75.766390"
"GGWA","Glasgow","48.212778","-106.615556"
"GIBR","Gibraltar","36.144806","-5.353775"
"GISN","Gisborne","-38.659722","177.972222"
"GJAA","Guanaja","16.445000","-85.905833"
"GJTA","Grand Junction","39.118611","-108.513889"
"GLAS","Glasgow","55.870881","-4.258232"
"GLHA","Greenville","33.415968","-91.055374"
"GLKA","Galcaio","6.766667","47.433333"
"GLOA","Gloucester","51.894111","-2.167108"
"GLTA","Gladstone","-23.833333","151.254167"
"GMEA","Gomel","52.416667","31.000000"
"GMRP","Gambier Is","-23.166667","-135.000000"
"GNAA","Grodna","53.666667","23.800000"
"GNDA","St. George","12.150000","-61.616667"
"GNVA","Gainesville","29.654344","-82.331543"
"GOHA","Nuuk","64.181944","-51.725000"
"GOTH","Gothenburg","57.714418","11.962738"
"GOUL","Goulimime","28.983517","-10.060730"
"GPSA","Galapagos Is","-0.434722","-90.282778"
"GPTA","Gulfport","30.367420","-89.092820"
"GRAC","Graciosa Island","39.051718","-28.007584"
"GRAN","Gran Canaria","28.150000","-15.416667"
"GRAO","Granada","37.176184","-3.580170"
"GRAZ","Graz","47.070278","15.438889"
"GRBA","Green Bay","44.488056","-88.130556"
"GREN","Grenoble","45.200160","5.722240"
"GRIA","Grand Island","40.922222","-98.358056"
"GRIM","Grimsey","66.540000","-18.000000"
"GRJA","George","-33.966667","22.450000"
"GRON","Groningen","53.216667","6.550000"
"GROZ","Grozny","43.333300","45.700000"
"GRPA","Gurupi","-11.728889","-49.068889"
"GRRA","Grand Rapids","42.961250","-85.655719"
"GRUM","Grumeti","-2.266712","34.849319"
"GSMA","Qeshm","26.948333","56.277500"
"GSOA","Greensboro / High Point","36.074771","-79.791298"
"GSPA","Greenville","34.851666","-82.314444"
"GSTA","Gustavus","58.422083","-135.719166"
"GTAA","Gatokae","-8.766667","158.183333"
"GTEA","Groote Eylandt","-13.848330","136.419170"
"GTFA","Great Falls","47.492778","-111.325138"
"GUAA","Guatemala City","14.581944","-90.527500"
"GUER","Guernsey","49.452057","-2.574921"
"GUMA","Barrigada / Tamuning","13.465139","144.767916"
"GUWA","Atyrau","47.116667","51.900000"
"GVRA","Governador Valadares","-18.850278","-41.933333"
"GWDA","Gwadar","25.126389","62.322500"
"GYAA","Guayaramerin","-10.816670","-65.349720"
"GYEA","Guayaquil","-2.154444","-79.875556"
"GYMA","Guaymas","27.918333","-110.898889"
"GYNA","Goiania","-16.629881","-49.226614"
"GZPA","Gazipasa","36.299300","32.301400"
"HAGF","Hagfors","60.015800","13.569200"
"HALM","Halmstad","56.683300","12.816700"
"HAMB","Hamburg","53.565278","10.001389"
"HAMM","Hammerfest","70.664460","23.681889"
"HANN","Hannover","52.370520","9.733220"
"HANV","Hanoi","21.060152","105.843658"
"HARA","Harrisburg","40.273700","-76.884420"
"HAUG","Haugesund","59.446389","5.298333"
"HAVA","Havana","23.000000","-82.000000"
"HBAA","Hobart","-42.880556","147.325000"
"HDDA","Hyderabad","25.317917","68.366278"
"HDNA","Hayden","40.483333","-107.216667"
"HDSA","Hoedspruit","-24.366670","31.033060"
"HDYT","Hat Yai (Songkhla)","7.016667","100.466667"
"HEAA","Herat","34.341944","62.203056"
"HELG","Helgoland","54.183300","7.916700"
"HELS","Helsinki","60.170833","24.937500"
"HELT","Helsingborg","56.050000","12.716667"
"HEMA","Hemavan","65.833333","15.083333"
"HERI","Heringsdorf","54.180000","11.010000"
"HFDA","Hartford","41.763710","-72.685090"
"HGAA","Hargeisa","9.518056","44.088611"
"HGDA","Hughenden","-20.818889","144.224444"
"HGNT","Mae Hong Son","19.300000","97.966667"
"HGRA","Hagerstown","39.707778","-77.730000"
"HHHA","Hilton Head","32.216667","-80.683333"
"HIRA","Honiara","-9.433330","159.950000"
"HISA","Hayman Island","-20.056420","148.885690"
"HJJA","Huai Hua","27.532629","109.953918"
"HKGA","Hong Kong","22.317361","114.058333"
"HKKN","Hokitika","-42.716111","170.986667"
"HKTT","Phuket","8.110556","98.312500"
"HLAA","Lanseria","-25.939810","27.934890"
"HLMA","Holland","42.783333","-86.116667"
"HLNA","Helena","46.598978","-112.037888"
"HLTA","Hamilton","-37.733333","142.016667"
"HLZN","Hamilton","-37.866389","175.335278"
"HMAA","Khanty-Mansiysk","61.000000","69.000000"
"HMEA","Hassi Messaoud","31.673889","6.140556"
"HMOA","Hermosillo","29.096389","-111.046111"
"HNLA","Honolulu","21.321250","-157.894167"
"HNMA","Hana","20.762214","-155.986977"
"HODA","Hodeidah","14.747222","42.982778"
"HOFA","Alahsa","25.500000","49.833333"
"HOFF","Hof","50.316670","11.916670"
"HOGA","Holguin","20.888611","-76.257222"
"HOIP","Hao Island","-18.064167","-140.956944"
"HONA","Huron","44.383611","-98.226389"
"HONN","Honningsvag Valan","70.983300","25.833300"
"HORT","Horta","38.541318","-28.627453"
"HOUA","Houston","29.763280","-95.363270"
"HPHV","Haiphong","20.850000","106.683333"
"HPNA","Westchester County","41.038990","-73.747630"
"HREA","Harare","-17.863889","31.029722"
"HRLA","Harlingen","26.233333","-97.650000"
"HSKA","Huesca","42.134895","-0.411987"
"HSVA","Huntsville","34.730370","-86.586100"
"HTIA","Hamilton Island","-20.350000","148.966667"
"HTSA","Ashland","38.478410","-82.637940"
"HTYA","Antakya","36.200000","36.150000"
"HUHP","Huahine","-16.726139","-151.007595"
"HUIV","Hue","16.466667","107.600000"
"HUMB","Humberside","53.325952","0.280151"
"HURG","Hurghada","27.204564","33.809052"
"HUXA","Huatulco","15.850000","-96.333333"
"HVBA","Hervey Bay","-25.000000","153.000000"
"HVNA","New Haven","41.308150","-72.928160"
"HYGA","Hydaburg","55.206667","-132.826667"
"HYSA","Hays","38.846111","-99.274167"
"HZHA","Liping City","26.231110","109.131390"
"IAGA","Niagara Falls","43.100000","-78.950000"
"IAGR","Agra","27.158333","77.962778"
"IAJL","Aizawl","23.750000","92.750000"
"IAMD","Ahmedabad","23.066389","72.624167"
"IANA","Kiana","66.971667","-160.430278"
"IASI","Iasi","47.183300","27.600000"
"IATQ","Amritsar","31.706944","74.797222"
"IBBI","Bhubaneswar","20.243611","85.820000"
"IBDQ","Vadodara","22.336111","73.226111"
"IBHJ","Bhuj","23.287500","69.670556"
"IBHO","Bhopal","23.284722","77.338611"
"IBHU","Bhavnagar","21.753611","72.191111"
"IBIZ","Ibiza","38.980000","1.430000"
"IBLR","Bangalore","12.949722","77.668056"
"IBOM","Mumbai","19.088056","72.851667"
"IBRA","Omitama","36.181667","140.414720"
"ICCJ","Kozhikode","11.250000","75.766670"
"ICCU","Kolkata","22.569720","88.369720"
"ICIF","Cicia","-17.750000","-179.333333"
"ICJB","Coimbatore","11.028889","77.043056"
"ICOK","Kochi","9.944444","76.271944"
"ICTA","Wichita","37.679243","-97.342791"
"IDAA","Idaho Falls","43.516111","-112.064722"
"IDED","Dehra Dun","30.316667","78.033333"
"IDEL","Delhi","28.573611","77.100833"
"IDHM","Dharamsala","32.300000","76.266667"
"IDIB","Dibrugarh","27.483333","94.900000"
"IDMU","Dimapur","25.883889","93.773611"
"IFNA","Isfahan","32.750000","51.850000"
"IGAR","Igarka","67.475448","86.572266"
"IGAU","Guwahati","26.186170","91.750950"
"IGOI","Goa","15.374167","73.825833"
"IGOP","Gorakhpur","27.000000","83.175000"
"IGRA","Iguazu","-25.566667","-54.566667"
"IGUA","Iguassu Falls","-25.600000","-54.483333"
"IHBX","Hubli","15.333333","75.233333"
"IHJR","Khajuraho","24.819444","79.919167"
"IHRA","Iran Shahr","27.216670","60.716670"
"IHYD","Hyderabad","17.450000","78.462500"
"IIDR","Indore","22.722778","75.806389"
"IISK","Nasik","19.962500","73.806944"
"IIXA","Agartala","23.890000","91.242222"
"IIXB","Bagdogra","26.683333","88.333333"
"IIXC","Chandigarh","30.673333","76.788333"
"IIXE","Mangalore","12.960556","74.890833"
"IIXG","Belgaum","15.857500","74.618611"
"IIXJ","Jammu","32.689722","74.838056"
"IIXL","Leh","34.166667","77.583333"
"IIXM","Madurai","9.833611","78.089444"
"IIXR","Ranchi","23.313611","85.323333"
"IIXY","Kandla","23.112500","70.100278"
"IIXZ","Port Blair","11.645556","92.733056"
"IJAI","Jaipur","26.821667","75.806111"
"IJDH","Jodhpur","26.260556","73.047778"
"IJLR","Jabalpur","22.666667","79.925000"
"IKAA","Imam Khomeini","35.694390","51.421510"
"IKAR","Ikaria","37.666667","26.333333"
"IKUU","Kulu","31.983333","77.100000"
"ILEA","Killeen","31.106574","-97.702222"
"ILKO","Lucknow","26.761667","80.885278"
"ILMA","Wilmington","34.266944","-77.903889"
"ILTU","Latur","18.411944","76.465000"
"IMAA","Chennai","13.000000","80.000000"
"IMPA","Imperatriz","-5.530556","-47.458333"
"IMYQ","Mysore","12.300000","76.650000"
"INAG","Nagpur","21.091111","79.049722"
"INDA","Indianapolis","39.790942","-86.147685"
"INLA","International Falls","48.563056","-93.404167"
"INNS","Innsbruck","47.266667","11.383333"
"INTB","Winston-Salem","36.094609","-80.241737"
"INUA","Nauru Island","-0.533333","166.916667"
"INVE","Inverness","57.471700","-4.225400"
"IOAN","Ioannina","39.700000","20.816700"
"IOSA","Ilheus","-14.814722","-39.033611"
"IPAT","Patna","25.590556","85.090000"
"IPBD","Porbandar","21.649444","69.656389"
"IPCA","Easter Island","-27.116667","-109.366667"
"IPGH","Pantnagar","29.033056","79.473611"
"IPHM","Ipoh","4.566944","101.095833"
"IPLA","Imperial","32.837222","-115.574722"
"IPNQ","Pune","18.581944","73.919444"
"IQQA","Iquique","-20.216667","-70.150000"
"IQTA","Iquitos","-3.750000","-73.200000"
"IRAA","Kirakira","-10.450000","161.916667"
"IRGA","Lockhart River","-12.786273","143.343172"
"IRIA","Iringa","-7.770000","35.690000"
"IRKA","Kirksville","40.193611","-92.579444"
"IRKU","Irkutsk","52.312222","104.295833"
"IRPR","Raipur","21.180278","81.738611"
"IRZN","Santa Isabel do Rio Negro","-0.413889","-65.018889"
"ISAA","Mount Isa","-20.663889","139.488611"
"ISAF","Isafjordur","66.075490","-23.124000"
"ISBA","Islamabad","33.721480","73.043290"
"ISHL","Shillong","25.566667","91.883333"
"ISLA","Islay","55.734843","-6.181183"
"ISPA","Islip","40.756667","-73.198889"
"ISSE","Sholapur","17.633333","75.933333"
"ISTA","Istanbul","41.012240","28.976018"
"ISTV","Surat","21.166670","72.833330"
"ISUA","Sulaymaniyah","35.553457","45.451813"
"ISXR","Srinagar","34.083330","74.816670"
"ISXV","Salem","11.650000","78.166667"
"ITAA","Itacoatiara","-3.133333","-58.416667"
"ITBA","Itaituba","-4.283333","-55.983333"
"ITCR","Tuticorin","8.766670","78.100000"
"ITEZ","Tezpur","26.710833","92.796111"
"ITHA","Ithaca","42.490278","-76.458056"
"ITOA","Hilo","19.723611","-155.058056"
"ITRV","Thiruvananthapuram","8.479722","76.919722"
"ITRZ","Tiruchirapalli","10.764167","78.716111"
"IUDR","Udaipur","24.571170","73.691830"
"IVAL","Ivalo","68.600000","27.416700"
"IVAN","Ivano-Frankovsk","48.916667","24.716667"
"IVCN","Invercargill","-46.412180","168.355865"
"IVGA","Vijayawada","16.526389","80.798333"
"IVNS","Varanasi","25.333330","83.000000"
"IVTZ","Visakhapatnam","17.716667","83.216667"
"IZMI","Izmir","38.422000","27.129000"
"JACA","Jackson","43.479930","-110.762430"
"JAKJ","Asahikawa","43.766667","142.366667"
"JANA","Jackson","32.300483","-90.184364"
"JAOJ","Aomori","40.826800","140.743790"
"JASJ","Amami O Shima","28.376900","129.493790"
"JAVA","Ilulissat","69.233060","-51.066390"
"JAXA","Jacksonville","30.337621","-81.655884"
"JBRA","Jonesboro","35.830000","-90.648333"
"JCKA","Julia Creek","-20.583333","141.700000"
"JDFA","Juiz De Fora","-21.793056","-43.385556"
"JDOA","Juazeiro Do Norte","-7.200000","-39.316667"
"JEDA","Jeddah","21.543333","39.172778"
"JEGA","Aasiaat","68.709810","-52.869880"
"JERE","Jerez","36.686041","-6.137924"
"JERS","Jersey","49.110000","-2.700000"
"JERU","Jerusalem","31.866700","35.216700"
"JFKS","Fukushima","37.766667","140.466667"
"JFRA","Paamiut","62.000000","-49.666390"
"JFUK","Fukuoka","33.582222","130.453333"
"JGAJ","Yamagata","38.240560","140.363330"
"JHBM","Johor Bahru","1.483333","103.733333"
"JHIJ","Hiroshima","34.398056","132.475806"
"JHKD","Hakodate","41.768889","140.819722"
"JHMA","Kapalua","20.996667","-156.653056"
"JHSA","Sisimiut","66.916670","-53.666390"
"JHSG","Saga","33.266667","130.300000"
"JIBA","Djibouti","11.546667","43.158889"
"JINA","Jinan","36.666667","116.983333"
"JISG","Ishigaki","24.344444","124.186944"
"JKCZ","Kochi","33.544564","133.671450"
"JKIJ","Niigata","37.916111","139.036389"
"JKKJ","Kita Kyushu","33.853310","130.841331"
"JKLA","Kalymnos","36.983333","26.983333"
"JKMI","Miyazaki","31.877128","131.448447"
"JKMJ","Kumamoto","32.783333","130.733333"
"JKMQ","Komatsu","36.393889","136.416944"
"JKOJ","Kagoshima","31.600000","130.550000"
"JLNA","Joplin","37.149722","-94.497778"
"JMSA","Jamestown","46.912223","-98.707438"
"JMSJ","Misawa","40.705211","141.371942"
"JMYJ","Matsuyama","33.827256","132.699633"
"JNBA","Johannesburg","-26.204444","28.045556"
"JNGO","Nagoya","35.150000","136.920000"
"JNGS","Nagasaki","32.783333","129.866667"
"JNNA","Nanortalik","60.134167","-45.233611"
"JNUA","Juneau","58.301944","-134.419722"
"JOEN","Joensuu","62.600000","29.750000"
"JOGI","Yogyakarta","-7.786606","110.431872"
"JOKA","Okinawa","26.334167","127.805556"
"JOKI","Oki Island","36.181083","133.324811"
"JOKJ","Okayama","34.586667","133.936111"
"JONK","Jonkoping Axamo","57.766700","14.083300"
"JOSA","Jos","9.868056","8.893056"
"JPAA","Joao Pessoa","-7.083333","-34.833333"
"JQAA","Qaarsut","70.731944","-52.702778"
"JRIS","Rishiri","45.242006","141.187608"
"JROA","Kilimanjaro","-3.333330","37.150000"
"JSDJ","Sendai","38.266667","140.866667"
"JSHM","Shirahama","33.662311","135.364528"
"JTAK","Takamatsu","34.290278","134.073056"
"JTKS","Tokushima","34.133014","134.605875"
"JTOY","Toyama","36.648344","137.187503"
"JTSJ","Tsushima","34.285000","129.330556"
"JUBA","Juba","4.872222","31.593056"
"JUBJ","Ube","33.928800","131.276456"
"JUKB","Kobe","34.750000","135.166667"
"JUVA","Upernavik","72.785278","-56.150833"
"JWKJ","Wakkanai","45.404097","141.800781"
"JYVA","Jyvaskyla","62.233300","25.733300"
"KAAA","Kasama","-10.216670","31.133060"
"KACA","Kameshli","37.058191","41.240616"
"KADA","Kaduna","10.595833","7.440278"
"KAJA","Kajaani","64.283300","27.683300"
"KALA","Kalamata","37.028390","22.107325"
"KALI","Kaliningrad","54.711136","20.507011"
"KALM","Kalmar","56.683300","16.283300"
"KANA","Kano","12.049167","8.525000"
"KARL","Karlstad","59.377288","13.503571"
"KARN","Karlovy Vary","50.200000","12.916667"
"KARP","Karpathos","35.416000","27.150000"
"KARS","Kars","40.548300","43.085800"
"KARU","Karup","56.300000","9.116700"
"KASO","Kasos Island","35.411900","26.916700"
"KATN","Kaitaia","-35.069444","173.283333"
"KATO","Katowice","50.150000","18.590000"
"KATU","Katugastota","7.326288","80.616560"
"KAUN","Kaunas","54.896947","23.891144"
"KAVA","Kavala","40.979380","24.462433"
"KAWM","Kawthaung","10.050000","98.516667"
"KAYS","Kayseri","38.730786","35.478287"
"KAZA","Kazan","55.800000","49.000000"
"KAZI","North Halmahera (Kau)","1.166667","127.866667"
"KBCA","Birch Creek","66.266667","-145.800000"
"KBLA","Kabul","34.563889","69.213889"
"KBRM","Kota Bharu","6.166389","102.294167"
"KBVT","Krabi","8.059167","98.918889"
"KCHM","Kuching","1.484722","110.340278"
"KCMA","Kahramanmaras","37.534444","36.950556"
"KDHA","Kandahar","31.616944","65.716944"
"KDLA","Kardla","58.997778","22.749167"
"KDMA","Kaadedhdhoo","-0.600000","73.083330"
"KDOA","Kadhdhoo","1.995675","73.532867"
"KDUA","Skardu","35.300000","75.616667"
"KEFA","Kefalonia","38.191784","20.481262"
"KEHA","Kenmore Air Harbor","47.755000","-122.258056"
"KEME","Kemerovo","55.333300","86.083300"
"KEMI","Kemi / Tornio","65.783300","24.583300"
"KEPA","Nepalganj","28.132500","81.576389"
"KERA","Kerman","30.274444","56.951111"
"KERR","Kerry","52.700000","-9.350000"
"KETM","Keng Tung","21.300000","99.616390"
"KFPA","False Pass","54.849167","-163.409167"
"KGFA","Karaganda","49.833333","73.166667"
"KGIA","Kalgoorlie","-30.789444","121.461667"
"KGJA","Karonga","-9.957778","33.892222"
"KGLA","Kigali","-2.000000","30.000000"
"KHAB","Khabarovsk Novy","48.509326","135.098877"
"KHAR","Kharkov","50.000000","36.250000"
"KHHT","Kaohsiung","22.572500","120.345278"
"KHIA","Karachi","24.905556","67.156944"
"KHKA","Khark Island","29.261667","50.323611"
"KIEL","Kiel","54.325278","10.140556"
"KIEV","Kiev","50.450000","30.523333"
"KIHA","Kish Island","26.526667","53.981667"
"KIMA","Kimberley","-28.805833","24.766389"
"KINA","Kingston","17.969166","-76.778472"
"KIRQ","Kirov","58.596650","49.660070"
"KIRU","Kiruna","67.855361","20.223083"
"KISA","Kisumu","-0.095787","34.761772"
"KITH","Kithira","36.150000","22.983300"
"KIVA","Chisinau","47.010700","28.868700"
"KKCT","Khon Kaen","16.465000","102.786667"
"KKEN","Kerikeri","-35.216667","173.950000"
"KLAG","Klagenfurt","46.616667","14.300000"
"KLOP","Kalibo","11.681111","122.377778"
"KMAP","Kerema","-7.963357","145.780334"
"KMCA","King Khalid Mil. City","27.977424","45.545197"
"KMEA","Kamembe","-2.462222","28.907778"
"KMOA","Manokotak","58.984444","-159.035833"
"KMSA","Kumasi","6.712500","-1.591111"
"KNOC","Knock","53.480000","-8.550000"
"KNXA","Kununurra","-15.778056","128.707500"
"KOAA","Kona","19.640560","-155.995560"
"KOEA","Kupang","-10.166670","123.583330"
"KOKK","Kokkola / Pietarsaari Kruunupyy","63.833300","23.150000"
"KOMS","Komsomolsk Na Amure","50.566667","137.000000"
"KONY","Konya","37.866667","32.483333"
"KOPT","Nakhon Phanom","17.416670","104.783060"
"KOSI","Kosice","48.666667","21.250000"
"KOSS","Kos","36.500000","27.150000"
"KPOA","Pohang","35.988333","129.420000"
"KPVA","Perryville","55.906667","-159.145000"
"KRAK","Krakow","50.055375","19.926453"
"KRAM","Kramfors","62.932892","17.785835"
"KRAS","Krasnoyarsk","56.001453","92.883911"
"KRAT","Krasnodar","45.066700","38.950000"
"KRGA","Karasabai","4.016667","-59.516667"
"KRIS","Kristianstad","56.022948","14.150391"
"KRIT","Kristiansund","63.116700","7.850000"
"KRIV","Krivoy Rog","47.916667","33.250000"
"KRSA","Kristiansand","58.143170","7.998734"
"KRTA","Khartoum","15.584722","32.556944"
"KSAA","Kosrae","5.350000","162.975000"
"KSMA","Saint Marys","62.061667","-163.298056"
"KSNA","Kostanay","53.200000","63.550000"
"KSQA","Karshi","38.800000","65.766667"
"KTAA","Karratha","-20.712222","116.773333"
"KTBA","Thorne Bay","55.688333","-132.535000"
"KTLA","Kitale","1.016670","35.000000"
"KTMA","Kathmandu","27.697222","85.357778"
"KTSA","Teller Mission","65.334720","-166.489170"
"KUAM","Kuantan","3.775444","103.210750"
"KUDM","Kudat","6.832352","116.727676"
"KULM","Kuala Lumpur","3.135700","101.688000"
"KULU","Kulusuk Island","65.575300","-37.183510"
"KUOP","Kuopio","62.892500","27.678333"
"KURE","Kuressaare","58.216667","22.500000"
"KUTA","Kutaisi","42.250000","42.700000"
"KUUS","Kuusamo","65.966700","29.333300"
"KVGP","Kavieng","-2.577778","150.815556"
"KWIA","Kuwait","29.369722","47.978333"
"KWJA","Gwangju","35.166667","126.916667"
"KWMA","Kowanyama","-15.487500","141.748333"
"KZOA","Kzyl-Orda","44.856356","65.516281"
"LAAY","Laayoune Hassan I","27.157226","-13.200417"
"LACO","La Coruna","43.371116","-8.412781"
"LADA","Luanda","-8.855492","13.233911"
"LAGO","La Gomera Tenerife","28.100000","-17.100000"
"LAHR","Lahr","48.333300","7.866700"
"LAKE","Lakselv","70.045442","24.970551"
"LAMP","Lampedusa","35.310000","12.370000"
"LANA","Lansing","42.779167","-84.588333"
"LANN","Lannion","48.733330","-3.466670"
"LAOP","Laoag","18.183333","120.533333"
"LAPA","La Palma","28.682757","-17.764893"
"LAPB","La Paz","24.140000","-110.320000"
"LAPP","Lappeenranta","61.050000","28.150000"
"LARA","Laramie","41.313611","-105.673056"
"LARN","Larnaca","34.916667","33.633333"
"LARO","La Rochelle","46.159122","-1.151654"
"LASA","Las Vegas","36.176000","-115.137000"
"LAUA","Lamu","-2.266670","40.833060"
"LAWA","Lawton","34.569722","-98.416111"
"LAXA","Los Angeles","34.047889","-118.235027"
"LBBA","Lubbock","33.622777","-101.836389"
"LBDA","Khudzhand","40.288954","69.623108"
"LBFA","North Platte","41.128333","-100.696667"
"LBJI","Labuan Bajo","-8.486111","119.889167"
"LBPM","Long Banga","3.200000","115.400000"
"LBVA","Libreville","0.459167","9.415278"
"LCEA","La Ceiba","15.741667","-86.856111"
"LCHA","Lake Charles","30.131111","-93.225556"
"LDBA","Londrina","-23.330278","-51.136667"
"LDGA","Leshukonskoye","64.900000","45.750000"
"LDHA","Lord Howe Island","-31.537500","159.079722"
"LDNA","Lamidanda","27.250000","86.716667"
"LEAA","Learmonth","-22.235000","114.081667"
"LEBA","Lebanon","43.628056","-72.305833"
"LEED","Leeds","53.799029","-1.557312"
"LEHA","Le Havre Octeville","49.533300","0.083300"
"LEIP","Leipzig","51.333333","12.383333"
"LEKN","Leknes","68.133333","13.600000"
"LEMA","Le Mans","48.011975","0.186768"
"LEMN","Lemnos","39.916700","25.250000"
"LEON","Leon","42.584444","-5.650833"
"LEPU","Le Puy Loudes","45.083300","3.766700"
"LEQA","Lands End","50.073227","-5.697784"
"LERO","Leros","37.183300","26.800000"
"LETA","Leticia","-4.190000","-69.940833"
"LETO","Le Touquet Paris Plag","50.516700","1.616700"
"LEXA","Lexington","38.045928","-84.501343"
"LFTA","Lafayette","30.213889","-92.029444"
"LFWA","Lome","6.162500","1.254167"
"LGBA","Long Beach","33.817500","-118.151111"
"LGIA","Long Island","23.178889","-75.093333"
"LGKM","Langkawi","6.326559","99.854393"
"LGPP","Legaspi","13.156944","123.730278"
"LGQA","Lago Agrio","0.092222","-76.869167"
"LHEA","Lahore","31.520833","74.402778"
"LIEG","Liege","50.640534","5.570755"
"LIHA","Kauai Island","22.148616","-159.312057"
"LILL","Lille","50.632500","3.058300"
"LIMA","Lima","-12.043333","-77.028333"
"LIMO","Limoges","45.835300","1.262500"
"LINK","Linkoping","58.400000","15.516700"
"LINZ","Linz","48.190000","14.180000"
"LIPE","Lipetsk","52.616700","39.600000"
"LIRA","Liberia","10.633333","-85.433333"
"LISB","Lisbon","38.728376","-9.125519"
"LITA","Little Rock","34.729167","-92.234444"
"LIVE","Liverpool","53.416489","-2.979355"
"LJUB","Ljubljana","46.055556","14.508333"
"LKHM","Long Akah","3.316670","114.783330"
"LLEI","Lleida","41.616667","0.633333"
"LLWA","Lilongwe","-13.983333","33.783333"
"LMAA","Lake Minchumina","63.883333","-152.316667"
"LMMA","Los Mochis","25.816667","-108.983333"
"LMTA","Klamath Falls","42.163056","-121.735833"
"LNKA","Lincoln","40.800000","-96.666960"
"LNVP","Lihir Island","-3.063382","152.641640"
"LNYA","Lanai City","20.784722","-156.949444"
"LODV","Longana","-15.316667","167.966667"
"LODZ","Lodz","51.721944","19.398333"
"LOET","Loei","17.449720","101.733060"
"LOGR","Logrono","42.465000","-2.445556"
"LOHA","Loja","-4.000000","-79.216667"
"LOKA","Lodwar","3.116670","35.616390"
"LOND","London","51.577222","-0.143555"
"LOOA","Laghouat","33.766670","2.933060"
"LORI","Lorient","47.750405","-3.370743"
"LOSA","Lagos","6.453056","3.395833"
"LOUR","Lourdes","43.060000","0.020000"
"LPBA","La Paz","-16.506944","-68.201389"
"LPQL","Luang Prabang","19.883060","102.133060"
"LPTT","Lampang","18.272778","99.506667"
"LQMA","Puerto Leguizamo","-0.193889","-74.780556"
"LRDA","Laredo","27.544722","-99.461111"
"LRMA","La Romana","18.416667","-68.900000"
"LRRA","Lar","27.673056","54.387222"
"LSCA","La Serena","-29.916389","-71.199444"
"LSEA","La Crosse","43.877222","-91.256389"
"LSHM","Lashio","22.966667","97.750000"
"LSPA","Las Piedras","11.721111","-70.188889"
"LSTA","Launceston","-41.441944","147.145000"
"LSWI","Lhoksumawe","5.166667","97.166667"
"LSYA","Lismore","-28.833333","153.266667"
"LTKA","Latakia","35.516667","35.783333"
"LUAA","Lukla","27.683333","86.733333"
"LUGA","Lugano","46.003401","8.954201"
"LUGB","Lugansk","48.566700","39.333300"
"LULA","Laurel","31.694050","-89.130610"
"LULE","Lulea Kallax","65.585720","22.153244"
"LUNA","Lusaka","-15.416667","28.283333"
"LUQA","Luqa","35.900000","14.516667"
"LURA","Cape Lisburne","68.875833","-166.106944"
"LUVI","Langgur","-5.666667","132.716667"
"LUXE","Luxembourg","49.611667","6.130000"
"LUXO","Luxor","25.683333","32.650000"
"LVIA","Livingstone","-17.818889","25.818611"
"LVOV","Lviv","49.839311","24.023666"
"LVPA","Lavan","26.810278","53.356111"
"LWNA","Gyoumri","40.716667","43.833333"
"LWSA","Lewiston","46.406144","-117.000275"
"LYBA","Little Cayman","19.666667","-80.083333"
"LYCK","Lycksele Hedlunda","64.600000","18.666700"
"LYHA","Lynchburg","37.403672","-79.170205"
"LYON","Lyon","45.766565","4.836044"
"LYPA","Faisalabad","31.416670","73.083330"
"LYXA","Lydd","50.954101","0.906715"
"LZYA","Lin Zhi","29.621900","94.388600"
"MAAS","Maastricht","50.851242","5.690736"
"MADR","Madrid","40.400000","-3.683333"
"MAFA","Midland","31.970416","-102.100694"
"MAGA","Magadan","59.566667","150.800000"
"MAGN","Magnitogorsk","53.450000","59.066700"
"MAGP","Madang","-5.207083","145.788700"
"MAJA","Majuro","7.064981","171.272031"
"MAKA","Malakal","9.550000","31.649720"
"MAKH","Makhachkala","42.966700","47.500000"
"MALA","Malaga","36.716667","-4.416667"
"MALB","Malatya","38.350180","38.316670"
"MALM","Malmo","55.583333","13.033333"
"MANC","Manchester","53.466667","-2.233333"
"MANN","Mannheim","49.488889","8.469167"
"MAOA","Manaus","-3.100000","-60.016667"
"MAQT","Mae Sot (Tak)","16.666667","98.583333"
"MARA","Lamezia Terme","38.978628","16.317101"
"MARB","Maracaibo","10.654000","-71.640000"
"MARD","Mardin","37.316667","40.737778"
"MARI","Maribor","46.556972","15.650024"
"MARJ","Mariehamn","60.116700","19.900000"
"MARL","Mariupol","47.100000","37.550000"
"MARR","Marrakech Menara","31.637306","-8.018303"
"MARS","Marseille","43.296386","5.369954"
"MART","Marsa Allam","25.066667","34.900000"
"MAUP","Maupiti","-16.444153","-152.234201"
"MBAA","Mombasa","-4.050000","39.666667"
"MBJA","Montego Bay","18.501944","-77.912500"
"MBLA","Manistee","44.273889","-86.253333"
"MBSA","Midland","43.622407","-84.243164"
"MCEA","Merced","37.292361","-120.498055"
"MCMA","Monte Carlo","43.733333","7.416667"
"MCPA","Macapa","0.050833","-51.070556"
"MCTA","Muscat","23.610000","58.540000"
"MCVA","Mcarthur River","-16.466667","136.095000"
"MCWA","Mason City","43.148611","-93.201944"
"MCYA","Sunshine Coast","-26.603333","153.091666"
"MCZA","Maceio","-9.663700","-35.737500"
"MDCI","Manado","1.548611","124.925556"
"MDEA","Medellin","6.218750","-75.588194"
"MDLM","Mandalay","21.939167","96.091389"
"MDQA","Mar Del Plata","-37.934722","-57.572222"
"MDZA","Mendoza","-32.831944","-68.784722"
"MEAA","Macae","-22.350000","-41.800000"
"MECA","Manta","-0.950000","-80.683333"
"MEDA","Madinah","24.466667","39.600000"
"MEGA","Malange","-9.525000","16.312222"
"MEHA","Mehamn","71.033300","27.833300"
"MELA","Melbourne","-37.813611","144.963056"
"MELI","Melilla","35.283300","-2.950000"
"MEMA","Memphis","35.149530","-90.048980"
"MEMB","Memmingen","47.980000","10.230000"
"MENO","Menorca","40.000000","4.000000"
"MERS","Mersa Matruh","31.333300","27.216700"
"MESI","Medan","3.561111","98.672778"
"METZ","Metz","49.117029","6.168823"
"MEXA","Mexico City","19.417315","-99.107592"
"MEYA","Meghauli","27.576389","84.231389"
"MFEA","Mcallen","26.258333","-98.286111"
"MFMA","Macau","22.233333","113.583333"
"MFRA","Medford","42.329235","-122.876930"
"MFUA","Mfuwe","-13.258611","31.936389"
"MGAA","Managua","12.141111","-86.168611"
"MGFA","Maringa","-23.440000","-51.906944"
"MGMA","Montgomery","32.355555","-86.341481"
"MGQA","Mogadishu","2.033060","45.350000"
"MGWA","Morgantown","39.629530","-79.955900"
"MHDA","Mashhad","36.236667","59.641667"
"MHHA","Marsh Harbour","26.511389","-77.083333"
"MHKA","Manhattan","39.183610","-96.571670"
"MHTA","Manchester","42.938333","-71.438889"
"MHXC","Manihiki Island","-10.366667","-161.000000"
"MIAA","Miami","25.774270","-80.193660"
"MIDA","Merida","20.933333","-89.650000"
"MIGA","Mian Yang","31.512996","104.743652"
"MIIA","Marilia","-22.200000","-49.933333"
"MIKO","Mykonos","37.300000","24.550000"
"MILA","Milan","45.464167","9.190278"
"MILO","Milos","36.716700","24.533300"
"MIMA","Merimbula","-36.908333","149.920000"
"MINE","Mineralnye Vody","44.210280","43.135280"
"MISK","Miskolc","48.050000","20.833300"
"MKCA","Kansas City","39.025069","-94.737986"
"MKEA","Milwaukee","43.000000","-88.000000"
"MKGA","Muskegon","43.170556","-86.237500"
"MKQI","Merauke","-8.521111","140.416944"
"MKWI","Manokwari","-0.883060","134.050000"
"MKYA","Mackay","-21.171667","149.179722"
"MKZM","Malacca","2.199729","102.244005"
"MLBA","Melbourne","28.102500","-80.630278"
"MLEA","Male","4.177621","73.508148"
"MLGI","Malang","-7.979700","112.630400"
"MLIA","Moline","41.448889","-90.505000"
"MLLA","Marshall","61.865833","-162.068889"
"MLMA","Morelia","19.768333","-101.189444"
"MLSA","Miles City","46.430556","-105.880556"
"MLUA","Monroe","32.509310","-92.119300"
"MLWA","Monrovia","6.313333","-10.801389"
"MMEA","Durham","54.776930","-1.568298"
"MMHA","Mammoth Lakes","37.648611","-118.971944"
"MMOA","Maio","15.137500","-23.208333"
"MNIA","Montserrat","16.750000","-62.233333"
"MNJA","Mananjary","-21.199720","48.366390"
"MNLP","Manila","14.555000","120.984166"
"MNSA","Mansa","-11.125000","28.866667"
"MOBA","Mobile","30.694444","-88.043056"
"MODA","Modesto","37.626944","-120.955278"
"MOGM","Mong Hsat","20.516667","99.256667"
"MOIC","Mitiaro Island","-19.500000","-158.000000"
"MOIR","Mo I Rana Rossvoll","66.316700","14.000000"
"MOLD","Molde Aro","62.733300","7.150000"
"MONA","Monastir","35.783330","10.833330"
"MONB","Moncton","46.092281","-64.771271"
"MONT","Montpellier","43.611940","3.877220"
"MORA","Mora","60.997752","14.532166"
"MOSC","Moscow","55.751667","37.617778"
"MOSJ","Mosjoen Kjaerstad","65.783300","13.216700"
"MOST","Mostar","43.280000","17.850000"
"MOTA","Minot","48.246527","-101.290416"
"MOVA","Moranbah","-22.116667","149.533333"
"MPHP","Caticlan","11.925833","121.952222"
"MPMA","Maputo","-25.920028","32.573097"
"MPNA","Stanley","-51.816667","-58.450000"
"MQPA","Nelspruit","-25.344400","31.126620"
"MQTA","Marquette","46.546389","-87.406667"
"MQXA","Makale","13.500000","39.483060"
"MRON","Masterton","-40.973333","175.633611"
"MRUA","Mauritius","-20.427500","57.676389"
"MRXA","Bandar Mahshahr","30.535556","49.167222"
"MRYA","Carmel","36.555240","-121.923290"
"MRZA","Moree","-29.498333","149.845556"
"MSAA","Muskrat Dam","53.816667","-91.983333"
"MSNA","Madison","43.083333","-89.366667"
"MSOA","Missoula","46.915556","-114.087500"
"MSPA","Minneapolis","44.972944","-93.181000"
"MSQA","Minsk","53.865569","27.544841"
"MSSA","Massena","44.937778","-74.846667"
"MSUA","Maseru","-29.301389","27.505556"
"MSYA","New Orleans","29.944444","-90.011111"
"MTJA","Montrose","38.500556","-107.894722"
"MTMA","Metlakatla","55.129778","-131.571922"
"MTTA","Minatitlan","17.983330","-94.516670"
"MTYA","Monterrey","25.666667","-100.300000"
"MUBA","Maun","-19.972500","23.428056"
"MULH","Mulhouse","47.749480","7.339940"
"MUMM","Marudi","4.178056","114.331389"
"MUNA","Maturin","9.748333","-63.166667"
"MUNI","Munich","48.144327","11.580963"
"MUNS","Munster","51.967539","7.644424"
"MURC","Murcia","37.986111","-1.130278"
"MURM","Murmansk","68.995833","33.101807"
"MUSI","Mus","38.750000","41.500000"
"MUXA","Multan","30.200000","71.416667"
"MUZA","Musoma","-1.500000","33.799720"
"MVBA","Franceville","-1.633333","13.583333"
"MVDA","Montevideo","-34.883611","-56.181944"
"MVPA","Mitu","1.200000","-70.166667"
"MVTP","Mataiva","-14.833333","-148.416667"
"MVYA","Martha's Vineyard","41.385567","-70.675392"
"MWZA","Mwanza","-2.444131","32.931933"
"MXHP","Moro","-6.382689","143.281116"
"MXLA","Mexicali","32.666667","-115.466667"
"MYDA","Malindi","-3.222222","40.098611"
"MYRA","Myrtle Beach","33.745278","-78.827083"
"MYSK","Mys Kamennyy","68.533300","73.400000"
"MYTI","Mytilene","39.056000","26.599000"
"MYYM","Miri","4.455278","114.000833"
"MZMA","Metz","49.076389","6.133889"
"MZRA","Mazar-I-Sharif","36.700000","67.200000"
"MZTA","Mazatlan","23.220000","-106.420000"
"MZVM","Mulu","4.033333","114.800000"
"NAAA","Narrabri","-30.300000","149.833333"
"NABE","Naberevnye Chelny","55.683333","52.316667"
"NACA","Naracoorte","-36.950000","140.833333"
"NADO","Nador","35.179140","-2.924423"
"NAHI","Naha","3.692200","125.532600"
"NAMS","Namsos","64.466700","11.600000"
"NANF","Nadi","-17.753056","177.447778"
"NANT","Nantes","47.216770","-1.556625"
"NAPL","Naples","40.839269","14.253731"
"NAQA","Qaanaaq","77.666667","-69.000000"
"NARS","Narsarsuaq","61.161111","-45.427778"
"NARV","Narvik Framnes","68.408300","17.425000"
"NARY","Naryan-Mar","67.616700","53.150000"
"NASA","Nassau","25.060000","-77.345000"
"NATA","Natal","-5.795000","-35.209440"
"NAUP","Napuka Island","-14.176667","-141.267222"
"NAVA","Nevsehir","38.633333","34.716667"
"NAXO","Naxos","37.100000","25.383300"
"NBEA","Enfidha","36.135278","10.380833"
"NBOA","Nairobi","-1.316667","36.873750"
"NBSA","Baishan","41.951984","126.425056"
"NCAA","North Caicos","21.933333","-71.983333"
"NCUA","Nukus","42.486389","59.622500"
"NDYA","Sanday","59.250000","-2.583333"
"NEGA","Negril","18.276302","-78.353119"
"NEVA","Nevis","17.205000","-62.592500"
"NEWC","Newcastle","54.978402","-1.610870"
"NEWQ","Newquay","50.416284","-5.083580"
"NHAV","Nha Trang","12.250000","109.183333"
"NHVP","Nuku Hiva","-8.795556","-140.228611"
"NICA","Nicosia","35.151111","33.272222"
"NICE","Nice","43.703390","7.266274"
"NIKO","Nikolaev","47.050000","31.916700"
"NIMA","Niamey","13.483333","2.170833"
"NIME","Nimes","43.837778","4.360833"
"NISI","Nis","43.333300","21.916700"
"NIZH","Nizhniy Novgorod","56.342423","44.011230"
"NIZI","Nizhnevartovsk","60.950000","76.483300"
"NJFA","Najaf","31.991667","44.404167"
"NKCA","Nouakchott","18.091944","-15.951944"
"NLAA","Ndola","-12.995556","28.665556"
"NLDA","Nuevo Laredo","27.434722","-99.566667"
"NLKN","Norfolk Island","-29.042583","167.938064"
"NNBA","Santa Ana","-10.838701","162.456036"
"NNTT","Nan","18.800000","100.783333"
"NOGL","Nogliki","51.816667","143.116660"
"NORG","Norderney","53.691700","7.150000"
"NORR","Norrkoping Kungsangen","58.616700","16.083300"
"NORW","Norwich","52.628333","1.296667"
"NOSA","Nossi-be","-13.316670","48.316390"
"NOTT","Nottingham","52.959393","-1.149101"
"NOUN","Noumea","-22.275800","166.458000"
"NOVA","Huambo","-12.805000","15.755000"
"NOVP","Novokuzinetsk","53.750000","87.100000"
"NOVY","Novy Urengoy","66.083300","76.516700"
"NPEN","Napier-Hastings","-39.466667","176.866667"
"NPLN","New Plymouth","-39.066667","174.083333"
"NRLA","North Ronaldsay","59.370278","-2.433333"
"NSNN","Nelson","-41.298333","173.221111"
"NSTT","Nakhon Si Thammarat","8.466670","99.966390"
"NTLA","Newcastle","-32.914583","151.750000"
"NUAA","Nuwara Eliya","6.966667","80.766667"
"NURE","Nuremberg","49.450000","11.083333"
"NVTA","Navegantes","-26.880000","-48.651389"
"NYAA","Nyagan","62.133333","65.383333"
"NYCA","New York","40.730926","-73.972037"
"NYKA","Nanyuki","0.016667","37.066667"
"OAGA","Orange","-33.283333","149.100000"
"OAJA","Jacksonville","34.757410","-77.422028"
"OAKA","Oakland","37.770139","-122.241111"
"OAXA","Oaxaca","17.083333","-96.750000"
"OBNA","Oban","56.412356","-5.470232"
"OBUA","Kobuk","66.910556","-156.883333"
"OCCA","Coca","-0.333333","-77.000000"
"ODES","Odessa","46.474990","30.733910"
"ODNM","Long Seridan","4.033333","115.066667"
"OGGA","Kahului","20.900556","-156.433611"
"OGLA","Ogle","6.800000","-58.105556"
"OHHA","Okha","53.517200","142.883900"
"OHRI","Ohrid","41.116944","20.801667"
"OKCA","Oklahoma City","35.431389","-97.512916"
"OLBI","Olbia","40.916667","9.500000"
"OLFA","Wolf Point","48.094722","-105.566389"
"OMAA","Omaha","41.302222","-95.894305"
"OMEA","Nome","64.511389","-165.441667"
"OMHA","Urmieh","37.552740","45.076050"
"OMSK","Omsk","54.983920","73.355710"
"ONPA","Newport","44.633333","-124.050000"
"ONTA","Ontario","34.061944","-117.629028"
"OOLA","Gold Coast","-28.017000","153.428000"
"OPSA","Sinop","-11.850000","-55.460000"
"ORAD","Oradea","47.016700","21.900000"
"OREB","Orebro","59.250000","15.233300"
"OREN","Orenburg","51.783300","55.116700"
"ORFA","Norfolk","36.846810","-76.285220"
"ORIA","Port Lions","57.870871","-152.884369"
"ORKN","Orkney","58.992481","-2.991028"
"ORLA","Orland","63.687835","9.659386"
"ORLB","Orlando","28.539900","-81.369200"
"ORNA","Oran","35.627778","-0.609861"
"ORNS","Ornskoldsvik","63.283333","18.733333"
"ORSK","Orsk","51.204870","58.566850"
"ORST","Orsta / Volda Hovden","62.200000","6.150000"
"OSAA","Osaka","34.672182","135.497131"
"OSIJ","Osijek","45.550000","18.683300"
"OSKA","Oskarshamn","57.266700","16.433300"
"OSLO","Oslo","59.912730","10.746090"
"OSMA","Mosul","36.307500","43.149444"
"OSSA","Osh","40.608889","72.793056"
"OSTA","Ostend","51.224303","2.904854"
"OSTE","Ostersund","63.181010","14.639282"
"OSTR","Ostrava","49.835556","18.292500"
"OTHA","North Bend","43.418889","-124.240000"
"OUAA","Ouagadougou","12.352778","-1.512778"
"OUAR","Ouarzazate","30.919015","-6.898384"
"OUJD","Oujda","34.693074","-1.917801"
"OULU","Oulu","65.000000","25.260000"
"OVBA","Novosibirsk","55.039827","82.924805"
"OVDA","Ovda","31.000000","34.483300"
"OWBA","Owensboro","37.740833","-87.165833"
"OXBA","Bissau","11.888889","-15.657222"
"OZCP","Ozamis City","8.180556","123.841389"
"PADE","Paderborn","51.716667","8.766667"
"PAHA","Paducah","37.072222","-88.627500"
"PAJA","Pajala","67.210416","23.365173"
"PALA","Palanga","55.920354","21.071777"
"PALE","Palermo","38.116667","13.366667"
"PALM","Palma","39.566667","2.650000"
"PAMP","Pamplona","42.799431","-1.573792"
"PANT","Pantelleria","36.814278","11.965872"
"PAPA","Port Au Prince","18.560556","-72.328889"
"PAPH","Paphos","34.766667","32.416667"
"PARI","Paris","48.856667","2.350833"
"PARM","Parma","44.800000","10.333333"
"PARO","Paros","37.066700","25.133300"
"PAUU","Pau","43.301667","-0.368611"
"PAZA","Poza Rica","20.516667","-97.467222"
"PBCA","Puebla","19.050000","-98.200000"
"PBHA","Paro","27.403056","89.425833"
"PBIA","West Palm Beach","26.699444","-80.072083"
"PBMA","Paramaribo","5.866667","-55.166667"
"PBOA","Paraburdoo","-23.166667","117.750000"
"PCMA","Playa del Carmen","20.634069","-87.068024"
"PDPA","Punta Del Este","-34.914444","-54.919167"
"PDXA","Portland","45.523450","-122.676210"
"PECS","Pecs","46.071250","18.233110"
"PEDA","Pardubice","50.013333","15.738611"
"PEIA","Pereira","4.815278","-75.742222"
"PEMA","Puerto Maldonado","-12.583333","-69.233333"
"PENA","Penzance","50.119918","-5.539513"
"PENM","Penang","5.289722","100.272500"
"PENZ","Penza","53.216700","45.000000"
"PERA","Perth","-31.952222","115.858889"
"PERI","Perigueux","45.183300","0.716700"
"PERM","Perm","58.000000","56.250000"
"PERP","Perpignan","42.698610","2.895560"
"PERU","Perugia","43.108001","12.382965"
"PESC","Pescara","42.463889","14.214167"
"PETE","St Petersburg","59.950000","30.316667"
"PETR","Petrozavodsk","61.790006","34.326782"
"PETS","Petropavlovsk-Kamchats","53.016700","158.650000"
"PEWA","Peshawar","34.007135","71.581421"
"PFNA","Panama City","30.189583","-85.682638"
"PFQA","Parsabad","39.620833","47.857778"
"PGAA","Page","36.926389","-111.447222"
"PGVA","Greenville","35.633333","-77.385278"
"PHCA","Port Harcourt","4.750000","7.000000"
"PHEA","Port Hedland","-20.310000","118.601000"
"PHFA","Newport News","36.978611","-76.428333"
"PHLA","Philadelphia","39.993222","-75.112888"
"PHOA","Point Hope","68.350000","-166.800000"
"PHST","Phitsanulok","16.782397","100.279058"
"PHXA","Phoenix","33.448200","-112.073800"
"PIAA","Peoria","40.693650","-89.588990"
"PICO","Pico Island","38.466700","-28.333300"
"PIHA","Pocatello","42.875222","-112.447278"
"PIPA","Pilot Point","57.557916","-157.555972"
"PISA","Pisa","43.716667","10.400000"
"PITA","Pittsburgh","40.441667","-80.000000"
"PIUA","Piura","-5.201667","-80.613333"
"PKBA","Parkersburg","39.266111","-81.542222"
"PKRA","Pokhara","28.216670","84.000000"
"PKUI","Pekanbaru","0.466667","101.450000"
"PKYI","Palangkaraya","-2.226667","113.944167"
"PKZL","Pakse","15.114967","105.802116"
"PLBA","Plattsburgh","44.694166","-73.502222"
"PLJA","Placencia","16.533333","-88.352778"
"PLMI","Palembang","-2.900000","104.699444"
"PLNA","Pellston","45.552790","-84.783940"
"PLOA","Port Lincoln","-34.732195","135.858644"
"PLOV","Plovdiv","42.150000","24.750000"
"PLPA","La Palma","8.402780","-78.145280"
"PLSA","Providenciales","21.769167","-72.268333"
"PLWI","Palu","-0.916667","119.900000"
"PLYM","Plymouth","50.369993","-4.148712"
"PLZA","Port Elizabeth","-33.958056","25.600000"
"PMCA","Puerto Montt","-41.466667","-72.933333"
"PMRN","Palmerston North","-40.320556","175.616944"
"PMVA","Porlamar","10.950000","-63.850000"
"PMWA","Palmas","-10.241667","-48.352778"
"PNHK","Phnom Penh","11.546111","104.847778"
"PNIA","Pohnpei","6.985100","158.208989"
"PNPP","Popondetta","-8.775278","148.226111"
"PNRA","Pointe Noire","-4.810556","11.885833"
"PNSA","Pensacola","30.458541","-87.195416"
"PNTA","Puerto Natales","-51.683333","-72.516667"
"POAA","Porto Alegre","-30.000000","-51.000000"
"PODG","Podgorica","42.439200","19.266000"
"POGA","Port Gentil","-0.712500","8.755833"
"POIT","Poitiers","46.581944","0.336111"
"POLA","Pemba","-12.983060","40.533060"
"POLY","Polyarnyj","66.416700","112.050000"
"POMP","Port Moresby","-9.445000","147.210278"
"PONT","Ponta Delgada","37.745200","-25.668011"
"POPA","Puerto Plata","19.793440","-70.688400"
"POPR","Poprad","49.071944","20.240278"
"PORI","Pori","61.483333","21.800000"
"PORT","Porto","41.149965","-8.604012"
"PORV","Portoroz","45.516700","13.600000"
"PORY","Porto Santo","33.075864","-16.334782"
"POSA","Port Of Spain","10.666667","-61.516667"
"POZN","Poznan","52.250000","16.530000"
"PPBA","Presidente Prudente","-22.100000","-51.450000"
"PPGA","Pago Pago","-14.326389","-170.696389"
"PPPA","Proserpine","-20.495000","148.552222"
"PPSP","Puerto Princesa","9.742222","118.753889"
"PPTP","Papeete","-17.547222","-149.613889"
"PPWA","Papa Westray","59.416667","-2.900000"
"PQCV","Phu Quoc","10.233333","103.966667"
"PQIA","Presque Isle","46.685000","-68.047500"
"PQQA","Port Macquarie","-31.433333","152.866667"
"PRAG","Prague","50.088040","14.420760"
"PREV","Preveza","38.580000","20.450000"
"PRIA","Praslin Island","-4.319167","55.691389"
"PRIT","Pristina","42.661232","21.153488"
"PSCA","Pasco","46.263889","-119.114722"
"PSEA","Ponce","18.020528","-66.612854"
"PSGA","Petersburg","56.804167","-132.942500"
"PSPA","Palm Springs","33.823889","-116.530278"
"PSSA","Posadas","-27.383889","-55.967500"
"PTGA","Polokwane","-23.899720","29.466390"
"PTJA","Portland","-38.384167","141.625000"
"PTPA","Pointe-a-Pitre","16.267500","-61.526389"
"PTUA","Platinum","59.006890","-161.815290"
"PTYA","Panama City","9.033196","-79.449861"
"PUJA","Punta Cana","18.566667","-68.383333"
"PULA","Pula","44.863656","13.842773"
"PUQA","Punta Arenas","-53.126389","-70.877500"
"PUSA","Busan","35.102780","129.040280"
"PUWA","Pullman","46.731270","-117.179620"
"PVCA","Provincetown","42.064077","-70.182381"
"PVDA","Providence","41.823611","-71.422222"
"PVHA","Porto Velho","-8.713611","-63.902778"
"PVRA","Puerto Vallarta","20.686667","-105.265000"
"PVUA","Provo","40.218056","-111.722222"
"PWMA","Portland","43.662159","-70.252719"
"PWQA","Pavlodar","52.300000","76.950000"
"PXMB","Puerto Escondido","15.866670","-97.083330"
"PYXT","Pattaya","12.950000","100.883333"
"PYYA","Pai (Mae Hong Son)","19.358900","98.436700"
"PZAM","Zamboanga","6.920000","122.065000"
"PZBA","Pietermaritzburg","-29.650000","30.400000"
"PZOA","Puerto Ordaz","8.305000","-62.734444"
"PZUA","Port Sudan","19.583060","37.216390"
"QPTA","Patos De Minas","-18.583333","-46.533333"
"QRWA","Warri","5.500000","5.683330"
"QUBA","Ubari","26.600000","12.766667"
"QUEA","Queretaro","20.594866","-100.391693"
"QUIM","Quimper","47.992679","-4.100647"
"RABA","Rabat","33.987780","-6.859589"
"RAEA","Arar","30.906389","41.138056"
"RAIA","Praia","14.924444","-23.493333"
"RAMT","Ramsgate","51.336300","1.421100"
"RAOA","Ribeirao Preto","-21.136389","-47.776667"
"RAPA","Rapid City","44.076188","-103.228299"
"RARC","Rarotonga","-21.200278","-159.800000"
"RBRA","Rio Branco","-9.966667","-67.800000"
"RCBA","Richards Bay","-28.740181","32.093383"
"RCMA","Richmond","-20.703889","143.116667"
"RDCA","Redencao","-8.030278","-49.980000"
"RDDA","Redding","40.576667","-122.370278"
"RDMA","Redmond","44.254444","-121.151389"
"RDUA","Durham","35.875278","-78.781944"
"RDVA","Red Devil","61.765328","-157.317352"
"RECA","Recife","-8.125833","-34.923889"
"REGG","Reggio Calabria","38.111389","15.661944"
"RENN","Rennes","48.112016","-1.671638"
"REPK","Siem Reap","13.400000","103.816667"
"REUS","Reus","41.100000","1.060000"
"REYK","Reykjavik","64.044444","-22.316666"
"RFPP","Raiatea","-16.723333","-151.466670"
"RGAA","Rio Grande","-53.777500","-67.750000"
"RGIP","Rangiroa","-14.941468","-147.700882"
"RGLA","Rio Gallegos","-51.608889","-69.312778"
"RGNM","Yangon","16.802569","96.154060"
"RGSA","Burgos","42.340656","-3.700333"
"RHIA","Rhinelander","45.639368","-89.411716"
"RHOD","Rhodes","36.150000","28.100000"
"RICA","Richmond","37.550021","-77.462540"
"RIGA","Riga","56.946660","24.104004"
"RIGB","Rio Grande","-32.083300","-52.166700"
"RIMI","Rimini","44.050000","12.566667"
"RIOA","Rio De Janeiro","-22.900000","-43.211111"
"RIYA","Riyan Mukalla","14.647222","49.322222"
"RKDA","Rockland","44.059167","-69.098056"
"RKTA","Ras Al Khaimah","25.750000","56.000000"
"RMAA","Roma","-26.547222","148.773056"
"RMQT","Taichung","24.150000","120.666667"
"RMTA","Rimatara","-22.640630","-152.815704"
"RNAA","Arona","-9.864444","161.983056"
"RNLA","Rennell","-11.666667","160.300000"
"RNOA","Reno","39.497778","-119.767500"
"ROAA","Roanoke","37.324722","-79.976389"
"ROCA","Rochester","43.121389","-77.670833"
"RODE","Rodez","44.350600","2.575000"
"ROIT","Roi Et","16.053056","103.651111"
"ROKA","Rockhampton","-23.381944","150.475278"
"ROME","Rome","41.894740","12.483900"
"RONN","Ronneby","56.211096","15.274773"
"RONO","Ronne Bornholm","55.100910","14.706640"
"RORA","Koror","7.364444","134.553056"
"RORO","Roros","62.576585","11.385269"
"ROSA","Rosario","-32.950000","-60.666667"
"ROST","Rostock","54.083333","12.133333"
"ROSU","Rost","67.516972","12.103844"
"ROSV","Rostov-on-Don","47.233333","39.700000"
"ROTN","Rotorua","-38.111111","176.316667"
"ROTT","Rotterdam","51.921667","4.481111"
"ROUE","Rouen","49.441203","1.096272"
"ROVA","Rovaniemi","66.500000","25.733333"
"ROWA","Roswell","33.387222","-104.528056"
"RRAA","Ronda","36.750000","-5.166667"
"RRGA","Rodrigues Is","-19.757972","63.361972"
"RSAA","Santa Rosa","-36.591389","-64.278611"
"RSDA","Rock Sound","24.891667","-76.177500"
"RSHA","Russian Mission","61.783056","-161.319167"
"RSJA","Rosario","48.633333","-122.850000"
"RSTA","Rochester","43.963472","-92.481528"
"RSUA","Yeosu","34.741111","127.730000"
"RTBA","Roatan","16.316667","-86.516667"
"RUAA","Arua","3.049720","30.916390"
"RUHA","Riyadh","24.711667","46.724167"
"RUJE","Rijeka","45.200000","14.270000"
"RUNA","Saint-Denis","-20.882551","55.456581"
"RUSA","Marau Sound","-8.500000","161.250000"
"RUTA","Rutland","43.529444","-72.948333"
"RVAA","Farafangana","-22.800000","47.833060"
"RYKA","Rahim Yar Khan","28.385278","70.279722"
"RZES","Rzeszow","50.042148","21.979523"
"RZRA","Ramsar","36.909167","50.680000"
"SAAR","Saarbruecken","49.234189","6.992455"
"SAAS","Balaton","48.092790","20.306170"
"SABA","Saba Island","17.650000","-63.216667"
"SACA","Sacramento","38.555556","-121.468889"
"SAHA","Sana'a","15.348333","44.206389"
"SAIN","Saint Tropez","43.283333","6.633333"
"SALA","Salamanca","40.967000","-5.650000"
"SALB","San Salvador","13.708600","-89.200000"
"SALZ","Salzburg","47.800000","13.033333"
"SAMA","Samara","53.200000","50.150000"
"SAMB","Samana","19.120000","69.200000"
"SAMO","Samos","37.450000","26.500000"
"SAMS","Samsun","41.258335","36.424860"
"SANA","San Diego","32.790158","-117.124682"
"SANC","Santiago de Compostela","42.880744","-8.545647"
"SAND","Sandane","61.773123","6.212769"
"SANE","Sandnessjoen","66.016667","12.633333"
"SANJ","San Jorge Island","38.634036","-28.028870"
"SANL","Sanliurfa","37.153202","38.791695"
"SANS","San Sebastian","43.327176","-1.985092"
"SANT","Santander","43.460894","-3.809853"
"SANU","Flores Island","39.445208","-31.188812"
"SANV","Santa Maria","36.976501","-25.104446"
"SAOA","Sao Paulo","-23.547500","-46.636110"
"SAPA","San Pedro Sula","15.499010","-88.016968"
"SARA","Sarajevo","43.858792","18.420639"
"SARB","Saratov","51.539075","46.032028"
"SARN","Sarnia","43.000000","-82.300000"
"SATA","San Antonio","29.441000","-98.494388"
"SATU","Satu Mare","47.790000","22.890000"
"SAVA","Savannah","32.105277","-81.149722"
"SAVO","Savonlinna","61.916700","28.900000"
"SBAA","Santa Barbara","34.425833","-119.714167"
"SBHA","St Barthelemy","17.899720","-62.850000"
"SBNA","South Bend","41.704444","-86.312500"
"SBYA","Salisbury-Ocean City","38.338611","-75.510000"
"SCCA","Deadhorse","70.193946","-148.454132"
"SCEA","State College","40.770833","-77.881389"
"SCIL","Isles Of Scilly","49.433335","-6.274860"
"SCLA","Santiago","-33.428194","-70.726111"
"SCOA","Aktau","43.650000","51.150000"
"SCTA","Socotra","12.500000","54.000000"
"SCUA","Santiago","20.019833","-75.813917"
"SCXA","Salina Cruz","16.166667","-95.200000"
"SCYA","San Cristobal","-0.800000","-89.400000"
"SCZA","Santa Cruz Is","-11.616667","166.850000"
"SDDA","Lubango","-14.924444","13.576667"
"SDEA","Santiago Del Estero","-27.755556","-64.299722"
"SDFA","Louisville","37.571018","-85.746203"
"SDKM","Sandakan","5.900000","118.066667"
"SDQA","Santo Domingo","18.500000","-69.983333"
"SDYA","Sidney","47.706944","-104.191944"
"SEAA","Seattle","47.534537","-122.312222"
"SEIN","Seinajoki Ilmajoki","62.791667","22.841667"
"SELA","Seoul","37.568889","126.976667"
"SEVI","Seville","37.377222","-5.986944"
"SEZA","Mahe Island","-4.672222","55.522500"
"SFAX","Sfax El Maou","34.716700","10.683300"
"SFEP","San Fernando","16.600000","120.300000"
"SFGA","St Martin","18.072129","-63.076759"
"SFJA","Kangerlussuaq","67.016944","-50.689167"
"SFLA","Sao Filipe","14.900000","-24.516667"
"SFNA","Santa Fe","-31.633333","-60.700000"
"SFOA","San Francisco","37.779300","-122.419200"
"SGFA","Springfield","37.205996","-93.302765"
"SGNV","Ho Chi Minh City","10.817222","106.657778"
"SGUA","Saint George","37.093056","-113.592222"
"SGYA","Skagway","59.460556","-135.315556"
"SHAN","Shannon","52.410000","-8.550000"
"SHAR","Sharm El Sheikh","27.850000","34.266667"
"SHDA","Staunton","38.158056","-79.076389"
"SHJA","Sharjah","25.433333","55.383333"
"SHRA","Sheridan","44.774167","-106.977222"
"SHVA","Shreveport","32.495555","-93.720370"
"SIBI","Sibiu","45.783300","24.100000"
"SIDA","Sal","16.745000","-22.951667"
"SIMF","Simferopol","44.953137","34.104309"
"SINO","Sinop","42.026726","35.159340"
"SINS","Singapore","1.283333","103.833333"
"SION","Sion","46.233300","7.350000"
"SITA","Sitka","57.051561","-135.338642"
"SITI","Sitia","35.200000","26.098610"
"SIVA","Sivas","39.747322","37.033539"
"SJCA","San Jose","37.347222","-121.904444"
"SJDA","San Jose Cabo","23.050000","-109.683333"
"SJKA","Sao Jose Dos Campos","-23.228889","-45.871111"
"SJOA","San Jose","9.933330","-84.083328"
"SJPA","Sao Jose Do Rio Preto","-20.816389","-49.406389"
"SJTA","San Angelo","31.413194","-100.463888"
"SJUA","San Juan","18.449444","-66.052500"
"SKBA","Basseterre","17.308056","-62.721389"
"SKDA","Samarkand","39.700556","66.984722"
"SKEL","Skelleftea","64.750000","20.950000"
"SKIA","Skiathos","39.180643","23.504562"
"SKIE","Skien Geiterygen","59.233300","9.700000"
"SKOA","Sokoto","13.006389","5.242222"
"SKOP","Skopje","42.000000","21.433333"
"SKTA","Sialkot","32.510100","74.543130"
"SLAA","Salta","-24.783333","-65.416667"
"SLCA","Salt Lake City","40.784167","-111.966944"
"SLER","Salerno","40.685129","14.763136"
"SLHV","Sola","-13.883333","167.550000"
"SLIG","Sligo","54.269635","-8.472176"
"SLKA","Saranac Lake","44.382778","-74.206667"
"SLLA","Salalah","17.038719","54.091297"
"SLPA","San Luis Potosi","22.177222","-100.988333"
"SLUA","Castries","13.901243","-60.983047"
"SLWA","Saltillo","25.433333","-100.983333"
"SLZA","Sao Luiz","-2.529720","-44.302780"
"SMRA","Santa Marta","11.120000","-74.231667"
"SMXA","Santa Maria","34.905000","-120.457778"
"SNAA","Santa Ana","33.702963","-117.867685"
"SNOT","Sakon Nakhon","17.156389","104.145556"
"SNPA","Saint Paul Island","57.123755","-170.275898"
"SNUA","Santa Clara","22.405278","-79.954167"
"SNXA","Sabana De Mar","19.116667","-69.400000"
"SOCI","Solo / Surakarta","-7.705280","110.798890"
"SOFI","Sofia","42.700000","23.333333"
"SOGN","Sogndal Haukasen","61.166700","7.133300"
"SOHG","Sohag","26.551600","31.692000"
"SOND","Sonderborg","54.950000","9.766700"
"SORK","Sorkjosen","69.783300","20.933300"
"SORV","Sorvagur","62.066667","-7.266667"
"SOUT","Southampton","50.899135","-1.411400"
"SOVA","Seldovia","59.440799","-151.710205"
"SOWA","Show Low","34.264444","-110.004167"
"SOYA","Stronsay","59.133333","-2.633333"
"SPIA","Springfield","39.804580","-89.649467"
"SPKA","Sapporo","43.066667","141.350000"
"SPLI","Split","43.310000","16.280000"
"SPNA","Saipan","15.201374","145.748749"
"SPRA","San Pedro","17.911111","-87.968611"
"SPSA","Wichita Falls","33.896944","-98.515000"
"SREA","Sucre","-19.033900","-65.262600"
"SRQA","Sarasota","27.393889","-82.554167"
"SRVA","Stony River","61.791111","-156.586111"
"SRXA","Sert","31.208920","16.588660"
"SRZA","Santa Cruz","-17.718750","-63.152916"
"SSAA","Salvador","-12.974722","-38.476667"
"SSGA","Malabo","3.752778","8.705556"
"SSIA","Brunswick","31.166292","-81.473402"
"SSMA","Sault Ste Marie","46.500000","-84.350000"
"SSYA","M'Banza Congo","-6.269722","14.246944"
"STAV","Stavanger","58.963333","5.718889"
"STAW","Stavropol","45.050000","41.983333"
"STDA","Santo Domingo","7.568333","-72.028333"
"STET","St Etienne","45.270000","4.220000"
"STGA","St George Island","56.600000","-169.552500"
"STIA","Santiago","19.469167","-70.700278"
"STLA","St Louis","38.616870","-90.167542"
"STMB","Santarem","-2.433333","-54.700000"
"STNA","St. Nazaire Montoir","47.275968","-2.215118"
"STOC","Stockholm","59.350000","18.066667"
"STOK","Stokmarknes","68.566156","14.908447"
"STOR","Stornoway","58.215578","-6.394043"
"STOS","Stord","59.783360","5.492477"
"STRA","Strasbourg","48.584445","7.748612"
"STSA","Santa Rosa","38.448611","-122.704722"
"STTA","Saint Thomas","18.337500","-64.969440"
"STUT","Stuttgart","48.778611","9.179444"
"STXA","St Croix Island","17.717314","-64.777314"
"SUBI","Surabaya","-7.218056","112.720833"
"SUCE","Suceava Salcea","47.633300","26.316700"
"SUGP","Surigao","9.758889","125.479167"
"SUMB","Sumburgh","59.866667","-1.283333"
"SUNA","Hailey","43.514937","-114.306251"
"SUND","Sundsvall","62.391006","17.302094"
"SURA","Summer Beaver","52.715278","-88.547500"
"SURG","Surgut","61.250000","73.416670"
"SUVF","Suva","-18.141600","178.441900"
"SUXA","Sioux City","42.498056","-96.395556"
"SVBA","Sambava","-14.265049","50.165634"
"SVDA","Kingstown","13.144444","-61.213889"
"SVEG","Sveg","62.033300","14.333300"
"SVOL","Svolvaer","68.236695","14.570618"
"SVUF","Savusavu","-16.766667","179.383333"
"SWFA","Newburgh","41.505833","-74.097222"
"SWJV","South West Bay","-16.459793","167.430267"
"SXMA","St Maarten","18.000000","-63.000000"
"SXOA","Sao Felix Do Araguaia","-11.600000","-50.650000"
"SXPA","Sheldon Point","62.533069","-164.849854"
"SXZA","Siirt","37.933333","41.950000"
"SYDA","Sydney","-33.859972","151.211111"
"SYRA","Syracuse","43.110556","-76.102500"
"SYRO","Syros Island","37.409700","24.950000"
"SYZA","Shiraz","29.540278","52.590833"
"SZCZ","Szczecin","53.564579","14.828796"
"SZEG","Szeged","46.255000","20.145000"
"TABA","Tabarka","36.954444","8.758056"
"TABB","Taba","29.550000","34.916667"
"TACP","Tacloban","11.231389","125.025000"
"TAEA","Daegu","35.893889","128.658889"
"TALA","Tanana","65.175000","-152.108056"
"TALL","Tallinn","59.416389","24.799167"
"TAMA","Tampico","22.274444","-97.801667"
"TAMB","Tambov","52.716700","41.433300"
"TAMP","Tampere","61.500000","23.766667"
"TANG","Tangier","35.780221","-5.811081"
"TANT","Tan Tan","28.450000","-11.083300"
"TAPA","Tapachula","14.909722","-92.253056"
"TASA","Tashkent","41.250000","69.283333"
"TAYA","Tartu","58.333333","26.733333"
"TBLI","Tbilisi","41.716667","44.783333"
"TBNA","Fort Leonard Wood","37.705730","-92.157170"
"TBOA","Tabora","-5.073611","32.828611"
"TBZA","Tabriz","38.131667","46.243333"
"TCBA","Treasure Cay","26.745278","-77.391111"
"TCQA","Tacna","-18.063333","-70.278889"
"TDDA","Trinidad","-14.833330","-64.900000"
"TEEA","Tbessa","35.466667","8.150000"
"TELA","Tel Aviv","32.066667","34.783333"
"TENE","Tenerife","28.466667","-16.250000"
"TERC","Terceira Lajes","38.743300","-27.072500"
"TETA","Tete","-16.162500","33.611527"
"TETU","Tetuan S. Ramel","35.576498","-5.369225"
"TEXA","Telluride","37.933333","-107.816667"
"TGCA","Tanjung Manis","2.177815","111.198077"
"TGGM","Kuala Terengganu","5.382500","103.103333"
"TGUA","Tegucigalpa","14.059722","-87.217500"
"TGZA","Tuxtla Gutierrez","16.733333","-93.183333"
"THES","Thessaloniki","40.380000","22.580000"
"THIR","Santorini (Thira)","36.240000","25.270000"
"THOR","Thorshofn","66.200000","-15.333300"
"THRA","Tehran","35.695225","51.423912"
"TIFA","Taif","21.270280","40.415830"
"TIII","Tembagapura","-4.528056","136.887222"
"TIJA","Tijuana","32.541389","-116.970278"
"TIMI","Timisoara","45.759722","21.230000"
"TIPA","Tripoli","32.875623","13.189859"
"TIRA","Tirana","41.326000","19.816000"
"TIRE","Tiree","56.302063","-6.364174"
"TIRG","Tirgu Mures","46.536193","24.556160"
"TIUN","Timaru","-44.400000","171.250000"
"TIVA","Tivat","42.437394","18.700104"
"TKDA","Takoradi","4.891667","-1.766667"
"TKEA","Tenakee Springs","57.780719","-135.218868"
"TKKA","Truk","7.461892","151.843022"
"TLHA","Tallahassee","30.399722","-84.351944"
"TLJA","Tatalina","62.885278","-155.968056"
"TLMA","Tlemcen","34.882776","-1.316670"
"TMIA","Tumling Tar","27.300000","87.200000"
"TMMA","Tamatave","-18.115833","49.393333"
"TMRA","Tamanrasset","22.811111","5.450833"
"TMSA","Sao Tome Is","0.339888","6.727753"
"TMUA","Tambor","9.733333","-85.016667"
"TMWA","Tamworth","-31.083889","150.846667"
"TNNT","Tainan","22.958333","120.200000"
"TNRA","Antananarivo","-18.933333","47.516667"
"TOBA","Tobruk","32.076111","23.961389"
"TOBB","Tobago","11.146389","-60.836000"
"TODM","Tioman","2.790454","104.166527"
"TOLA","Toledo","41.665556","-83.575278"
"TOMS","Tomsk","56.500000","84.966700"
"TONG","Tongatapu","-21.250000","-175.150000"
"TORS","Torsby Fryklanda","60.133300","13.000000"
"TOUL","Toulon","43.130000","5.920000"
"TOUR","Tours","47.393611","0.689167"
"TOUS","Toulouse","43.604510","1.440239"
"TOVA","Tortola","18.438889","-64.602083"
"TOZE","Tozeur","33.921996","8.138466"
"TPAA","Tampa","27.970898","-82.464640"
"TPET","Taipei","25.068889","121.530139"
"TQRA","San Domino Island","42.116667","15.483333"
"TRAB","Trabzon","41.005941","39.728708"
"TRAP","Trapani Birgi","38.017263","12.516861"
"TRCA","Torreon","25.568333","-103.410833"
"TRGN","Tauranga","-37.683141","176.165771"
"TRIA","Kingsport","36.552139","-82.474194"
"TRIE","Trieste","45.633333","13.800000"
"TRKI","Tarakan","3.327222","117.565278"
"TROL","Trollhattan","58.283508","12.288208"
"TROM","Tromso","69.682778","18.942778"
"TRON","Trondheim","63.429722","10.393333"
"TRUA","Trujillo","-8.090000","-79.115000"
"TRWA","Tarawa","1.378333","173.150000"
"TSEA","Astana","51.166667","71.500000"
"TSVA","Townsville","-19.250000","146.766667"
"TUIA","Turaif","31.692697","38.731067"
"TULB","Tulsa","36.153800","-95.992000"
"TUNI","Tunis Carthage","36.811484","10.175743"
"TUON","Taupo","-38.739722","176.084444"
"TUPA","Tupelo","34.258889","-88.767222"
"TURA","Tucurui","-3.700000","-49.733333"
"TURI","Turin","45.070490","7.686820"
"TURK","Turku","60.516700","22.266700"
"TUSA","Tucson","32.236111","-111.016389"
"TUUA","Tabuk","28.371667","36.625000"
"TUYA","Tulum","20.216667","-87.466667"
"TVCA","Traverse City","44.740000","-85.585833"
"TVFA","Thief River Falls","48.066111","-96.185000"
"TVUF","Taveuni","-16.693056","179.874167"
"TWBA","Toowoomba","-27.542222","151.913889"
"TWUM","Tawau","4.261667","117.885833"
"TXKA","Texarkana","33.456389","-93.989167"
"TYLA","Talara","-4.572778","-81.252222"
"TYOA","Tokyo","35.700556","139.715000"
"TYSA","Knoxville","35.960640","-83.920740"
"TYUM","Tyumen","57.150000","65.533300"
"UAPP","Ua Pou","-9.511111","-139.916667"
"UAQA","San Juan","-31.534167","-68.526111"
"UASA","Samburu","0.641657","37.648945"
"UBSA","Columbus","33.497316","-88.430328"
"UDIA","Uberlandia","-18.883611","-48.225278"
"UETA","Quetta","30.251194","66.940111"
"UFAI","Ufa","54.785170","56.045620"
"UGCA","Urgench","41.588743","60.601273"
"UIBA","Quibdo","5.700000","-76.646667"
"UIHV","Qui Nhon","13.766111","109.226389"
"UIIA","Utila","16.091667","-86.887500"
"UINA","Quincy","39.936856","-91.392946"
"UIOA","Quito","-0.250000","-78.583333"
"UKAA","Ukunda","-4.300000","39.566667"
"UKHT","Ukhta","63.567050","53.683480"
"UKKA","Ust-Kamenogorsk","50.033333","82.500000"
"UKSA","Sevastopol","44.600000","33.530000"
"ULAN","Ulan-Ude","51.833300","107.500000"
"ULNA","Ulaanbaatar","47.900000","106.866667"
"ULOA","Ulaangom","49.983333","92.066667"
"ULPA","Quilpie","-26.616670","144.250000"
"ULYA","Ulyanovsk","54.350000","48.383300"
"UMEA","Umea","63.830374","20.258102"
"URAA","Uralsk","51.251601","51.369324"
"URGA","Uruguaiana","-29.781944","-57.038333"
"URTT","Surat Thani","9.133333","99.316667"
"USHA","Ushuaia","-54.802778","-68.327778"
"USMT","Koh Samui / Samui Island","9.500000","100.000000"
"USNA","Ulsan","32.583333","129.350000"
"USQA","Usak","38.682222","29.471944"
"USTK","Ust-Kut","56.800000","105.833333"
"USUP","Busuanga","12.166667","119.950000"
"UTHT","Udon Thani","17.383056","102.793889"
"UTNA","Upington","-28.400556","21.253333"
"UTTA","Umtata","-31.583333","28.783333"
"UYLA","Nyala","12.050000","24.883060"
"VAAS","Vaasa","63.050000","21.766700"
"VADS","Vadso","70.075883","29.747715"
"VAGA","Varginha","-21.590000","-45.473333"
"VALE","Valencia","39.470239","-0.376805"
"VALF","Valence Chabeuil","44.916700","4.966700"
"VALL","Valladolid","41.652393","-4.728241"
"VALV","Valverde Hierro","27.808713","-17.915955"
"VANI","Van","38.450000","43.316700"
"VARD","Vardoe Lufthaun","70.345300","31.045600"
"VARK","Varkaus","62.300000","27.933300"
"VARN","Varna","43.232500","27.825500"
"VAXJ","Vaxjo","56.877498","14.808197"
"VDMA","Viedma","-40.868889","-62.997778"
"VELA","Vernal","40.438889","-109.510278"
"VENI","Venice","45.437500","12.335833"
"VERA","Veracruz","19.150000","-96.183333"
"VERO","Verona","45.433333","10.983333"
"VFAA","Victoria Falls","-17.924444","25.856667"
"VIEN","Vienna","48.208333","16.373056"
"VIFA","Vieste","41.885278","16.176944"
"VIGA","El Vigia","8.633333","-71.650000"
"VIGO","Vigo","42.227500","-8.715591"
"VIIV","Vinh City","18.671292","105.675774"
"VIJA","Virgin Gorda","18.500000","-64.500000"
"VILH","Vilhelmina Sagadal","64.616700","16.650000"
"VILN","Vilnius","54.400000","25.190000"
"VISB","Visby","57.640623","18.296013"
"VITO","Vitoria","42.847275","-2.675171"
"VIXA","Vitoria","-20.264444","-40.287500"
"VLAD","Vladivostok","43.133333","131.900000"
"VLAE","Vladikavkaz","43.016667","44.650000"
"VLDA","Valdosta","30.808611","-83.280277"
"VLIV","Port Vila","-17.733810","168.321884"
"VLNA","Valencia","10.151389","-67.933333"
"VLSV","Valesdir","-16.800000","168.200000"
"VNXA","Vilanculos","-22.016667","35.316667"
"VOLH","Volgograd","48.750000","44.500000"
"VOLP","Volos","39.333300","22.841700"
"VORK","Vorkuta","67.483300","63.983300"
"VORO","Voronezh","51.666700","39.216700"
"VPEA","Ongiva","-17.050000","15.700000"
"VPSA","Valparaiso","30.486388","-86.513611"
"VQSA","Vieques","18.114167","-65.422500"
"VRAA","Varadero","23.153610","-81.251390"
"VSAA","Villahermosa","18.000000","-93.000000"
"VTEL","Vientiane","17.966667","102.600000"
"VUPA","Valledupar","10.440000","-73.253333"
"VXEA","Sao Vicente","16.816667","-25.083333"
"WAAA","Wales","65.617222","-168.090833"
"WARS","Warsaw","52.150000","21.000000"
"WASA","Washington","38.876333","-77.030055"
"WATE","Waterford","52.255760","-7.129784"
"WDHA","Windhoek","-22.570000","17.083611"
"WEST","Westerland","54.910000","8.307500"
"WGAA","Wagga Wagga","-35.118889","147.368889"
"WGPI","Waingapu","-9.666667","120.300000"
"WHKN","Whakatane","-37.920556","176.914167"
"WICK","Wick","58.442702","-3.092995"
"WINA","Winton","-22.350000","143.066667"
