[
  {
    "id": "AAAP",
    "name": "Anaa",
    "lat": -17.05,
    "lng": -145.416667
  },
  {
    "id": "AAEA",
    "name": "Annaba",
    "lat": 36.821667,
    "lng": 7.81
  },
  {
    "id": "AAHA",
    "name": "Aachen",
    "lat": 50.822778,
    "lng": 6.187222
  },
  {
    "id": "AALB",
    "name": "Aalborg",
    "lat": 57.046893,
    "lng": 9.919968
  },
  {
    "id": "AALE",
    "name": "Aalesund Vigra",
    "lat": 62.5375,
    "lng": 6.1053
  },
  {
    "id": "AANA",
    "name": "Al Ain",
    "lat": 24.25,
    "lng": 55.75
  },
  {
    "id": "AARH",
    "name": "Aarhus",
    "lat": 56.1572,
    "lng": 10.2107
  },
  {
    "id": "AAXA",
    "name": "Araxa",
    "lat": -19.568056,
    "lng": -46.929167
  },
  {
    "id": "AAYA",
    "name": "Al Ghaydah",
    "lat": 16.2,
    "lng": 52.183333
  },
  {
    "id": "ABAK",
    "name": "Abakan",
    "lat": 53.7167,
    "lng": 91.4333
  },
  {
    "id": "ABCA",
    "name": "Albacete",
    "lat": 38.98333,
    "lng": -1.85
  },
  {
    "id": "ABEA",
    "name": "Allentown",
    "lat": 40.654722,
    "lng": -75.438333
  },
  {
    "id": "ABER",
    "name": "Aberdeen",
    "lat": 57.148161,
    "lng": -2.109375
  },
  {
    "id": "ABIA",
    "name": "Abilene",
    "lat": 32.438055,
    "lng": -99.698194
  },
  {
    "id": "ABJA",
    "name": "Abidjan",
    "lat": 5.316667,
    "lng": -4.033333
  },
  {
    "id": "ABKA",
    "name": "Kabri Dar",
    "lat": 6.733889,
    "lng": 44.266111
  },
  {
    "id": "ABLA",
    "name": "Ambler",
    "lat": 67.0875,
    "lng": -157.845833
  },
  {
    "id": "ABMA",
    "name": "Bamaga",
    "lat": -10.866667,
    "lng": 142.4
  },
  {
    "id": "ABQA",
    "name": "Albuquerque",
    "lat": 35.110703,
    "lng": -106.609991
  },
  {
    "id": "ABRA",
    "name": "Aberdeen",
    "lat": 45.462779,
    "lng": -98.485909
  },
  {
    "id": "ABTA",
    "name": "Al-Baha",
    "lat": 20.285556,
    "lng": 41.633333
  },
  {
    "id": "ABUS",
    "name": "Abu Simbel",
    "lat": 22.3667,
    "lng": 31.6167
  },
  {
    "id": "ABVA",
    "name": "Abuja",
    "lat": 9.066667,
    "lng": 7.483333
  },
  {
    "id": "ABXA",
    "name": "Albury",
    "lat": -36.068333,
    "lng": 146.976667
  },
  {
    "id": "ABYA",
    "name": "Albany",
    "lat": 31.557777,
    "lng": -84.181389
  },
  {
    "id": "ACAA",
    "name": "Acapulco",
    "lat": 16.755556,
    "lng": -99.766944
  },
  {
    "id": "ACCA",
    "name": "Accra",
    "lat": 5.595278,
    "lng": -0.170833
  },
  {
    "id": "ACKA",
    "name": "Nantucket",
    "lat": 41.256667,
    "lng": -70.059722
  },
  {
    "id": "ACTA",
    "name": "Waco",
    "lat": 31.551389,
    "lng": -97.155833
  },
  {
    "id": "ACVA",
    "name": "Arcata",
    "lat": 40.866389,
    "lng": -124.082778
  },
  {
    "id": "ACZA",
    "name": "Zabol",
    "lat": 31.085833,
    "lng": 61.535
  },
  {
    "id": "ADAN",
    "name": "Adana",
    "lat": 36.991036,
    "lng": 35.326195
  },
  {
    "id": "ADDA",
    "name": "Addis Ababa",
    "lat": 9.03,
    "lng": 38.74
  },
  {
    "id": "ADEA",
    "name": "Aden",
    "lat": 12.801758,
    "lng": 45.037079
  },
  {
    "id": "ADFA",
    "name": "Adiyaman",
    "lat": 37.75,
    "lng": 38.266667
  },
  {
    "id": "ADLA",
    "name": "Adelaide",
    "lat": -34.948333,
    "lng": 138.534722
  },
  {
    "id": "ADLE",
    "name": "Sochi",
    "lat": 43.45,
    "lng": 39.9333
  },
  {
    "id": "ADQA",
    "name": "Kodiak",
    "lat": 57.781574,
    "lng": -152.417777
  },
  {
    "id": "ADZA",
    "name": "San Andres Island",
    "lat": 12.583333,
    "lng": -81.7
  },
  {
    "id": "AEBA",
    "name": "Baise",
    "lat": 23.7172,
    "lng": 106.9506
  },
  {
    "id": "AEGI",
    "name": "Aek Godang",
    "lat": 1.399722,
    "lng": 99.416667
  },
  {
    "id": "AEIA",
    "name": "Algeciras",
    "lat": 36.183333,
    "lng": -5.45
  },
  {
    "id": "AEXA",
    "name": "Alexandria",
    "lat": 31.364166,
    "lng": -92.423472
  },
  {
    "id": "AFAA",
    "name": "San Rafael",
    "lat": -34.589167,
    "lng": -68.400556
  },
  {
    "id": "AFLA",
    "name": "Alta Floresta",
    "lat": -9.886111,
    "lng": -56.087222
  },
  {
    "id": "AFSA",
    "name": "Zarafshan",
    "lat": 41.584891,
    "lng": 64.206848
  },
  {
    "id": "AFTA",
    "name": "Afutara",
    "lat": -9.2,
    "lng": 160.85
  },
  {
    "id": "AGAD",
    "name": "Agadir",
    "lat": 30.42018,
    "lng": -9.59815
  },
  {
    "id": "AGEN",
    "name": "Agen",
    "lat": 44.204931,
    "lng": 0.621153
  },
  {
    "id": "AGMA",
    "name": "Tasiilaq",
    "lat": 65.6,
    "lng": -37.683333
  },
  {
    "id": "AGNA",
    "name": "Angoon",
    "lat": 57.503889,
    "lng": -134.583333
  },
  {
    "id": "AGRO",
    "name": "Agri",
    "lat": 39.65,
    "lng": 43.025
  },
  {
    "id": "AGSA",
    "name": "Augusta",
    "lat": 33.47097,
    "lng": -81.97484
  },
  {
    "id": "AGTA",
    "name": "Ciudad del Este",
    "lat": -25.51667,
    "lng": -54.61667
  },
  {
    "id": "AGUA",
    "name": "Aguascalientes",
    "lat": 21.876,
    "lng": -102.296
  },
  {
    "id": "AHBA",
    "name": "Abha",
    "lat": 18.223333,
    "lng": 42.507222
  },
  {
    "id": "AHNA",
    "name": "Athens",
    "lat": 33.948333,
    "lng": -83.326944
  },
  {
    "id": "AIAA",
    "name": "Alliance",
    "lat": 42.10163,
    "lng": -102.87214
  },
  {
    "id": "AITC",
    "name": "Aitutaki",
    "lat": -18.85,
    "lng": -159.75
  },
  {
    "id": "AIUC",
    "name": "Atiu Island",
    "lat": -20.01667,
    "lng": -158.11667
  },
  {
    "id": "AIXE",
    "name": "Aix en Provence",
    "lat": 43.531127,
    "lng": 5.454025
  },
  {
    "id": "AIYA",
    "name": "Atlantic City",
    "lat": 39.381111,
    "lng": -74.496851
  },
  {
    "id": "AJAC",
    "name": "Ajaccio",
    "lat": 41.92667,
    "lng": 8.73694
  },
  {
    "id": "AJUA",
    "name": "Aracaju",
    "lat": -10.9167,
    "lng": -37.05
  },
  {
    "id": "AKIA",
    "name": "Akiak",
    "lat": 60.905556,
    "lng": -161.223333
  },
  {
    "id": "AKLN",
    "name": "Auckland",
    "lat": -36.840417,
    "lng": 174.739869
  },
  {
    "id": "AKNA",
    "name": "King Salmon",
    "lat": 58.668611,
    "lng": -156.635556
  },
  {
    "id": "AKRB",
    "name": "Akron",
    "lat": 41.081788,
    "lng": -81.507453
  },
  {
    "id": "AKUR",
    "name": "Akureyri",
    "lat": 65.66667,
    "lng": -18.16667
  },
  {
    "id": "AKXA",
    "name": "Aktyubinsk",
    "lat": 50.25,
    "lng": 57.216667
  },
  {
    "id": "AKYM",
    "name": "Sittwe",
    "lat": 20.146851,
    "lng": 92.898502
  },
  {
    "id": "ALAA",
    "name": "Almaty",
    "lat": 43.2775,
    "lng": 76.895833
  },
  {
    "id": "ALBA",
    "name": "Albany",
    "lat": 42.657697,
    "lng": -73.754654
  },
  {
    "id": "ALBT",
    "name": "Albert",
    "lat": 50.003767,
    "lng": 2.647705
  },
  {
    "id": "ALDE",
    "name": "Alderney",
    "lat": 49.719152,
    "lng": -2.199326
  },
  {
    "id": "ALEX",
    "name": "Alexandria",
    "lat": 31.198,
    "lng": 29.9192
  },
  {
    "id": "ALEY",
    "name": "Alexandroupolis Dimokritos",
    "lat": 40.85,
    "lng": 25.95
  },
  {
    "id": "ALGA",
    "name": "Algiers",
    "lat": 36.7,
    "lng": 3.216667
  },
  {
    "id": "ALGS",
    "name": "Alghero Sardinia",
    "lat": 40,
    "lng": 9
  },
  {
    "id": "ALHA",
    "name": "Albany",
    "lat": -35.0228,
    "lng": 117.8814
  },
  {
    "id": "ALHO",
    "name": "Al Hoceima",
    "lat": 35.25,
    "lng": -3.933333
  },
  {
    "id": "ALIC",
    "name": "Alicante",
    "lat": 38.345278,
    "lng": -0.483056
  },
  {
    "id": "ALME",
    "name": "Almeria",
    "lat": 36.833333,
    "lng": -2.45
  },
  {
    "id": "ALOA",
    "name": "Waterloo",
    "lat": 42.49276,
    "lng": -92.34296
  },
  {
    "id": "ALPA",
    "name": "Aleppo",
    "lat": 36.180833,
    "lng": 37.226667
  },
  {
    "id": "ALSA",
    "name": "Alamosa",
    "lat": 37.474313,
    "lng": -105.867004
  },
  {
    "id": "ALTA",
    "name": "Alta",
    "lat": 69.966791,
    "lng": 23.249817
  },
  {
    "id": "ALTE",
    "name": "Altenburg",
    "lat": 50.45,
    "lng": 13.45
  },
  {
    "id": "ALTF",
    "name": "Altenrhein",
    "lat": 47.4828,
    "lng": 9.5522
  },
  {
    "id": "ALUL",
    "name": "Al `Ula",
    "lat": 26.63333,
    "lng": 37.916667
  },
  {
    "id": "AMAA",
    "name": "Amarillo",
    "lat": 35.221944,
    "lng": -101.777638
  },
  {
    "id": "AMDE",
    "name": "Amderma",
    "lat": 69.7667,
    "lng": 61.55
  },
  {
    "id": "AMHA",
    "name": "Arba Mintch",
    "lat": 6.033333,
    "lng": 37.55
  },
  {
    "id": "AMII",
    "name": "Mataram",
    "lat": -8.56,
    "lng": 116.096944
  },
  {
    "id": "AMMA",
    "name": "Amman",
    "lat": 31.933333,
    "lng": 35.933333
  },
  {
    "id": "AMQI",
    "name": "Ambon",
    "lat": -3.69543,
    "lng": 128.1814
  },
  {
    "id": "AMST",
    "name": "Amsterdam",
    "lat": 52.373056,
    "lng": 4.892222
  },
  {
    "id": "ANAD",
    "name": "Anadyr",
    "lat": 64.733333,
    "lng": 177.516667
  },
  {
    "id": "ANAP",
    "name": "Anapa",
    "lat": 44.9,
    "lng": 37.3167
  },
  {
    "id": "ANCA",
    "name": "Anchorage",
    "lat": 61.217685,
    "lng": -149.89
  },
  {
    "id": "ANCO",
    "name": "Ancona",
    "lat": 43.59816,
    "lng": 13.51008
  },
  {
    "id": "ANDE",
    "name": "Andenes",
    "lat": 69.316667,
    "lng": 16.133333
  },
  {
    "id": "ANFA",
    "name": "Antofagasta",
    "lat": -23.65,
    "lng": -70.4
  },
  {
    "id": "ANGA",
    "name": "Anglesey",
    "lat": 53.258436,
    "lng": -4.31179
  },
  {
    "id": "ANGE",
    "name": "Angers",
    "lat": 47.468718,
    "lng": -0.549316
  },
  {
    "id": "ANIA",
    "name": "Aniak",
    "lat": 61.566667,
    "lng": -159.533333
  },
  {
    "id": "ANKA",
    "name": "Ankara",
    "lat": 39.875,
    "lng": 32.8333
  },
  {
    "id": "ANMA",
    "name": "Antalaha",
    "lat": -14.883333,
    "lng": 50.283333
  },
  {
    "id": "ANNE",
    "name": "Annecy",
    "lat": 45.916,
    "lng": 6.133
  },
  {
    "id": "ANTA",
    "name": "Antalya",
    "lat": 36.88676,
    "lng": 30.703697
  },
  {
    "id": "ANTW",
    "name": "Antwerp",
    "lat": 51.219787,
    "lng": 4.398308
  },
  {
    "id": "AOEA",
    "name": "Eskisehir",
    "lat": 39,
    "lng": 30.5
  },
  {
    "id": "AOOA",
    "name": "Martinsburg",
    "lat": 40.297222,
    "lng": -78.32
  },
  {
    "id": "AORM",
    "name": "Alor Setar",
    "lat": 6.191111,
    "lng": 100.403889
  },
  {
    "id": "APFA",
    "name": "Naples",
    "lat": 26.152778,
    "lng": -81.775278
  },
  {
    "id": "APLA",
    "name": "Nampula",
    "lat": -15.101667,
    "lng": 39.287222
  },
  {
    "id": "APNA",
    "name": "Alpena",
    "lat": 45.081667,
    "lng": -83.555833
  },
  {
    "id": "APWW",
    "name": "Apia",
    "lat": -13.833333,
    "lng": -171.766667
  },
  {
    "id": "AQJA",
    "name": "Aqaba",
    "lat": 29.516667,
    "lng": 35
  },
  {
    "id": "AQPA",
    "name": "Arequipa",
    "lat": -16.337778,
    "lng": -71.555
  },
  {
    "id": "ARAX",
    "name": "Araxos",
    "lat": 38.25,
    "lng": 21.733
  },
  {
    "id": "ARCA",
    "name": "Arctic Village",
    "lat": 68.1375,
    "lng": -145.524444
  },
  {
    "id": "ARIA",
    "name": "Arica",
    "lat": -18.483333,
    "lng": -70.333333
  },
  {
    "id": "ARKA",
    "name": "Arusha",
    "lat": -3.366667,
    "lng": 36.683333
  },
  {
    "id": "ARKH",
    "name": "Arkhangelsk",
    "lat": 64.5667,
    "lng": 40.5333
  },
  {
    "id": "ARMA",
    "name": "Armidale",
    "lat": -30.528333,
    "lng": 151.623333
  },
  {
    "id": "ARRE",
    "name": "Lanzarote",
    "lat": 28.57,
    "lng": -13.37
  },
  {
    "id": "ARTA",
    "name": "Watertown",
    "lat": 44,
    "lng": -76
  },
  {
    "id": "ARVI",
    "name": "Arvidsjaur",
    "lat": 65.5753,
    "lng": 19.2856
  },
  {
    "id": "ASBA",
    "name": "Ashgabat",
    "lat": 37.981667,
    "lng": 58.360833
  },
  {
    "id": "ASDA",
    "name": "Andros Town",
    "lat": 24.697778,
    "lng": -77.796111
  },
  {
    "id": "ASEA",
    "name": "Aspen",
    "lat": 39.224167,
    "lng": -106.868889
  },
  {
    "id": "ASMA",
    "name": "Asmara",
    "lat": 15.291111,
    "lng": 38.910278
  },
  {
    "id": "ASOA",
    "name": "Asosa",
    "lat": 10.066667,
    "lng": 34.516667
  },
  {
    "id": "ASPA",
    "name": "Alice Springs",
    "lat": -23.7,
    "lng": 133.87
  },
  {
    "id": "ASSI",
    "name": "Assiut",
    "lat": 27.194793,
    "lng": 31.181946
  },
  {
    "id": "ASTR",
    "name": "Astrakhan",
    "lat": 46.35,
    "lng": 48.05
  },
  {
    "id": "ASTY",
    "name": "Astypalaia",
    "lat": 36.566667,
    "lng": 26.366667
  },
  {
    "id": "ASUA",
    "name": "Asuncion",
    "lat": -25.282197,
    "lng": -57.6351
  },
  {
    "id": "ASWA",
    "name": "Aswan Daraw",
    "lat": 24.0833,
    "lng": 32.8833
  },
  {
    "id": "ATCA",
    "name": "Arthur's Town",
    "lat": 24.628611,
    "lng": -75.671389
  },
  {
    "id": "ATHE",
    "name": "Athens",
    "lat": 37.897916,
    "lng": 23.730555
  },
  {
    "id": "ATLA",
    "name": "Atlanta",
    "lat": 33.730476,
    "lng": -84.41996
  },
  {
    "id": "ATWA",
    "name": "Appleton",
    "lat": 44.258889,
    "lng": -88.521111
  },
  {
    "id": "AUAA",
    "name": "Oranjestad",
    "lat": 12.502222,
    "lng": -70.013889
  },
  {
    "id": "AUGA",
    "name": "Augusta",
    "lat": 44.318056,
    "lng": -69.796667
  },
  {
    "id": "AUGS",
    "name": "Augsburg",
    "lat": 48.366667,
    "lng": 10.9
  },
  {
    "id": "AUHA",
    "name": "Abu Dhabi",
    "lat": 24.466667,
    "lng": 54.366667
  },
  {
    "id": "AUKA",
    "name": "Alakanuk",
    "lat": 62.689167,
    "lng": -164.610833
  },
  {
    "id": "AURI",
    "name": "Aurillac Tronquiere",
    "lat": 44.875,
    "lng": 2.4167
  },
  {
    "id": "AUSA",
    "name": "Austin",
    "lat": 30.241666,
    "lng": -97.708333
  },
  {
    "id": "AUUA",
    "name": "Aurukun Mission",
    "lat": -13.166667,
    "lng": 142.25
  },
  {
    "id": "AUWA",
    "name": "Wausau",
    "lat": 44.95,
    "lng": -89.633333
  },
  {
    "id": "AUYV",
    "name": "Aneityum",
    "lat": -20.225154,
    "lng": 169.772415
  },
  {
    "id": "AVIG",
    "name": "Avignon",
    "lat": 43.9,
    "lng": 4.9
  },
  {
    "id": "AVIL",
    "name": "Asturias",
    "lat": 43.55651,
    "lng": -5.926781
  },
  {
    "id": "AVLA",
    "name": "Asheville",
    "lat": 35.58,
    "lng": -82.555833
  },
  {
    "id": "AVPA",
    "name": "Wilkes-Barre",
    "lat": 41.244444,
    "lng": -75.878056
  },
  {
    "id": "AWZA",
    "name": "Ahvaz",
    "lat": 31.337778,
    "lng": 48.759722
  },
  {
    "id": "AXAA",
    "name": "The Valley",
    "lat": 18.216667,
    "lng": -63.066667
  },
  {
    "id": "AXMA",
    "name": "Armenia",
    "lat": 4.45,
    "lng": -75.766667
  },
  {
    "id": "AXPA",
    "name": "Spring Point",
    "lat": 22.441667,
    "lng": -73.970833
  },
  {
    "id": "AXUA",
    "name": "Axum",
    "lat": 14.120833,
    "lng": 38.716667
  },
  {
    "id": "AYQA",
    "name": "Ayers Rock",
    "lat": -25.333333,
    "lng": 131.05
  },
  {
    "id": "AZDA",
    "name": "Yazd",
    "lat": 31.897778,
    "lng": 54.281667
  },
  {
    "id": "AZOA",
    "name": "Kalamazoo",
    "lat": 42.236389,
    "lng": -85.553611
  },
  {
    "id": "AZRA",
    "name": "Adrar",
    "lat": 27.883333,
    "lng": -0.283333
  },
  {
    "id": "BACA",
    "name": "Bacau",
    "lat": 46.521946,
    "lng": 26.910278
  },
  {
    "id": "BADA",
    "name": "Badajoz Talaveral",
    "lat": 38.878889,
    "lng": -6.966944
  },
  {
    "id": "BADE",
    "name": "Baden-Baden",
    "lat": 48.762778,
    "lng": 8.240833
  },
  {
    "id": "BAHA",
    "name": "Bahrain",
    "lat": 26.270833,
    "lng": 50.6375
  },
  {
    "id": "BAIA",
    "name": "Baia Mare",
    "lat": 47.65,
    "lng": 23.466667
  },
  {
    "id": "BAKA",
    "name": "Baku",
    "lat": 40.395278,
    "lng": 49.882222
  },
  {
    "id": "BALI",
    "name": "Balikesir",
    "lat": 39.6167,
    "lng": 27.9333
  },
  {
    "id": "BANJ",
    "name": "Banja Luka",
    "lat": 44.7667,
    "lng": 17.1833
  },
  {
    "id": "BAQA",
    "name": "Barranquilla",
    "lat": 10.896111,
    "lng": -74.778889
  },
  {
    "id": "BARC",
    "name": "Barcelona",
    "lat": 41.383333,
    "lng": 2.183333
  },
  {
    "id": "BARD",
    "name": "Bardufoss",
    "lat": 69.05,
    "lng": 18.5333
  },
  {
    "id": "BARI",
    "name": "Bari",
    "lat": 41.124884,
    "lng": 16.872253
  },
  {
    "id": "BARN",
    "name": "Barnaul",
    "lat": 53.3667,
    "lng": 83.75
  },
  {
    "id": "BARR",
    "name": "Barra",
    "lat": 57.012702,
    "lng": -7.425385
  },
  {
    "id": "BASA",
    "name": "Balalae",
    "lat": -6.983333,
    "lng": 155.883333
  },
  {
    "id": "BASE",
    "name": "Basel",
    "lat": 47.566667,
    "lng": 7.6
  },
  {
    "id": "BAST",
    "name": "Bastia - Corsica",
    "lat": 42.70083,
    "lng": 9.45028
  },
  {
    "id": "BATM",
    "name": "Batman",
    "lat": 37.8667,
    "lng": 41.1167
  },
  {
    "id": "BAUA",
    "name": "Bauru",
    "lat": -22.343056,
    "lng": -49.0525
  },
  {
    "id": "BAZA",
    "name": "Barbelos",
    "lat": -0.966944,
    "lng": -62.933611
  },
  {
    "id": "BBAA",
    "name": "Balmaceda",
    "lat": -45.916389,
    "lng": -71.686944
  },
  {
    "id": "BBNM",
    "name": "Bario",
    "lat": 3.683333,
    "lng": 115.466667
  },
  {
    "id": "BBOA",
    "name": "Berbera",
    "lat": 10.389167,
    "lng": 44.940833
  },
  {
    "id": "BCAA",
    "name": "Baracoa",
    "lat": 20.364722,
    "lng": -74.506667
  },
  {
    "id": "BCEA",
    "name": "Bryce",
    "lat": 37.701111,
    "lng": -112.135278
  },
  {
    "id": "BCIA",
    "name": "Barcaldine",
    "lat": -23.559167,
    "lng": 145.301944
  },
  {
    "id": "BDAA",
    "name": "Hamilton",
    "lat": 32.557639,
    "lng": -64.845
  },
  {
    "id": "BDBA",
    "name": "Bundaberg",
    "lat": -24.905833,
    "lng": 152.320833
  },
  {
    "id": "BDHA",
    "name": "Bandar Lengeh",
    "lat": 26.55,
    "lng": 54.883333
  },
  {
    "id": "BDPA",
    "name": "Bhadrapur",
    "lat": 26.533333,
    "lng": 88.083333
  },
  {
    "id": "BEIR",
    "name": "Beirut",
    "lat": 33.8872,
    "lng": 35.5134
  },
  {
    "id": "BELA",
    "name": "Belem",
    "lat": -1.45,
    "lng": -48.483333
  },
  {
    "id": "BELF",
    "name": "Belfast",
    "lat": 54.635,
    "lng": -6.054027
  },
  {
    "id": "BELH",
    "name": "Belgorod",
    "lat": 50.6333,
    "lng": 36.65
  },
  {
    "id": "BELI",
    "name": "Belgrade",
    "lat": 44.8333,
    "lng": 20.5
  },
  {
    "id": "BENA",
    "name": "Benghazi",
    "lat": 32.116667,
    "lng": 20.066667
  },
  {
    "id": "BENB",
    "name": "Benbecula",
    "lat": 57.441254,
    "lng": -7.303162
  },
  {
    "id": "BERG",
    "name": "Bergerac",
    "lat": 44.859276,
    "lng": 0.483055
  },
  {
    "id": "BERI",
    "name": "Bergen",
    "lat": 60.389444,
    "lng": 5.33
  },
  {
    "id": "BERL",
    "name": "Berlin",
    "lat": 52.500556,
    "lng": 13.398889
  },
  {
    "id": "BERM",
    "name": "Berlevag",
    "lat": 70.858187,
    "lng": 29.085789
  },
  {
    "id": "BERN",
    "name": "Bern",
    "lat": 46.95,
    "lng": 7.45
  },
  {
    "id": "BETA",
    "name": "Bethel",
    "lat": 60.792222,
    "lng": -161.790694
  },
  {
    "id": "BEUA",
    "name": "Bedourie",
    "lat": -24.35,
    "lng": 139.466667
  },
  {
    "id": "BEWA",
    "name": "Beira",
    "lat": -19.794444,
    "lng": 34.911944
  },
  {
    "id": "BEXI",
    "name": "Beziers",
    "lat": 43.347615,
    "lng": 3.218991
  },
  {
    "id": "BFDA",
    "name": "Bradford",
    "lat": 41.959167,
    "lng": -78.644722
  },
  {
    "id": "BFFA",
    "name": "Scottsbluff",
    "lat": 41.875278,
    "lng": -103.601111
  },
  {
    "id": "BFLA",
    "name": "Bakersfield",
    "lat": 35.43,
    "lng": -119.052222
  },
  {
    "id": "BFNA",
    "name": "Bloemfontein",
    "lat": -29.1,
    "lng": 26.216667
  },
  {
    "id": "BFQA",
    "name": "Bahia Pinas",
    "lat": 7.583333,
    "lng": -78.166667
  },
  {
    "id": "BFVT",
    "name": "Buri Ram",
    "lat": 15.226944,
    "lng": 103.255278
  },
  {
    "id": "BFWA",
    "name": "Sidi Belabbes",
    "lat": 35.171667,
    "lng": -0.589444
  },
  {
    "id": "BGAA",
    "name": "Bucaramanga",
    "lat": 7.107222,
    "lng": -73.128056
  },
  {
    "id": "BGFA",
    "name": "Bangui",
    "lat": 4.397778,
    "lng": 18.519722
  },
  {
    "id": "BGIA",
    "name": "Bridgetown",
    "lat": 13.0947,
    "lng": -59.6175
  },
  {
    "id": "BGMA",
    "name": "Binghamton",
    "lat": 42.102222,
    "lng": -75.911667
  },
  {
    "id": "BGRA",
    "name": "Bangor",
    "lat": 44.807778,
    "lng": -68.827778
  },
  {
    "id": "BGWA",
    "name": "Baghdad",
    "lat": 33.261111,
    "lng": 44.3625
  },
  {
    "id": "BHEN",
    "name": "Blenheim",
    "lat": -41.516667,
    "lng": 173.872222
  },
  {
    "id": "BHGA",
    "name": "Brus Laguna",
    "lat": 15.734722,
    "lng": -84.543333
  },
  {
    "id": "BHHA",
    "name": "Bisha",
    "lat": 19.984183,
    "lng": 42.623269
  },
  {
    "id": "BHIA",
    "name": "Bahia Blanca",
    "lat": -38.716667,
    "lng": -62.266667
  },
  {
    "id": "BHKA",
    "name": "Bukhara",
    "lat": 39.766667,
    "lng": 64.483333
  },
  {
    "id": "BHMA",
    "name": "Birmingham",
    "lat": 33.52066,
    "lng": -86.80249
  },
  {
    "id": "BHQA",
    "name": "Broken Hill",
    "lat": -32.001667,
    "lng": 141.466667
  },
  {
    "id": "BHRA",
    "name": "Bharatpur",
    "lat": 27.676389,
    "lng": 84.4325
  },
  {
    "id": "BHSA",
    "name": "Bathurst",
    "lat": -33.409167,
    "lng": 149.653333
  },
  {
    "id": "BHVA",
    "name": "Bahawalpur",
    "lat": 29.4,
    "lng": 71.683333
  },
  {
    "id": "BHZA",
    "name": "Belo Horizonte",
    "lat": -19.92083,
    "lng": -43.93778
  },
  {
    "id": "BIAR",
    "name": "Biarritz",
    "lat": 43.481667,
    "lng": -1.556111
  },
  {
    "id": "BICA",
    "name": "Big Creek",
    "lat": 58.3,
    "lng": -157.516667
  },
  {
    "id": "BIDA",
    "name": "Block Island",
    "lat": 41.166667,
    "lng": -71.579167
  },
  {
    "id": "BIKI",
    "name": "Biak",
    "lat": -1.191944,
    "lng": 136.11
  },
  {
    "id": "BILA",
    "name": "Billings",
    "lat": 45.806944,
    "lng": -108.542778
  },
  {
    "id": "BILB",
    "name": "Bilbao",
    "lat": 43.16,
    "lng": -2.56
  },
  {
    "id": "BILL",
    "name": "Billund",
    "lat": 55.730833,
    "lng": 9.115278
  },
  {
    "id": "BIMA",
    "name": "Bimini",
    "lat": 25.7375,
    "lng": -79.266666
  },
  {
    "id": "BIRA",
    "name": "Biratnagar",
    "lat": 26.434722,
    "lng": 87.283333
  },
  {
    "id": "BIRM",
    "name": "Birmingham",
    "lat": 52.493651,
    "lng": -1.894455
  },
  {
    "id": "BISA",
    "name": "Bismarck",
    "lat": 46.80833,
    "lng": -100.78374
  },
  {
    "id": "BJAA",
    "name": "Bejaia",
    "lat": 36.75,
    "lng": 5.083333
  },
  {
    "id": "BJBA",
    "name": "Bojnord",
    "lat": 37.488333,
    "lng": 57.305556
  },
  {
    "id": "BJIA",
    "name": "Bemidji",
    "lat": 47.509722,
    "lng": -94.934722
  },
  {
    "id": "BJLA",
    "name": "Banjul",
    "lat": 13.35,
    "lng": -16.666667
  },
  {
    "id": "BJMA",
    "name": "Bujumbura",
    "lat": -3.383333,
    "lng": 29.366667
  },
  {
    "id": "BJRA",
    "name": "Bahar Dar",
    "lat": 11.583333,
    "lng": 37.316667
  },
  {
    "id": "BJSA",
    "name": "Beijing",
    "lat": 39.913889,
    "lng": 116.391667
  },
  {
    "id": "BJTA",
    "name": "Bentota River",
    "lat": 6.483333,
    "lng": 79.983333
  },
  {
    "id": "BJXS",
    "name": "Silao",
    "lat": 20.94092,
    "lng": -101.431274
  },
  {
    "id": "BKIM",
    "name": "Kota Kinabalu",
    "lat": 5.940833,
    "lng": 116.05
  },
  {
    "id": "BKKT",
    "name": "Bangkok",
    "lat": 13.689689,
    "lng": 100.742483
  },
  {
    "id": "BKOA",
    "name": "Bamako",
    "lat": 12.652231,
    "lng": -8.001394
  },
  {
    "id": "BKWA",
    "name": "Beckley",
    "lat": 37.781944,
    "lng": -81.124167
  },
  {
    "id": "BLAA",
    "name": "Barcelona",
    "lat": 10.109722,
    "lng": -64.6875
  },
  {
    "id": "BLAC",
    "name": "Blackpool",
    "lat": 53.771944,
    "lng": -3.036111
  },
  {
    "id": "BLIA",
    "name": "Bellingham",
    "lat": 48.794444,
    "lng": -122.534722
  },
  {
    "id": "BLJA",
    "name": "Batna",
    "lat": 35.566667,
    "lng": 6.183333
  },
  {
    "id": "BLZA",
    "name": "Blantyre",
    "lat": -15.786111,
    "lng": 35.005833
  },
  {
    "id": "BMEA",
    "name": "Broome",
    "lat": -17.96667,
    "lng": 122.23333
  },
  {
    "id": "BMGA",
    "name": "Bloomington",
    "lat": 39.16532,
    "lng": -86.52639
  },
  {
    "id": "BMIA",
    "name": "Bloomington-Normal",
    "lat": 40.481944,
    "lng": -88.9275
  },
  {
    "id": "BMOM",
    "name": "Bhamo",
    "lat": 24.273889,
    "lng": 97.251667
  },
  {
    "id": "BMWA",
    "name": "Bordj Badji Mokhtar",
    "lat": 21.316667,
    "lng": 1.033333
  },
  {
    "id": "BNAA",
    "name": "Nashville",
    "lat": 36.16589,
    "lng": -86.78444
  },
  {
    "id": "BNCA",
    "name": "Beni",
    "lat": 0.566667,
    "lng": 29.466667
  },
  {
    "id": "BNEA",
    "name": "Brisbane",
    "lat": -27.425,
    "lng": 153.085556
  },
  {
    "id": "BNIA",
    "name": "Benin City",
    "lat": 6.341232,
    "lng": 5.633583
  },
  {
    "id": "BNKA",
    "name": "Ballina",
    "lat": -28.833333,
    "lng": 153.55
  },
  {
    "id": "BNSA",
    "name": "Barinas",
    "lat": 8.618056,
    "lng": -70.221111
  },
  {
    "id": "BOBP",
    "name": "Bora Bora",
    "lat": -16.443056,
    "lng": -151.748333
  },
  {
    "id": "BOCA",
    "name": "Bocas Del Toro",
    "lat": 9.34,
    "lng": -82.251389
  },
  {
    "id": "BODO",
    "name": "Bodo",
    "lat": 67.305556,
    "lng": 14.549167
  },
  {
    "id": "BODR",
    "name": "Bodrum",
    "lat": 37.033333,
    "lng": 27.433333
  },
  {
    "id": "BODS",
    "name": "Bodrum Imsik",
    "lat": 37.1319,
    "lng": 27.6672
  },
  {
    "id": "BOGA",
    "name": "Bogota",
    "lat": 4.598056,
    "lng": -74.075833
  },
  {
    "id": "BOIA",
    "name": "Boise",
    "lat": 43.565278,
    "lng": -116.225
  },
  {
    "id": "BOLL",
    "name": "Bol",
    "lat": 43.26194,
    "lng": 16.655
  },
  {
    "id": "BOLO",
    "name": "Bologna",
    "lat": 44.362917,
    "lng": 11.680555
  },
  {
    "id": "BOLZ",
    "name": "Bolzano",
    "lat": 46.45,
    "lng": 11.3167
  },
  {
    "id": "BONA",
    "name": "Bonaire",
    "lat": 12.134167,
    "lng": -68.273333
  },
  {
    "id": "BORD",
    "name": "Bordeaux",
    "lat": 44.5,
    "lng": 0.36
  },
  {
    "id": "BORL",
    "name": "Borlange Dala",
    "lat": 60.49038,
    "lng": 15.430298
  },
  {
    "id": "BOSA",
    "name": "Boston",
    "lat": 42.354444,
    "lng": -71.027361
  },
  {
    "id": "BOUR",
    "name": "Bournemouth",
    "lat": 50.726676,
    "lng": -1.877975
  },
  {
    "id": "BOXA",
    "name": "Borroloola",
    "lat": -16.066667,
    "lng": 136.283333
  },
  {
    "id": "BOYA",
    "name": "Bobo Dioulasso",
    "lat": 11.163611,
    "lng": -4.324444
  },
  {
    "id": "BPNI",
    "name": "Balikpapan",
    "lat": -1.267222,
    "lng": 116.893889
  },
  {
    "id": "BPSA",
    "name": "Porto Seguro",
    "lat": -16.533333,
    "lng": -39.083333
  },
  {
    "id": "BPTA",
    "name": "Beaumont",
    "lat": 30.041666,
    "lng": -94.05
  },
  {
    "id": "BQNA",
    "name": "Aguadilla",
    "lat": 18.495833,
    "lng": -67.13
  },
  {
    "id": "BQTA",
    "name": "Brest",
    "lat": 52.133333,
    "lng": 23.666667
  },
  {
    "id": "BRAA",
    "name": "Barreiras",
    "lat": -12.073056,
    "lng": -45.008333
  },
  {
    "id": "BRAS",
    "name": "Bratislava",
    "lat": 48.166667,
    "lng": 17.216667
  },
  {
    "id": "BRAT",
    "name": "Bratsk",
    "lat": 56.116667,
    "lng": 101.6
  },
  {
    "id": "BRAU",
    "name": "Braunschweig",
    "lat": 52.266667,
    "lng": 10.516667
  },
  {
    "id": "BRCA",
    "name": "San Carlos DeBariloche",
    "lat": -41.15,
    "lng": -71.3
  },
  {
    "id": "BREM",
    "name": "Bremen",
    "lat": 53.075833,
    "lng": 8.8075
  },
  {
    "id": "BRES",
    "name": "Brest",
    "lat": 48.390834,
    "lng": -4.485556
  },
  {
    "id": "BRIN",
    "name": "Brindisi",
    "lat": 40.62773,
    "lng": 17.93682
  },
  {
    "id": "BRIS",
    "name": "Bristol",
    "lat": 51.461708,
    "lng": -2.593803
  },
  {
    "id": "BRLA",
    "name": "Burlington",
    "lat": 40.810691,
    "lng": -91.119232
  },
  {
    "id": "BRMA",
    "name": "Barquisimeto",
    "lat": 10.063611,
    "lng": -69.334722
  },
  {
    "id": "BRNO",
    "name": "Brno",
    "lat": 49.191128,
    "lng": 16.609955
  },
  {
    "id": "BROA",
    "name": "Brownsville",
    "lat": 25.90175,
    "lng": -97.49748
  },
  {
    "id": "BRON",
    "name": "Bronnoysund Bronnoy",
    "lat": 65.474299,
    "lng": 12.208214
  },
  {
    "id": "BRUS",
    "name": "Brussels",
    "lat": 50.850174,
    "lng": 4.364319
  },
  {
    "id": "BRWA",
    "name": "Barrow",
    "lat": 71.283333,
    "lng": -156.768055
  },
  {
    "id": "BSAA",
    "name": "Bossaso",
    "lat": 11.283333,
    "lng": 49.15
  },
  {
    "id": "BSBA",
    "name": "Brasilia",
    "lat": -15.860556,
    "lng": -47.915278
  },
  {
    "id": "BSCA",
    "name": "Bahia Solano",
    "lat": 6.202778,
    "lng": -77.394444
  },
  {
    "id": "BSGA",
    "name": "Bata",
    "lat": 1.905278,
    "lng": 9.805556
  },
  {
    "id": "BSKA",
    "name": "Biskra",
    "lat": 34.793333,
    "lng": 5.738056
  },
  {
    "id": "BSOP",
    "name": "Basco",
    "lat": 20.453056,
    "lng": 121.977778
  },
  {
    "id": "BSRA",
    "name": "Basra",
    "lat": 30.555556,
    "lng": 47.791389
  },
  {
    "id": "BSXM",
    "name": "Bassein",
    "lat": 16.8,
    "lng": 94.783333
  },
  {
    "id": "BTIA",
    "name": "Barter Island",
    "lat": 70.134065,
    "lng": -143.625984
  },
  {
    "id": "BTJI",
    "name": "Banda Aceh",
    "lat": 5.516944,
    "lng": 95.42
  },
  {
    "id": "BTMA",
    "name": "Butte",
    "lat": 46.006389,
    "lng": -112.529722
  },
  {
    "id": "BTRA",
    "name": "Baton Rouge",
    "lat": 30.490833,
    "lng": -91.166944
  },
  {
    "id": "BTUM",
    "name": "Bintulu",
    "lat": 3.175,
    "lng": 113.043056
  },
  {
    "id": "BTVA",
    "name": "Burlington",
    "lat": 44.477891,
    "lng": -73.214607
  },
  {
    "id": "BUCA",
    "name": "Burketown",
    "lat": -17.75,
    "lng": 139.533333
  },
  {
    "id": "BUCH",
    "name": "Bucharest",
    "lat": 44.43427,
    "lng": 26.108322
  },
  {
    "id": "BUDA",
    "name": "Budapest",
    "lat": 47.3,
    "lng": 19.03
  },
  {
    "id": "BUEA",
    "name": "Buenos Aires",
    "lat": -34.603333,
    "lng": -58.381667
  },
  {
    "id": "BUFA",
    "name": "Buffalo",
    "lat": 42.886027,
    "lng": -78.879776
  },
  {
    "id": "BUGU",
    "name": "Bugulma",
    "lat": 54.6167,
    "lng": 52.8167
  },
  {
    "id": "BULP",
    "name": "Bulolo",
    "lat": -7.189722,
    "lng": 146.647778
  },
  {
    "id": "BUQA",
    "name": "Bulawayo",
    "lat": -20.17,
    "lng": 28.58
  },
  {
    "id": "BURA",
    "name": "Burbank",
    "lat": 34.2,
    "lng": -118.357778
  },
  {
    "id": "BURG",
    "name": "Bourgas",
    "lat": 42.5,
    "lng": 27.466667
  },
  {
    "id": "BUSA",
    "name": "Batumi",
    "lat": 41.610833,
    "lng": 41.600556
  },
  {
    "id": "BUXA",
    "name": "Bunia",
    "lat": 1.56667,
    "lng": 30.25
  },
  {
    "id": "BVBA",
    "name": "Boa Vista",
    "lat": 2.833333,
    "lng": -60.666667
  },
  {
    "id": "BVCA",
    "name": "Boa Vista",
    "lat": 16.136667,
    "lng": -22.888889
  },
  {
    "id": "BVIA",
    "name": "Birdsville",
    "lat": -25.898333,
    "lng": 139.343333
  },
  {
    "id": "BWIA",
    "name": "Baltimore",
    "lat": 39.25463,
    "lng": -76.611018
  },
  {
    "id": "BWNA",
    "name": "Bandar Seri Begawan",
    "lat": 4.925,
    "lng": 114.927778
  },
  {
    "id": "BWTA",
    "name": "Burnie",
    "lat": -41.063611,
    "lng": 145.891944
  },
  {
    "id": "BYCA",
    "name": "Yacuiba",
    "lat": -21.94972,
    "lng": -63.64972
  },
  {
    "id": "BYDG",
    "name": "Bydgoszcz",
    "lat": 53.123084,
    "lng": 17.992859
  },
  {
    "id": "BYOA",
    "name": "Bonito",
    "lat": -21.229444,
    "lng": -56.456111
  },
  {
    "id": "BZEA",
    "name": "Belize City",
    "lat": 17.483333,
    "lng": -88.183333
  },
  {
    "id": "BZNA",
    "name": "Bozeman",
    "lat": 45.677778,
    "lng": -111.047222
  },
  {
    "id": "BZVA",
    "name": "Brazzaville",
    "lat": -4.26583,
    "lng": 15.28318
  },
  {
    "id": "BZZA",
    "name": "Brize Norton",
    "lat": 51.76614,
    "lng": -1.566238
  },
  {
    "id": "CAAT",
    "name": "Altay",
    "lat": 43.933333,
    "lng": 89.5
  },
  {
    "id": "CABA",
    "name": "Cabinda",
    "lat": -5.583333,
    "lng": 12.2
  },
  {
    "id": "CACA",
    "name": "Cascavel",
    "lat": -24.95,
    "lng": -53.466667
  },
  {
    "id": "CACX",
    "name": "Xingyi",
    "lat": 25.085556,
    "lng": 104.959444
  },
  {
    "id": "CAEA",
    "name": "Columbia",
    "lat": 34.00071,
    "lng": -81.03481
  },
  {
    "id": "CAEN",
    "name": "Caen",
    "lat": 49.183056,
    "lng": -0.369444
  },
  {
    "id": "CAGL",
    "name": "Cagliari",
    "lat": 39.217093,
    "lng": 9.109726
  },
  {
    "id": "CAHV",
    "name": "Ca Mau",
    "lat": 9.175556,
    "lng": 105.179444
  },
  {
    "id": "CAIR",
    "name": "Cairo",
    "lat": 30.053643,
    "lng": 31.227264
  },
  {
    "id": "CAJA",
    "name": "Canaima",
    "lat": 6.241586,
    "lng": -62.855873
  },
  {
    "id": "CALV",
    "name": "Calvi",
    "lat": 42.568611,
    "lng": 8.756944
  },
  {
    "id": "CAMP",
    "name": "Campbeltown",
    "lat": 55.441111,
    "lng": -5.709444
  },
  {
    "id": "CANN",
    "name": "Cannes",
    "lat": 43.54846,
    "lng": 6.98335
  },
  {
    "id": "CAPA",
    "name": "Cap Haitien",
    "lat": 19.733333,
    "lng": -72.2
  },
  {
    "id": "CAPR",
    "name": "Capri",
    "lat": 40.55073,
    "lng": 14.24263
  },
  {
    "id": "CAQG",
    "name": "Anqing",
    "lat": 30.516667,
    "lng": 117.033333
  },
  {
    "id": "CARC",
    "name": "Carcassonne",
    "lat": 43.21306,
    "lng": 2.352028
  },
  {
    "id": "CARD",
    "name": "Cardiff",
    "lat": 51.486942,
    "lng": -3.180542
  },
  {
    "id": "CASA",
    "name": "Casablanca",
    "lat": 33.533333,
    "lng": -7.583333
  },
  {
    "id": "CAST",
    "name": "Castletown",
    "lat": 54.074372,
    "lng": -4.654422
  },
  {
    "id": "CASU",
    "name": "Castres Mazamet",
    "lat": 43.5442,
    "lng": 2.2856
  },
  {
    "id": "CATA",
    "name": "Catania",
    "lat": 37.503189,
    "lng": 15.087662
  },
  {
    "id": "CAVA",
    "name": "An Shun",
    "lat": 26.257222,
    "lng": 105.872778
  },
  {
    "id": "CAYA",
    "name": "Cayenne",
    "lat": 4.9227,
    "lng": -52.3269
  },
  {
    "id": "CBAV",
    "name": "Baotou",
    "lat": 40.650833,
    "lng": 109.841944
  },
  {
    "id": "CBBA",
    "name": "Cochabamba",
    "lat": -17.428333,
    "lng": -66.171667
  },
  {
    "id": "CBGA",
    "name": "Cambridge",
    "lat": 52.2,
    "lng": 0.11667
  },
  {
    "id": "CBHY",
    "name": "Beihai",
    "lat": 21.483333,
    "lng": 109.083333
  },
  {
    "id": "CBIA",
    "name": "Cape Barren Island",
    "lat": -40.402,
    "lng": 147.991
  },
  {
    "id": "CBOP",
    "name": "Cotabato",
    "lat": 7.16667,
    "lng": 124.21639
  },
  {
    "id": "CBQA",
    "name": "Calabar",
    "lat": 4.975556,
    "lng": 8.348056
  },
  {
    "id": "CBRA",
    "name": "Canberra",
    "lat": -35.308889,
    "lng": 149.195
  },
  {
    "id": "CBSD",
    "name": "Baoshan",
    "lat": 25.15,
    "lng": 99.15
  },
  {
    "id": "CBTA",
    "name": "Catumbela",
    "lat": -12.483333,
    "lng": 13.483333
  },
  {
    "id": "CCAN",
    "name": "Guangzhou",
    "lat": 23.183333,
    "lng": 113.266111
  },
  {
    "id": "CCCA",
    "name": "Cayo Coco",
    "lat": 22.5125,
    "lng": -78.508333
  },
  {
    "id": "CCGD",
    "name": "Changde",
    "lat": 29.066667,
    "lng": 111.583333
  },
  {
    "id": "CCGO",
    "name": "Zhengzhou",
    "lat": 34.8,
    "lng": 113.65
  },
  {
    "id": "CCGQ",
    "name": "Changchun",
    "lat": 43.883333,
    "lng": 125.316667
  },
  {
    "id": "CCHG",
    "name": "Chaoyang",
    "lat": 42,
    "lng": 121
  },
  {
    "id": "CCIF",
    "name": "Chifeng",
    "lat": 42.283333,
    "lng": 118.933333
  },
  {
    "id": "CCIH",
    "name": "Changzhi",
    "lat": 36.183333,
    "lng": 113.133333
  },
  {
    "id": "CCKG",
    "name": "Chongqing",
    "lat": 29.558333,
    "lng": 106.566667
  },
  {
    "id": "CCNA",
    "name": "Chakcharan",
    "lat": 34.533333,
    "lng": 65.266667
  },
  {
    "id": "CCPA",
    "name": "Concepcion",
    "lat": -36.768333,
    "lng": -73.06
  },
  {
    "id": "CCSA",
    "name": "Caracas",
    "lat": 10.5,
    "lng": -66.916667
  },
  {
    "id": "CCSX",
    "name": "Changsha",
    "lat": 28.186667,
    "lng": 113.221667
  },
  {
    "id": "CCTU",
    "name": "Chengdu",
    "lat": 30.659722,
    "lng": 104.063333
  },
  {
    "id": "CCVV",
    "name": "Craig Cove",
    "lat": -16.181046,
    "lng": 167.474899
  },
  {
    "id": "CCZX",
    "name": "Changzhou",
    "lat": 31.7,
    "lng": 119.966667
  },
  {
    "id": "CDAT",
    "name": "Datong",
    "lat": 30.8,
    "lng": 117.733333
  },
  {
    "id": "CDAX",
    "name": "Daxian",
    "lat": 31.3,
    "lng": 107.5
  },
  {
    "id": "CDCA",
    "name": "Cedar City",
    "lat": 37.7025,
    "lng": -113.096111
  },
  {
    "id": "CDDG",
    "name": "Dandong",
    "lat": 40.116667,
    "lng": 124.383333
  },
  {
    "id": "CDJA",
    "name": "Conceicao Do Araguaia",
    "lat": -8.233333,
    "lng": -49.283333
  },
  {
    "id": "CDLC",
    "name": "Dalian",
    "lat": 38.91222,
    "lng": 121.60222
  },
  {
    "id": "CDLU",
    "name": "Dali City",
    "lat": 25.666667,
    "lng": 100.316667
  },
  {
    "id": "CDOY",
    "name": "Dongying",
    "lat": 37.518333,
    "lng": 118.787778
  },
  {
    "id": "CDVA",
    "name": "Cordova",
    "lat": 60.521528,
    "lng": -145.61
  },
  {
    "id": "CEBP",
    "name": "Cebu",
    "lat": 10.331667,
    "lng": 123.906667
  },
  {
    "id": "CECA",
    "name": "Crescent City",
    "lat": 41.78,
    "lng": -124.235833
  },
  {
    "id": "CEDA",
    "name": "Ceduna",
    "lat": -32.131667,
    "lng": 133.705833
  },
  {
    "id": "CEGA",
    "name": "Chester",
    "lat": 53.178056,
    "lng": -2.977778
  },
  {
    "id": "CEIT",
    "name": "Chiang Rai",
    "lat": 19.886389,
    "lng": 99.830556
  },
  {
    "id": "CEMA",
    "name": "Central",
    "lat": 65.574722,
    "lng": -144.781944
  },
  {
    "id": "CENA",
    "name": "Ciudad Obregon",
    "lat": 27.493889,
    "lng": -109.938889
  },
  {
    "id": "CENH",
    "name": "Enshi",
    "lat": 30.283333,
    "lng": 109.483333
  },
  {
    "id": "CERW",
    "name": "Chernovtsy",
    "lat": 48.2667,
    "lng": 25.9667
  },
  {
    "id": "CEUT",
    "name": "Ceuta",
    "lat": 35.899167,
    "lng": -5.338333
  },
  {
    "id": "CFBA",
    "name": "Cabo Frio",
    "lat": -22.925,
    "lng": -42.078611
  },
  {
    "id": "CFGA",
    "name": "Cienfuegos",
    "lat": 22.149722,
    "lng": -80.414444
  },
  {
    "id": "CFKA",
    "name": "Chlef",
    "lat": 36.212222,
    "lng": 1.331667
  },
  {
    "id": "CFOA",
    "name": "Confreza",
    "lat": -10.633333,
    "lng": -51.566667
  },
  {
    "id": "CFOC",
    "name": "Fuzhou",
    "lat": 26.1,
    "lng": 119.283333
  },
  {
    "id": "CFSA",
    "name": "Coffs Harbour",
    "lat": -30.321667,
    "lng": 153.120833
  },
  {
    "id": "CFUG",
    "name": "Fuyang",
    "lat": 32.866667,
    "lng": 115.7
  },
  {
    "id": "CFUO",
    "name": "Fuoshan",
    "lat": 29.18382,
    "lng": 105.00114
  },
  {
    "id": "CGBA",
    "name": "Cuiaba",
    "lat": -15.65,
    "lng": -56.116667
  },
  {
    "id": "CGIA",
    "name": "Cape Girardeau",
    "lat": 37.309167,
    "lng": -89.546389
  },
  {
    "id": "CGKI",
    "name": "Jakarta",
    "lat": -6.192083,
    "lng": 106.768194
  },
  {
    "id": "CGPA",
    "name": "Chittagong",
    "lat": 22.2575,
    "lng": 91.825556
  },
  {
    "id": "CGRA",
    "name": "Campo Grande",
    "lat": -20.463333,
    "lng": -54.6725
  },
  {
    "id": "CGYP",
    "name": "Cagayan De Oro",
    "lat": 8.416111,
    "lng": 124.610556
  },
  {
    "id": "CHAA",
    "name": "Chattanooga",
    "lat": 35.045556,
    "lng": -85.267222
  },
  {
    "id": "CHAK",
    "name": "Haikou",
    "lat": 20.04583,
    "lng": 110.34167
  },
  {
    "id": "CHAM",
    "name": "Chambery",
    "lat": 45.565025,
    "lng": 5.899658
  },
  {
    "id": "CHAT",
    "name": "Chateauroux",
    "lat": 46.8167,
    "lng": 1.7
  },
  {
    "id": "CHCN",
    "name": "Christchurch",
    "lat": -43.488333,
    "lng": 172.533333
  },
  {
    "id": "CHEB",
    "name": "Cheboksary",
    "lat": 56.1333,
    "lng": 47.2667
  },
  {
    "id": "CHEL",
    "name": "Chelyabinsk",
    "lat": 55.154722,
    "lng": 61.375833
  },
  {
    "id": "CHET",
    "name": "Hohhot",
    "lat": 40.816667,
    "lng": 111.65
  },
  {
    "id": "CHFE",
    "name": "Hefei",
    "lat": 31.85,
    "lng": 117.283333
  },
  {
    "id": "CHGH",
    "name": "Hangzhou",
    "lat": 30.25,
    "lng": 120.166667
  },
  {
    "id": "CHIA",
    "name": "Chicago",
    "lat": 41.881944,
    "lng": -87.627778
  },
  {
    "id": "CHIO",
    "name": "Chios",
    "lat": 38.345,
    "lng": 26.141
  },
  {
    "id": "CHIT",
    "name": "Chita",
    "lat": 52.05,
    "lng": 113.466667
  },
  {
    "id": "CHLH",
    "name": "Ulanhot",
    "lat": 46.033333,
    "lng": 122
  },
  {
    "id": "CHOA",
    "name": "Charlottesville",
    "lat": 38.0299,
    "lng": -78.479
  },
  {
    "id": "CHRB",
    "name": "Harbin",
    "lat": 45.75,
    "lng": 126.666667
  },
  {
    "id": "CHSA",
    "name": "Charleston",
    "lat": 32.77657,
    "lng": -79.93092
  },
  {
    "id": "CHXA",
    "name": "Changuinola",
    "lat": 9.45,
    "lng": -82.45
  },
  {
    "id": "CHYA",
    "name": "Choiseul Bay",
    "lat": -6.973116,
    "lng": 156.706238
  },
  {
    "id": "CHYN",
    "name": "Huangyan",
    "lat": 28.652031,
    "lng": 121.262283
  },
  {
    "id": "CIDA",
    "name": "Cedar Rapids",
    "lat": 41.983056,
    "lng": -91.668611
  },
  {
    "id": "CINC",
    "name": "Yinchuan",
    "lat": 38.466667,
    "lng": 106.266667
  },
  {
    "id": "CIWA",
    "name": "Canouan Island",
    "lat": 12.698889,
    "lng": -61.342222
  },
  {
    "id": "CJJA",
    "name": "Cheongju",
    "lat": 36.635642,
    "lng": 127.483292
  },
  {
    "id": "CJSA",
    "name": "Ciudad Juarez",
    "lat": 31.739444,
    "lng": -106.486944
  },
  {
    "id": "CJUA",
    "name": "Jeju",
    "lat": 33.511916,
    "lng": 126.522846
  },
  {
    "id": "CJZH",
    "name": "Song Pan",
    "lat": 32.63941,
    "lng": 103.59683
  },
  {
    "id": "CKCA",
    "name": "Kuqa",
    "lat": 41.728,
    "lng": 82.936
  },
  {
    "id": "CKDA",
    "name": "Crooked Creek",
    "lat": 61.870833,
    "lng": -158.100833
  },
  {
    "id": "CKHG",
    "name": "Kashi",
    "lat": 39.466667,
    "lng": 75.983333
  },
  {
    "id": "CKHN",
    "name": "Nanchang",
    "lat": 28.683333,
    "lng": 115.883333
  },
  {
    "id": "CKMG",
    "name": "Kunming",
    "lat": 25.041667,
    "lng": 102.705
  },
  {
    "id": "CKOW",
    "name": "Ganzhou",
    "lat": 25.85,
    "lng": 114.95
  },
  {
    "id": "CKRL",
    "name": "Korla",
    "lat": 41.733333,
    "lng": 86.15
  },
  {
    "id": "CKWE",
    "name": "Guiyang",
    "lat": 26.58306,
    "lng": 106.71639
  },
  {
    "id": "CKWL",
    "name": "Guilin",
    "lat": 25.28194,
    "lng": 110.28639
  },
  {
    "id": "CKXA",
    "name": "Chicken",
    "lat": 64.067778,
    "lng": -141.949167
  },
  {
    "id": "CKYA",
    "name": "Conakry",
    "lat": 9.576389,
    "lng": -13.610833
  },
  {
    "id": "CLCX",
    "name": "Longyan",
    "lat": 25.675556,
    "lng": 116.745556
  },
  {
    "id": "CLEA",
    "name": "Cleveland",
    "lat": 41.493796,
    "lng": -81.671759
  },
  {
    "id": "CLER",
    "name": "Clermont-Ferrand",
    "lat": 45.783088,
    "lng": 3.082352
  },
  {
    "id": "CLHW",
    "name": "Lanzhou",
    "lat": 36.061111,
    "lng": 103.8
  },
  {
    "id": "CLJG",
    "name": "Lijiang City",
    "lat": 26.683333,
    "lng": 100.25
  },
  {
    "id": "CLLA",
    "name": "College Station",
    "lat": 30.589444,
    "lng": -96.364444
  },
  {
    "id": "CLLF",
    "name": "LingLing",
    "lat": 26.203502,
    "lng": 111.62796
  },
  {
    "id": "CLMA",
    "name": "Port Angeles",
    "lat": 48.133101,
    "lng": -123.427277
  },
  {
    "id": "CLOA",
    "name": "Cali",
    "lat": 3.420556,
    "lng": -76.522222
  },
  {
    "id": "CLTA",
    "name": "Charlotte",
    "lat": 35.217917,
    "lng": -80.892916
  },
  {
    "id": "CLUJ",
    "name": "Cluj-Napoca",
    "lat": 46.7833,
    "lng": 23.6833
  },
  {
    "id": "CLUM",
    "name": "Luxi",
    "lat": 24.45,
    "lng": 98.6
  },
  {
    "id": "CLWA",
    "name": "Clearwater",
    "lat": 27.96585,
    "lng": -82.8001
  },
  {
    "id": "CLXA",
    "name": "Lhasa",
    "lat": 29.647482,
    "lng": 91.126099
  },
  {
    "id": "CLYA",
    "name": "Luoyang",
    "lat": 34.683333,
    "lng": 112.466667
  },
  {
    "id": "CLYG",
    "name": "Lianyungang",
    "lat": 34.6,
    "lng": 119.166667
  },
  {
    "id": "CMAA",
    "name": "Cunnamulla",
    "lat": -28.031389,
    "lng": 145.616111
  },
  {
    "id": "CMBA",
    "name": "Colombo",
    "lat": 6.997222,
    "lng": 79.886111
  },
  {
    "id": "CMEA",
    "name": "Ciudad Del Carmen",
    "lat": 18.65,
    "lng": -91.8
  },
  {
    "id": "CMGA",
    "name": "Corumba",
    "lat": -19.008889,
    "lng": -57.652778
  },
  {
    "id": "CMHA",
    "name": "Columbus",
    "lat": 39.964907,
    "lng": -83.002222
  },
  {
    "id": "CMIA",
    "name": "Champaign",
    "lat": 40.112981,
    "lng": -88.261227
  },
  {
    "id": "CMUP",
    "name": "Kundiawa",
    "lat": -5.993889,
    "lng": 144.974444
  },
  {
    "id": "CMWA",
    "name": "Camaguey",
    "lat": 21.420278,
    "lng": -77.847222
  },
  {
    "id": "CMXA",
    "name": "Hancock",
    "lat": 47.12687,
    "lng": -88.58096
  },
  {
    "id": "CNGB",
    "name": "Ningbo",
    "lat": 29.866667,
    "lng": 121.516667
  },
  {
    "id": "CNJA",
    "name": "Cloncurry",
    "lat": -20.666667,
    "lng": 140.5
  },
  {
    "id": "CNKG",
    "name": "Nanking / Nanjing",
    "lat": 31.995278,
    "lng": 118.811667
  },
  {
    "id": "CNMA",
    "name": "Carlsbad",
    "lat": 32.337222,
    "lng": -104.262778
  },
  {
    "id": "CNNG",
    "name": "Nanning",
    "lat": 22.816667,
    "lng": 108.316667
  },
  {
    "id": "CNSA",
    "name": "Cairns",
    "lat": -16.91667,
    "lng": 145.76667
  },
  {
    "id": "CNTG",
    "name": "Nantong",
    "lat": 32.066667,
    "lng": 120.966667
  },
  {
    "id": "CNXT",
    "name": "Chiang Mai",
    "lat": 18.771944,
    "lng": 98.968333
  },
  {
    "id": "CNYA",
    "name": "Moab",
    "lat": 38.5725,
    "lng": -109.549722
  },
  {
    "id": "CODA",
    "name": "Cody / Yellowstone",
    "lat": 44.515833,
    "lng": -109.0275
  },
  {
    "id": "COLO",
    "name": "Cologne",
    "lat": 50.948911,
    "lng": 6.959839
  },
  {
    "id": "CONS",
    "name": "Constanta Kogalniceanu",
    "lat": 44.15,
    "lng": 28.6
  },
  {
    "id": "COOA",
    "name": "Cotonou",
    "lat": 6.354167,
    "lng": 2.385556
  },
  {
    "id": "COPE",
    "name": "Copenhagen",
    "lat": 55.676111,
    "lng": 12.568333
  },
  {
    "id": "CORA",
    "name": "Cordoba",
    "lat": -31.313056,
    "lng": -64.199444
  },
  {
    "id": "CORD",
    "name": "Cordoba",
    "lat": 37.88786,
    "lng": -4.781799
  },
  {
    "id": "CORF",
    "name": "Corfu",
    "lat": 39.62,
    "lng": 19.91972
  },
  {
    "id": "CORK",
    "name": "Cork",
    "lat": 51.57,
    "lng": -8.4
  },
  {
    "id": "CORT",
    "name": "Crotone",
    "lat": 39.05,
    "lng": 17.08
  },
  {
    "id": "CORV",
    "name": "Corvo Island",
    "lat": 39.7,
    "lng": -31.1
  },
  {
    "id": "COSA",
    "name": "Colorado Springs",
    "lat": 38.825185,
    "lng": -104.741944
  },
  {
    "id": "COUA",
    "name": "Columbia",
    "lat": 38.964748,
    "lng": -92.324982
  },
  {
    "id": "CPCA",
    "name": "San Martin DeLos Andes",
    "lat": -40.166667,
    "lng": -71.35
  },
  {
    "id": "CPQA",
    "name": "Campinas",
    "lat": -22.907171,
    "lng": -47.061996
  },
  {
    "id": "CPRA",
    "name": "Casper",
    "lat": 42.834722,
    "lng": -106.325
  },
  {
    "id": "CPTA",
    "name": "Cape Town",
    "lat": -33.925278,
    "lng": 18.423889
  },
  {
    "id": "CPVA",
    "name": "Campina Grande",
    "lat": -7.266667,
    "lng": -35.9
  },
  {
    "id": "CPVG",
    "name": "Shanghai",
    "lat": 31.15,
    "lng": 121.783333
  },
  {
    "id": "CQDA",
    "name": "Shahre-Kord",
    "lat": 32.297222,
    "lng": 50.842222
  },
  {
    "id": "CQMA",
    "name": "Ciudad Real",
    "lat": 38.983334,
    "lng": -3.916667
  },
  {
    "id": "CRAI",
    "name": "Craiova",
    "lat": 44.333333,
    "lng": 23.816667
  },
  {
    "id": "CRCA",
    "name": "Cartago",
    "lat": 4.766667,
    "lng": -75.933333
  },
  {
    "id": "CRDA",
    "name": "Comodoro Rivadavia",
    "lat": -45.787222,
    "lng": -67.462778
  },
  {
    "id": "CRET",
    "name": "Crete",
    "lat": 35.32787,
    "lng": 25.14341
  },
  {
    "id": "CRIA",
    "name": "Crooked Island",
    "lat": 22.75,
    "lng": -74.15
  },
  {
    "id": "CRKP",
    "name": "Angeles",
    "lat": 15.15,
    "lng": 120.583333
  },
  {
    "id": "CRPA",
    "name": "Corpus Christi",
    "lat": 27.751388,
    "lng": -97.380208
  },
  {
    "id": "CRWA",
    "name": "Charleston",
    "lat": 38.353234,
    "lng": -81.635628
  },
  {
    "id": "CSGA",
    "name": "Columbus",
    "lat": 32.483333,
    "lng": -84.991666
  },
  {
    "id": "CSHA",
    "name": "Shanghai",
    "lat": 31.240105,
    "lng": 121.469994
  },
  {
    "id": "CSHB",
    "name": "Solovetsky",
    "lat": 65.03,
    "lng": 35.733333
  },
  {
    "id": "CSHE",
    "name": "Shenyang",
    "lat": 41.816667,
    "lng": 123.5
  },
  {
    "id": "CSJW",
    "name": "Shijiazhuang",
    "lat": 38.05,
    "lng": 114.466667
  },
  {
    "id": "CSKA",
    "name": "Cap Skirring",
    "lat": 12.388889,
    "lng": -16.741667
  },
  {
    "id": "CSLA",
    "name": "San Luis Obispo",
    "lat": 35.236667,
    "lng": -120.639167
  },
  {
    "id": "CSOA",
    "name": "Cochstedt",
    "lat": 51.85,
    "lng": 11.416667
  },
  {
    "id": "CSWA",
    "name": "Shantou",
    "lat": 23.36814,
    "lng": 116.71479
  },
  {
    "id": "CSYX",
    "name": "Sanya",
    "lat": 18.3,
    "lng": 109.4
  },
  {
    "id": "CSZX",
    "name": "Shenzhen",
    "lat": 22.55,
    "lng": 114.1
  },
  {
    "id": "CTAO",
    "name": "Qingdao",
    "lat": 36.1,
    "lng": 120.316667
  },
  {
    "id": "CTCA",
    "name": "Catamarca",
    "lat": -28.448333,
    "lng": -65.779722
  },
  {
    "id": "CTEN",
    "name": "Tongren",
    "lat": 27.717,
    "lng": 109.185
  },
  {
    "id": "CTGA",
    "name": "Cartagena",
    "lat": 10.446667,
    "lng": -75.510833
  },
  {
    "id": "CTMA",
    "name": "Chetumal",
    "lat": 18.501424,
    "lng": -88.298836
  },
  {
    "id": "CTSN",
    "name": "Tianjin",
    "lat": 39.133333,
    "lng": 117.183333
  },
  {
    "id": "CTXN",
    "name": "Tunxi",
    "lat": 29.733333,
    "lng": 118.3
  },
  {
    "id": "CTYN",
    "name": "Taiyuan",
    "lat": 37.869444,
    "lng": 112.560278
  },
  {
    "id": "CUCA",
    "name": "Cucuta",
    "lat": 7.93,
    "lng": -72.509444
  },
  {
    "id": "CULA",
    "name": "Culiacan",
    "lat": 24.764444,
    "lng": -107.474167
  },
  {
    "id": "CUNA",
    "name": "Cancun",
    "lat": 21.160556,
    "lng": -86.8475
  },
  {
    "id": "CUNE",
    "name": "Cuneo",
    "lat": 44.388654,
    "lng": 7.544861
  },
  {
    "id": "CURA",
    "name": "Curacao",
    "lat": 12.194167,
    "lng": -68.960556
  },
  {
    "id": "CURC",
    "name": "Urumqi",
    "lat": 43.9,
    "lng": 87.483333
  },
  {
    "id": "CUUA",
    "name": "Chihuahua",
    "lat": 28.6525,
    "lng": -106.094444
  },
  {
    "id": "CUYN",
    "name": "Yulin",
    "lat": 38.29056,
    "lng": 109.74944
  },
  {
    "id": "CUZA",
    "name": "Cuzco",
    "lat": -13.529444,
    "lng": -71.959722
  },
  {
    "id": "CVGA",
    "name": "Cincinnati",
    "lat": 39.133333,
    "lng": -84.5
  },
  {
    "id": "CVJA",
    "name": "Cuernavaca",
    "lat": 18.916667,
    "lng": -99.25
  },
  {
    "id": "CVMA",
    "name": "Ciudad Victoria",
    "lat": 23.733333,
    "lng": -99.133333
  },
  {
    "id": "CVNA",
    "name": "Clovis",
    "lat": 34.405555,
    "lng": -103.197778
  },
  {
    "id": "CWBA",
    "name": "Curitiba",
    "lat": -25.416667,
    "lng": -49.25
  },
  {
    "id": "CWEF",
    "name": "Weifang",
    "lat": 36.716667,
    "lng": 119.1
  },
  {
    "id": "CWEH",
    "name": "Weihai",
    "lat": 37.5,
    "lng": 122.083333
  },
  {
    "id": "CWNZ",
    "name": "Wenzhou",
    "lat": 27.95,
    "lng": 120.633333
  },
  {
    "id": "CWUH",
    "name": "Wuhan",
    "lat": 30.5725,
    "lng": 114.279167
  },
  {
    "id": "CWUS",
    "name": "Wuyishan",
    "lat": 27.716667,
    "lng": 117.966667
  },
  {
    "id": "CWUX",
    "name": "Wuxi",
    "lat": 31.583333,
    "lng": 120.316667
  },
  {
    "id": "CXBA",
    "name": "Cox's Bazar",
    "lat": 21.449758,
    "lng": 91.964808
  },
  {
    "id": "CXFN",
    "name": "Xiangfan",
    "lat": 32.017,
    "lng": 112.133
  },
  {
    "id": "CXIA",
    "name": "Christmas Island",
    "lat": 1.991167,
    "lng": -157.358667
  },
  {
    "id": "CXJA",
    "name": "Caxias Do Sul",
    "lat": -29.196944,
    "lng": -51.1875
  },
  {
    "id": "CXMN",
    "name": "Xiamen",
    "lat": 24.466667,
    "lng": 118.116667
  },
  {
    "id": "CXNN",
    "name": "Xining",
    "lat": 36.55,
    "lng": 101.75
  },
  {
    "id": "CYBA",
    "name": "Cayman Brac Is",
    "lat": 19.686667,
    "lng": -79.882778
  },
  {
    "id": "CYHY",
    "name": "Hay River",
    "lat": 60.815292,
    "lng": -115.785599
  },
  {
    "id": "CYNJ",
    "name": "Yanji",
    "lat": 42.9,
    "lng": 129.5
  },
  {
    "id": "CYNT",
    "name": "Yantai",
    "lat": 37.55,
    "lng": 121.333333
  },
  {
    "id": "CYNZ",
    "name": "Yancheng",
    "lat": 33.385556,
    "lng": 120.125278
  },
  {
    "id": "CYOA",
    "name": "Cayo Largo Del Sur",
    "lat": 21.619722,
    "lng": -81.553333
  },
  {
    "id": "CYPP",
    "name": "Calbayog",
    "lat": 12.075833,
    "lng": 124.543056
  },
  {
    "id": "CYSA",
    "name": "Cheyenne",
    "lat": 41.144583,
    "lng": -104.816667
  },
  {
    "id": "CZHA",
    "name": "Zhanjiang",
    "lat": 21.253542,
    "lng": 110.363159
  },
  {
    "id": "CZLA",
    "name": "Constantine",
    "lat": 36.286667,
    "lng": 6.621667
  },
  {
    "id": "CZMA",
    "name": "Cozumel",
    "lat": 20.510641,
    "lng": -86.945457
  },
  {
    "id": "CZSA",
    "name": "Cruzeiro Do Sul",
    "lat": -7.630833,
    "lng": -72.67
  },
  {
    "id": "CZUH",
    "name": "Zhuhai",
    "lat": 22.25,
    "lng": 113.5
  },
  {
    "id": "DABA",
    "name": "Daytona Beach",
    "lat": 29.210912,
    "lng": -81.02829
  },
  {
    "id": "DACA",
    "name": "Dhaka",
    "lat": 23.780556,
    "lng": 90.386111
  },
  {
    "id": "DADV",
    "name": "Da Nang",
    "lat": 16.06778,
    "lng": 108.22083
  },
  {
    "id": "DAKH",
    "name": "Dakhla",
    "lat": 23.7333,
    "lng": -15.9167
  },
  {
    "id": "DALA",
    "name": "Dalaman",
    "lat": 36.766667,
    "lng": 28.8
  },
  {
    "id": "DAMA",
    "name": "Damascus",
    "lat": 33.513,
    "lng": 36.292
  },
  {
    "id": "DARA",
    "name": "Dar Es Salaam",
    "lat": -6.875278,
    "lng": 39.201944
  },
  {
    "id": "DAYA",
    "name": "Dayton",
    "lat": 39.75895,
    "lng": -84.19161
  },
  {
    "id": "DBOA",
    "name": "Dubbo",
    "lat": -32.219167,
    "lng": 148.5775
  },
  {
    "id": "DDCA",
    "name": "Dodge City",
    "lat": 37.7528,
    "lng": -100.01708
  },
  {
    "id": "DEAA",
    "name": "Dera Ghazi Khan",
    "lat": 30.05,
    "lng": 70.633333
  },
  {
    "id": "DEAU",
    "name": "Deauville St. Gatien",
    "lat": 49.3667,
    "lng": 0.1667
  },
  {
    "id": "DEBR",
    "name": "Debrecen",
    "lat": 47.4667,
    "lng": 21.4833
  },
  {
    "id": "DENA",
    "name": "Denver",
    "lat": 39.739167,
    "lng": -104.984722
  },
  {
    "id": "DENI",
    "name": "Denizli Cardak",
    "lat": 37.777228,
    "lng": 29.076691
  },
  {
    "id": "DERR",
    "name": "Derry",
    "lat": 55,
    "lng": -7.2
  },
  {
    "id": "DEZA",
    "name": "Deirezzor",
    "lat": 35.333333,
    "lng": 40.15
  },
  {
    "id": "DFWA",
    "name": "Dallas",
    "lat": 32.78306,
    "lng": -96.80667
  },
  {
    "id": "DGOA",
    "name": "Durango",
    "lat": 24.016667,
    "lng": -104.666667
  },
  {
    "id": "DHIA",
    "name": "Dhangarhi",
    "lat": 28.707301,
    "lng": 80.598965
  },
  {
    "id": "DHNA",
    "name": "Dothan",
    "lat": 31.22323,
    "lng": -85.39049
  },
  {
    "id": "DIEP",
    "name": "Dieppe",
    "lat": 49.9333,
    "lng": 1.0833
  },
  {
    "id": "DIJO",
    "name": "Dijon",
    "lat": 47.2906,
    "lng": 5.0428
  },
  {
    "id": "DIKA",
    "name": "Dickinson",
    "lat": 46.87918,
    "lng": -102.78962
  },
  {
    "id": "DILA",
    "name": "Dili",
    "lat": -8.5333,
    "lng": 125.5772
  },
  {
    "id": "DINA",
    "name": "Dinard",
    "lat": 48.633333,
    "lng": -2.060278
  },
  {
    "id": "DINV",
    "name": "Dien Bien Phu",
    "lat": 21.411283,
    "lng": 103.036308
  },
  {
    "id": "DIRA",
    "name": "Dire Dawa",
    "lat": 9.622222,
    "lng": 41.850833
  },
  {
    "id": "DIYA",
    "name": "Diyarbakir",
    "lat": 37.915763,
    "lng": 40.235023
  },
  {
    "id": "DJER",
    "name": "Djerba",
    "lat": 33.5,
    "lng": 10.48
  },
  {
    "id": "DJGA",
    "name": "Djanet",
    "lat": 24.465278,
    "lng": 9.488889
  },
  {
    "id": "DKRA",
    "name": "Dakar",
    "lat": 14.740833,
    "lng": -17.490556
  },
  {
    "id": "DLAA",
    "name": "Douala",
    "lat": 4.05,
    "lng": 9.7
  },
  {
    "id": "DLGA",
    "name": "Dillingham",
    "lat": 59.046667,
    "lng": -158.508611
  },
  {
    "id": "DLHA",
    "name": "Duluth",
    "lat": 46.812916,
    "lng": -92.145139
  },
  {
    "id": "DLYV",
    "name": "Dillons Bay",
    "lat": -18.7,
    "lng": 169.15
  },
  {
    "id": "DMMA",
    "name": "Dammam",
    "lat": 26.42583,
    "lng": 50.11417
  },
  {
    "id": "DNEP",
    "name": "Dnepropetrovsk",
    "lat": 48.45,
    "lng": 34.9833
  },
  {
    "id": "DODA",
    "name": "Dodoma",
    "lat": -6.170358,
    "lng": 35.749433
  },
  {
    "id": "DOHA",
    "name": "Doha",
    "lat": 25.256944,
    "lng": 51.566389
  },
  {
    "id": "DOLE",
    "name": "Dole Tavaux",
    "lat": 47.044167,
    "lng": 5.412778
  },
  {
    "id": "DOMA",
    "name": "Dominica",
    "lat": 15.521528,
    "lng": -61.32125
  },
  {
    "id": "DONC",
    "name": "Doncaster",
    "lat": 53.482918,
    "lng": -1.010237
  },
  {
    "id": "DONE",
    "name": "Donegal",
    "lat": 54.654769,
    "lng": -8.110657
  },
  {
    "id": "DONF",
    "name": "Donetsk",
    "lat": 48.0833,
    "lng": 37.75
  },
  {
    "id": "DORT",
    "name": "Dortmund",
    "lat": 51.51666,
    "lng": 7.466667
  },
  {
    "id": "DPLP",
    "name": "Dipolog",
    "lat": 8.6,
    "lng": 123.35
  },
  {
    "id": "DPOA",
    "name": "Devonport",
    "lat": -41.170833,
    "lng": 146.425
  },
  {
    "id": "DPSI",
    "name": "Bali (Denpasar)",
    "lat": -8.65,
    "lng": 115.216667
  },
  {
    "id": "DQAA",
    "name": "Daqing",
    "lat": 46.59,
    "lng": 125.02
  },
  {
    "id": "DRAB",
    "name": "Drake Bay",
    "lat": 83.65,
    "lng": 8.73
  },
  {
    "id": "DRBA",
    "name": "Derby",
    "lat": -17.39,
    "lng": 123.68
  },
  {
    "id": "DRES",
    "name": "Dresden",
    "lat": 51.033333,
    "lng": 13.733333
  },
  {
    "id": "DROA",
    "name": "Durango",
    "lat": 37.275278,
    "lng": -107.88
  },
  {
    "id": "DRTA",
    "name": "Del Rio",
    "lat": 29.36273,
    "lng": -100.89676
  },
  {
    "id": "DRWA",
    "name": "Darwin",
    "lat": -12.416667,
    "lng": 130.872222
  },
  {
    "id": "DSKA",
    "name": "Dera Ismail Khan",
    "lat": 31.916667,
    "lng": 70.9
  },
  {
    "id": "DSMA",
    "name": "Des Moines",
    "lat": 41.533889,
    "lng": -93.656667
  },
  {
    "id": "DTTA",
    "name": "Detroit",
    "lat": 42.331389,
    "lng": -83.045833
  },
  {
    "id": "DUBL",
    "name": "Dublin",
    "lat": 53.22,
    "lng": -6.21
  },
  {
    "id": "DUBR",
    "name": "Dubrovnik",
    "lat": 42.4,
    "lng": 18.07
  },
  {
    "id": "DUDN",
    "name": "Dunedin",
    "lat": -45.866667,
    "lng": 170.5
  },
  {
    "id": "DUND",
    "name": "Dundee",
    "lat": 56.46249,
    "lng": -2.968369
  },
  {
    "id": "DURA",
    "name": "Durban",
    "lat": -29.885278,
    "lng": 31.029166
  },
  {
    "id": "DUSS",
    "name": "Dusseldorf",
    "lat": 51.233333,
    "lng": 6.783333
  },
  {
    "id": "DUTA",
    "name": "Dutch Harbor",
    "lat": 53.901111,
    "lng": -166.535833
  },
  {
    "id": "DVOP",
    "name": "Davao",
    "lat": 7.131667,
    "lng": 125.649444
  },
  {
    "id": "DXBA",
    "name": "Dubai",
    "lat": 25.25,
    "lng": 55.357778
  },
  {
    "id": "DYUA",
    "name": "Dushanbe",
    "lat": 38.55,
    "lng": 68.823611
  },
  {
    "id": "DZNA",
    "name": "Zhezkazgan",
    "lat": 47.778559,
    "lng": 67.703934
  },
  {
    "id": "EAEV",
    "name": "Emae",
    "lat": -17.069585,
    "lng": 168.379211
  },
  {
    "id": "EAMA",
    "name": "Nejran",
    "lat": 17.491667,
    "lng": 44.132222
  },
  {
    "id": "EARA",
    "name": "Kearney",
    "lat": 40.728333,
    "lng": -98.998889
  },
  {
    "id": "EAUA",
    "name": "Eau Claire",
    "lat": 44.864444,
    "lng": -91.487222
  },
  {
    "id": "EBBA",
    "name": "Entebbe",
    "lat": 0.0425,
    "lng": 32.438056
  },
  {
    "id": "EBDA",
    "name": "El Obeid",
    "lat": 13.159167,
    "lng": 30.248611
  },
  {
    "id": "EBLA",
    "name": "Erbil",
    "lat": 36.2375,
    "lng": 43.963056
  },
  {
    "id": "EDAA",
    "name": "Edna Bay",
    "lat": 55.95,
    "lng": -133.666667
  },
  {
    "id": "EDIN",
    "name": "Edinburgh",
    "lat": 55.948431,
    "lng": -3.194275
  },
  {
    "id": "EDLA",
    "name": "Eldoret",
    "lat": 0.516667,
    "lng": 35.283333
  },
  {
    "id": "EDOA",
    "name": "Edremit / Korfez",
    "lat": 39.583333,
    "lng": 27.033333
  },
  {
    "id": "EGEA",
    "name": "Vail",
    "lat": 39.64026,
    "lng": -106.3742
  },
  {
    "id": "EGIL",
    "name": "Egilsstadir",
    "lat": 65.277,
    "lng": -14.402
  },
  {
    "id": "EGNA",
    "name": "Geneina",
    "lat": 13.4875,
    "lng": 22.469444
  },
  {
    "id": "EIND",
    "name": "Eindhoven",
    "lat": 51.4381,
    "lng": 5.4752
  },
  {
    "id": "EISA",
    "name": "Beef Island",
    "lat": 18.41667,
    "lng": -64.58333
  },
  {
    "id": "EKAT",
    "name": "Ekaterinburg",
    "lat": 56.85,
    "lng": 60.6
  },
  {
    "id": "EKOA",
    "name": "Elko",
    "lat": 40.823889,
    "lng": -115.789722
  },
  {
    "id": "ELAT",
    "name": "Elat",
    "lat": 29.559721,
    "lng": 34.959869
  },
  {
    "id": "ELAZ",
    "name": "Elazig",
    "lat": 39.275321,
    "lng": 38.63308
  },
  {
    "id": "ELBA",
    "name": "Elba Island",
    "lat": 42.747769,
    "lng": 10.233765
  },
  {
    "id": "ELHA",
    "name": "North Eleuthera",
    "lat": 25.475556,
    "lng": -76.681111
  },
  {
    "id": "ELMA",
    "name": "Elmira",
    "lat": 42.085278,
    "lng": -76.809167
  },
  {
    "id": "ELPA",
    "name": "El Paso",
    "lat": 31.775555,
    "lng": -106.440972
  },
  {
    "id": "ELQA",
    "name": "Qassim",
    "lat": 26.348806,
    "lng": 43.968658
  },
  {
    "id": "ELSA",
    "name": "East London",
    "lat": -33,
    "lng": 28
  },
  {
    "id": "EMKA",
    "name": "Emmonak",
    "lat": 62.776944,
    "lng": -164.520833
  },
  {
    "id": "ENCA",
    "name": "Nancy",
    "lat": 48.692222,
    "lng": 6.226111
  },
  {
    "id": "ENEI",
    "name": "Ende",
    "lat": -8.848889,
    "lng": 121.661944
  },
  {
    "id": "ENIP",
    "name": "El Nido",
    "lat": 11.214438,
    "lng": 119.460526
  },
  {
    "id": "ENON",
    "name": "Enontekio",
    "lat": 68.35,
    "lng": 23.4167
  },
  {
    "id": "ENUA",
    "name": "Enugu",
    "lat": 6.474167,
    "lng": 7.561944
  },
  {
    "id": "EOIA",
    "name": "Eday",
    "lat": 59.183333,
    "lng": -2.783333
  },
  {
    "id": "EPRA",
    "name": "Esperance",
    "lat": -33.861,
    "lng": 121.892
  },
  {
    "id": "EQSA",
    "name": "Esquel",
    "lat": -42.9,
    "lng": -71.316667
  },
  {
    "id": "ERCA",
    "name": "Ercan",
    "lat": 35.15,
    "lng": 33.4833
  },
  {
    "id": "ERFU",
    "name": "Erfurt",
    "lat": 50.98333,
    "lng": 11.033333
  },
  {
    "id": "ERIA",
    "name": "Erie",
    "lat": 42.08,
    "lng": -80.178611
  },
  {
    "id": "ERNA",
    "name": "Eirunepe",
    "lat": -6.583333,
    "lng": -69.883333
  },
  {
    "id": "ERRA",
    "name": "Errachidia",
    "lat": 31.933517,
    "lng": -4.421997
  },
  {
    "id": "ERZI",
    "name": "Erzincan",
    "lat": 39.75,
    "lng": 39.5
  },
  {
    "id": "ERZU",
    "name": "Erzurum",
    "lat": 39.905259,
    "lng": 41.276321
  },
  {
    "id": "ESBJ",
    "name": "Esbjerg",
    "lat": 55.483333,
    "lng": 8.45
  },
  {
    "id": "ESDA",
    "name": "Eastsound",
    "lat": 48.708333,
    "lng": -122.9125
  },
  {
    "id": "ESKI",
    "name": "Eskisehir",
    "lat": 39.7833,
    "lng": 30.5833
  },
  {
    "id": "ESSA",
    "name": "Essaouira",
    "lat": 31.533333,
    "lng": -9.7
  },
  {
    "id": "EUGA",
    "name": "Eugene",
    "lat": 44.05207,
    "lng": -123.08675
  },
  {
    "id": "EUXA",
    "name": "St Eustatius",
    "lat": 17.491667,
    "lng": -62.975556
  },
  {
    "id": "EVEN",
    "name": "Evenes",
    "lat": 68.526727,
    "lng": 16.998596
  },
  {
    "id": "EVNA",
    "name": "Yerevan",
    "lat": 40.183333,
    "lng": 44.516667
  },
  {
    "id": "EVVA",
    "name": "Evansville",
    "lat": 37.97476,
    "lng": -87.55585
  },
  {
    "id": "EWBA",
    "name": "Fall River",
    "lat": 41.698056,
    "lng": -71.146944
  },
  {
    "id": "EWNA",
    "name": "New Bern",
    "lat": 35.112326,
    "lng": -77.045403
  },
  {
    "id": "EXET",
    "name": "Exeter",
    "lat": 50.721677,
    "lng": -3.535538
  },
  {
    "id": "EXIA",
    "name": "Excursion Inlet",
    "lat": 58.420833,
    "lng": -135.447222
  },
  {
    "id": "EYPA",
    "name": "El Yopal",
    "lat": 5.35,
    "lng": -72.383333
  },
  {
    "id": "EYWA",
    "name": "Key West",
    "lat": 24.553055,
    "lng": -81.779861
  },
  {
    "id": "FACP",
    "name": "Faaite",
    "lat": -16.683333,
    "lng": -145.333333
  },
  {
    "id": "FAIA",
    "name": "Fairbanks",
    "lat": 64.835666,
    "lng": -147.772
  },
  {
    "id": "FARA",
    "name": "Fargo",
    "lat": 46.87719,
    "lng": -96.7898
  },
  {
    "id": "FARO",
    "name": "Faro",
    "lat": 37.01937,
    "lng": -7.93223
  },
  {
    "id": "FATA",
    "name": "Fresno",
    "lat": 36.752222,
    "lng": -119.748472
  },
  {
    "id": "FAYA",
    "name": "Fayetteville",
    "lat": 35.05266,
    "lng": -78.87836
  },
  {
    "id": "FBEA",
    "name": "Francisco Beltrao",
    "lat": -26.083333,
    "lng": -53.066667
  },
  {
    "id": "FCAA",
    "name": "Kalispell",
    "lat": 48.197778,
    "lng": -114.316111
  },
  {
    "id": "FDFA",
    "name": "Fort De France",
    "lat": 14.589722,
    "lng": -61.006111
  },
  {
    "id": "FENA",
    "name": "Fernando De Noronha",
    "lat": -3.850278,
    "lng": -32.416944
  },
  {
    "id": "FEZS",
    "name": "Fes",
    "lat": 34.046401,
    "lng": -4.996719
  },
  {
    "id": "FIGA",
    "name": "Figari",
    "lat": 41.48852,
    "lng": 9.129639
  },
  {
    "id": "FIHA",
    "name": "Kinshasa",
    "lat": -4.354027,
    "lng": 15.380833
  },
  {
    "id": "FINK",
    "name": "Finkenwerder",
    "lat": 53.533166,
    "lng": 9.861946
  },
  {
    "id": "FKLA",
    "name": "Franklin",
    "lat": 41.379167,
    "lng": -79.859722
  },
  {
    "id": "FKQI",
    "name": "Fak Fak",
    "lat": -2.88306,
    "lng": 132.25
  },
  {
    "id": "FLAA",
    "name": "Florencia",
    "lat": 1.590278,
    "lng": -75.563889
  },
  {
    "id": "FLLA",
    "name": "Fort Lauderdale",
    "lat": 26.070417,
    "lng": -80.150833
  },
  {
    "id": "FLNA",
    "name": "Florianopolis",
    "lat": -27.670278,
    "lng": -48.552222
  },
  {
    "id": "FLOA",
    "name": "Florence",
    "lat": 34.188889,
    "lng": -79.724444
  },
  {
    "id": "FLOR",
    "name": "Florence",
    "lat": 43.783333,
    "lng": 11.25
  },
  {
    "id": "FLOT",
    "name": "Floro",
    "lat": 61.599444,
    "lng": 5.032778
  },
  {
    "id": "FMNA",
    "name": "Farmington",
    "lat": 36.741111,
    "lng": -108.229167
  },
  {
    "id": "FMYA",
    "name": "Fort Myers",
    "lat": 26.55975,
    "lng": -81.810917
  },
  {
    "id": "FNAA",
    "name": "Freetown",
    "lat": 8.498425,
    "lng": -13.197314
  },
  {
    "id": "FNJA",
    "name": "Pyongyang",
    "lat": 39.019444,
    "lng": 125.738056
  },
  {
    "id": "FNLA",
    "name": "Fort Collins",
    "lat": 40.565981,
    "lng": -105.080109
  },
  {
    "id": "FNTA",
    "name": "Flint",
    "lat": 43.01,
    "lng": -83.69
  },
  {
    "id": "FODA",
    "name": "Fort Dodge",
    "lat": 42.5525,
    "lng": -94.189722
  },
  {
    "id": "FOGG",
    "name": "Foggia Gino Lisa",
    "lat": 41.4167,
    "lng": 15.5333
  },
  {
    "id": "FORA",
    "name": "Fortaleza",
    "lat": -3.776667,
    "lng": -38.534444
  },
  {
    "id": "FORD",
    "name": "Forde",
    "lat": 61.451568,
    "lng": 5.83374
  },
  {
    "id": "FPOA",
    "name": "Freeport",
    "lat": 26.555278,
    "lng": -78.7
  },
  {
    "id": "FRAN",
    "name": "Frankfurt",
    "lat": 50.114414,
    "lng": 8.670959
  },
  {
    "id": "FRIE",
    "name": "Friedrichshafen",
    "lat": 47.654167,
    "lng": 9.479167
  },
  {
    "id": "FRSA",
    "name": "Flores",
    "lat": 16.916667,
    "lng": -89.883333
  },
  {
    "id": "FRUA",
    "name": "Bishkek",
    "lat": 42.870177,
    "lng": 74.591331
  },
  {
    "id": "FRWA",
    "name": "Francistown",
    "lat": -21.160556,
    "lng": 27.482222
  },
  {
    "id": "FSDA",
    "name": "Sioux Falls",
    "lat": 43.553276,
    "lng": -96.70063
  },
  {
    "id": "FSMA",
    "name": "Fort Smith",
    "lat": 35.336111,
    "lng": -94.37
  },
  {
    "id": "FTEA",
    "name": "El Calafate",
    "lat": -50.333333,
    "lng": -72.283333
  },
  {
    "id": "FTUA",
    "name": "Fort Dauphin",
    "lat": -25.03306,
    "lng": 46.95
  },
  {
    "id": "FUER",
    "name": "Fuerteventura",
    "lat": 28.333333,
    "lng": -14.016667
  },
  {
    "id": "FUNA",
    "name": "Funafuti",
    "lat": -8.516667,
    "lng": 179.208333
  },
  {
    "id": "FUNC",
    "name": "Madeira",
    "lat": 32.63333,
    "lng": -16.9
  },
  {
    "id": "FUTA",
    "name": "Futuna Island",
    "lat": -14.290335,
    "lng": -178.120308
  },
  {
    "id": "FWAA",
    "name": "Fort Wayne",
    "lat": 41.08045,
    "lng": -85.13915
  },
  {
    "id": "FYVA",
    "name": "Fayetteville",
    "lat": 36.140833,
    "lng": -94.153333
  },
  {
    "id": "FZOA",
    "name": "Filton",
    "lat": 51.519444,
    "lng": -2.590833
  },
  {
    "id": "GADA",
    "name": "Gdansk",
    "lat": 54.354556,
    "lng": 18.644485
  },
  {
    "id": "GALA",
    "name": "Galena",
    "lat": 64.736389,
    "lng": -156.931667
  },
  {
    "id": "GALL",
    "name": "Gallivare",
    "lat": 67.143298,
    "lng": 20.657043
  },
  {
    "id": "GALW",
    "name": "Galway",
    "lat": 53.277532,
    "lng": -9.067841
  },
  {
    "id": "GANA",
    "name": "Gan Island",
    "lat": -0.683333,
    "lng": 73.166667
  },
  {
    "id": "GAOA",
    "name": "Guantanamo",
    "lat": 20.123889,
    "lng": -75.195694
  },
  {
    "id": "GAZI",
    "name": "Gaziantep",
    "lat": 37.05944,
    "lng": 37.3825
  },
  {
    "id": "GBEA",
    "name": "Gaborone",
    "lat": -24.55,
    "lng": 25.916667
  },
  {
    "id": "GCMA",
    "name": "Grand Cayman Island",
    "lat": 19.28514,
    "lng": -81.366291
  },
  {
    "id": "GCNA",
    "name": "Grand Canyon",
    "lat": 36.053333,
    "lng": -112.139444
  },
  {
    "id": "GDEA",
    "name": "Gode / Iddidole",
    "lat": 5.902222,
    "lng": 43.628333
  },
  {
    "id": "GDLA",
    "name": "Guadalajara",
    "lat": 20.666714,
    "lng": -103.350342
  },
  {
    "id": "GDQA",
    "name": "Gondar",
    "lat": 12.53306,
    "lng": 37.43306
  },
  {
    "id": "GDTA",
    "name": "Grand Turk Is",
    "lat": 21.466667,
    "lng": -71.133333
  },
  {
    "id": "GEGA",
    "name": "Spokane",
    "lat": 47.650092,
    "lng": -117.44574
  },
  {
    "id": "GELA",
    "name": "Santo Angelo",
    "lat": -28.281667,
    "lng": -54.168889
  },
  {
    "id": "GELE",
    "name": "Gelendzik",
    "lat": 44.5667,
    "lng": 38.0167
  },
  {
    "id": "GENE",
    "name": "Geneva",
    "lat": 46.2,
    "lng": 6.15
  },
  {
    "id": "GENO",
    "name": "Genoa",
    "lat": 44.418088,
    "lng": 8.933258
  },
  {
    "id": "GEOA",
    "name": "Georgetown",
    "lat": 6.5,
    "lng": -58.25
  },
  {
    "id": "GERA",
    "name": "Nueva Gerona",
    "lat": 21.838333,
    "lng": -82.779167
  },
  {
    "id": "GERO",
    "name": "Gerona",
    "lat": 41.98444,
    "lng": 2.821111
  },
  {
    "id": "GESP",
    "name": "General Santos",
    "lat": 6.109444,
    "lng": 125.234722
  },
  {
    "id": "GETA",
    "name": "Geraldton",
    "lat": -28.779,
    "lng": 114.607
  },
  {
    "id": "GFFA",
    "name": "Griffith",
    "lat": -34.250833,
    "lng": 146.065833
  },
  {
    "id": "GFKA",
    "name": "Grand Forks",
    "lat": 48,
    "lng": -97
  },
  {
    "id": "GGGA",
    "name": "Gladewater",
    "lat": 32.542778,
    "lng": -94.946944
  },
  {
    "id": "GGTA",
    "name": "George Town",
    "lat": 23.5,
    "lng": -75.76639
  },
  {
    "id": "GGWA",
    "name": "Glasgow",
    "lat": 48.212778,
    "lng": -106.615556
  },
  {
    "id": "GIBR",
    "name": "Gibraltar",
    "lat": 36.144806,
    "lng": -5.353775
  },
  {
    "id": "GISN",
    "name": "Gisborne",
    "lat": -38.659722,
    "lng": 177.972222
  },
  {
    "id": "GJAA",
    "name": "Guanaja",
    "lat": 16.445,
    "lng": -85.905833
  },
  {
    "id": "GJTA",
    "name": "Grand Junction",
    "lat": 39.118611,
    "lng": -108.513889
  },
  {
    "id": "GLAS",
    "name": "Glasgow",
    "lat": 55.870881,
    "lng": -4.258232
  },
  {
    "id": "GLHA",
    "name": "Greenville",
    "lat": 33.415968,
    "lng": -91.055374
  },
  {
    "id": "GLKA",
    "name": "Galcaio",
    "lat": 6.766667,
    "lng": 47.433333
  },
  {
    "id": "GLOA",
    "name": "Gloucester",
    "lat": 51.894111,
    "lng": -2.167108
  },
  {
    "id": "GLTA",
    "name": "Gladstone",
    "lat": -23.833333,
    "lng": 151.254167
  },
  {
    "id": "GMEA",
    "name": "Gomel",
    "lat": 52.416667,
    "lng": 31
  },
  {
    "id": "GMRP",
    "name": "Gambier Is",
    "lat": -23.166667,
    "lng": -135
  },
  {
    "id": "GNAA",
    "name": "Grodna",
    "lat": 53.666667,
    "lng": 23.8
  },
  {
    "id": "GNDA",
    "name": "St. George",
    "lat": 12.15,
    "lng": -61.616667
  },
  {
    "id": "GNVA",
    "name": "Gainesville",
    "lat": 29.654344,
    "lng": -82.331543
  },
  {
    "id": "GOHA",
    "name": "Nuuk",
    "lat": 64.181944,
    "lng": -51.725
  },
  {
    "id": "GOTH",
    "name": "Gothenburg",
    "lat": 57.714418,
    "lng": 11.962738
  },
  {
    "id": "GOUL",
    "name": "Goulimime",
    "lat": 28.983517,
    "lng": -10.06073
  },
  {
    "id": "GPSA",
    "name": "Galapagos Is",
    "lat": -0.434722,
    "lng": -90.282778
  },
  {
    "id": "GPTA",
    "name": "Gulfport",
    "lat": 30.36742,
    "lng": -89.09282
  },
  {
    "id": "GRAC",
    "name": "Graciosa Island",
    "lat": 39.051718,
    "lng": -28.007584
  },
  {
    "id": "GRAN",
    "name": "Gran Canaria",
    "lat": 28.15,
    "lng": -15.416667
  },
  {
    "id": "GRAO",
    "name": "Granada",
    "lat": 37.176184,
    "lng": -3.58017
  },
  {
    "id": "GRAZ",
    "name": "Graz",
    "lat": 47.070278,
    "lng": 15.438889
  },
  {
    "id": "GRBA",
    "name": "Green Bay",
    "lat": 44.488056,
    "lng": -88.130556
  },
  {
    "id": "GREN",
    "name": "Grenoble",
    "lat": 45.20016,
    "lng": 5.72224
  },
  {
    "id": "GRIA",
    "name": "Grand Island",
    "lat": 40.922222,
    "lng": -98.358056
  },
  {
    "id": "GRIM",
    "name": "Grimsey",
    "lat": 66.54,
    "lng": -18
  },
  {
    "id": "GRJA",
    "name": "George",
    "lat": -33.966667,
    "lng": 22.45
  },
  {
    "id": "GRON",
    "name": "Groningen",
    "lat": 53.216667,
    "lng": 6.55
  },
  {
    "id": "GROZ",
    "name": "Grozny",
    "lat": 43.3333,
    "lng": 45.7
  },
  {
    "id": "GRPA",
    "name": "Gurupi",
    "lat": -11.728889,
    "lng": -49.068889
  },
  {
    "id": "GRRA",
    "name": "Grand Rapids",
    "lat": 42.96125,
    "lng": -85.655719
  },
  {
    "id": "GRUM",
    "name": "Grumeti",
    "lat": -2.266712,
    "lng": 34.849319
  },
  {
    "id": "GSMA",
    "name": "Qeshm",
    "lat": 26.948333,
    "lng": 56.2775
  },
  {
    "id": "GSOA",
    "name": "Greensboro / High Point",
    "lat": 36.074771,
    "lng": -79.791298
  },
  {
    "id": "GSPA",
    "name": "Greenville",
    "lat": 34.851666,
    "lng": -82.314444
  },
  {
    "id": "GSTA",
    "name": "Gustavus",
    "lat": 58.422083,
    "lng": -135.719166
  },
  {
    "id": "GTAA",
    "name": "Gatokae",
    "lat": -8.766667,
    "lng": 158.183333
  },
  {
    "id": "GTEA",
    "name": "Groote Eylandt",
    "lat": -13.84833,
    "lng": 136.41917
  },
  {
    "id": "GTFA",
    "name": "Great Falls",
    "lat": 47.492778,
    "lng": -111.325138
  },
  {
    "id": "GUAA",
    "name": "Guatemala City",
    "lat": 14.581944,
    "lng": -90.5275
  },
  {
    "id": "GUER",
    "name": "Guernsey",
    "lat": 49.452057,
    "lng": -2.574921
  },
  {
    "id": "GUMA",
    "name": "Barrigada / Tamuning",
    "lat": 13.465139,
    "lng": 144.767916
  },
  {
    "id": "GUWA",
    "name": "Atyrau",
    "lat": 47.116667,
    "lng": 51.9
  },
  {
    "id": "GVRA",
    "name": "Governador Valadares",
    "lat": -18.850278,
    "lng": -41.933333
  },
  {
    "id": "GWDA",
    "name": "Gwadar",
    "lat": 25.126389,
    "lng": 62.3225
  },
  {
    "id": "GYAA",
    "name": "Guayaramerin",
    "lat": -10.81667,
    "lng": -65.34972
  },
  {
    "id": "GYEA",
    "name": "Guayaquil",
    "lat": -2.154444,
    "lng": -79.875556
  },
  {
    "id": "GYMA",
    "name": "Guaymas",
    "lat": 27.918333,
    "lng": -110.898889
  },
  {
    "id": "GYNA",
    "name": "Goiania",
    "lat": -16.629881,
    "lng": -49.226614
  },
  {
    "id": "GZPA",
    "name": "Gazipasa",
    "lat": 36.2993,
    "lng": 32.3014
  },
  {
    "id": "HAGF",
    "name": "Hagfors",
    "lat": 60.0158,
    "lng": 13.5692
  },
  {
    "id": "HALM",
    "name": "Halmstad",
    "lat": 56.6833,
    "lng": 12.8167
  },
  {
    "id": "HAMB",
    "name": "Hamburg",
    "lat": 53.565278,
    "lng": 10.001389
  },
  {
    "id": "HAMM",
    "name": "Hammerfest",
    "lat": 70.66446,
    "lng": 23.681889
  },
  {
    "id": "HANN",
    "name": "Hannover",
    "lat": 52.37052,
    "lng": 9.73322
  },
  {
    "id": "HANV",
    "name": "Hanoi",
    "lat": 21.060152,
    "lng": 105.843658
  },
  {
    "id": "HARA",
    "name": "Harrisburg",
    "lat": 40.2737,
    "lng": -76.88442
  },
  {
    "id": "HAUG",
    "name": "Haugesund",
    "lat": 59.446389,
    "lng": 5.298333
  },
  {
    "id": "HAVA",
    "name": "Havana",
    "lat": 23,
    "lng": -82
  },
  {
    "id": "HBAA",
    "name": "Hobart",
    "lat": -42.880556,
    "lng": 147.325
  },
  {
    "id": "HDDA",
    "name": "Hyderabad",
    "lat": 25.317917,
    "lng": 68.366278
  },
  {
    "id": "HDNA",
    "name": "Hayden",
    "lat": 40.483333,
    "lng": -107.216667
  },
  {
    "id": "HDSA",
    "name": "Hoedspruit",
    "lat": -24.36667,
    "lng": 31.03306
  },
  {
    "id": "HDYT",
    "name": "Hat Yai (Songkhla)",
    "lat": 7.016667,
    "lng": 100.466667
  },
  {
    "id": "HEAA",
    "name": "Herat",
    "lat": 34.341944,
    "lng": 62.203056
  },
  {
    "id": "HELG",
    "name": "Helgoland",
    "lat": 54.1833,
    "lng": 7.9167
  },
  {
    "id": "HELS",
    "name": "Helsinki",
    "lat": 60.170833,
    "lng": 24.9375
  },
  {
    "id": "HELT",
    "name": "Helsingborg",
    "lat": 56.05,
    "lng": 12.716667
  },
  {
    "id": "HEMA",
    "name": "Hemavan",
    "lat": 65.833333,
    "lng": 15.083333
  },
  {
    "id": "HERI",
    "name": "Heringsdorf",
    "lat": 54.18,
    "lng": 11.01
  },
  {
    "id": "HFDA",
    "name": "Hartford",
    "lat": 41.76371,
    "lng": -72.68509
  },
  {
    "id": "HGAA",
    "name": "Hargeisa",
    "lat": 9.518056,
    "lng": 44.088611
  },
  {
    "id": "HGDA",
    "name": "Hughenden",
    "lat": -20.818889,
    "lng": 144.224444
  },
  {
    "id": "HGNT",
    "name": "Mae Hong Son",
    "lat": 19.3,
    "lng": 97.966667
  },
  {
    "id": "HGRA",
    "name": "Hagerstown",
    "lat": 39.707778,
    "lng": -77.73
  },
  {
    "id": "HHHA",
    "name": "Hilton Head",
    "lat": 32.216667,
    "lng": -80.683333
  },
  {
    "id": "HIRA",
    "name": "Honiara",
    "lat": -9.43333,
    "lng": 159.95
  },
  {
    "id": "HISA",
    "name": "Hayman Island",
    "lat": -20.05642,
    "lng": 148.88569
  },
  {
    "id": "HJJA",
    "name": "Huai Hua",
    "lat": 27.532629,
    "lng": 109.953918
  },
  {
    "id": "HKGA",
    "name": "Hong Kong",
    "lat": 22.317361,
    "lng": 114.058333
  },
  {
    "id": "HKKN",
    "name": "Hokitika",
    "lat": -42.716111,
    "lng": 170.986667
  },
  {
    "id": "HKTT",
    "name": "Phuket",
    "lat": 8.110556,
    "lng": 98.3125
  },
  {
    "id": "HLAA",
    "name": "Lanseria",
    "lat": -25.93981,
    "lng": 27.93489
  },
  {
    "id": "HLMA",
    "name": "Holland",
    "lat": 42.783333,
    "lng": -86.116667
  },
  {
    "id": "HLNA",
    "name": "Helena",
    "lat": 46.598978,
    "lng": -112.037888
  },
  {
    "id": "HLTA",
    "name": "Hamilton",
    "lat": -37.733333,
    "lng": 142.016667
  },
  {
    "id": "HLZN",
    "name": "Hamilton",
    "lat": -37.866389,
    "lng": 175.335278
  },
  {
    "id": "HMAA",
    "name": "Khanty-Mansiysk",
    "lat": 61,
    "lng": 69
  },
  {
    "id": "HMEA",
    "name": "Hassi Messaoud",
    "lat": 31.673889,
    "lng": 6.140556
  },
  {
    "id": "HMOA",
    "name": "Hermosillo",
    "lat": 29.096389,
    "lng": -111.046111
  },
  {
    "id": "HNLA",
    "name": "Honolulu",
    "lat": 21.32125,
    "lng": -157.894167
  },
  {
    "id": "HNMA",
    "name": "Hana",
    "lat": 20.762214,
    "lng": -155.986977
  },
  {
    "id": "HODA",
    "name": "Hodeidah",
    "lat": 14.747222,
    "lng": 42.982778
  },
  {
    "id": "HOFA",
    "name": "Alahsa",
    "lat": 25.5,
    "lng": 49.833333
  },
  {
    "id": "HOFF",
    "name": "Hof",
    "lat": 50.31667,
    "lng": 11.91667
  },
  {
    "id": "HOGA",
    "name": "Holguin",
    "lat": 20.888611,
    "lng": -76.257222
  },
  {
    "id": "HOIP",
    "name": "Hao Island",
    "lat": -18.064167,
    "lng": -140.956944
  },
  {
    "id": "HONA",
    "name": "Huron",
    "lat": 44.383611,
    "lng": -98.226389
  },
  {
    "id": "HONN",
    "name": "Honningsvag Valan",
    "lat": 70.9833,
    "lng": 25.8333
  },
  {
    "id": "HORT",
    "name": "Horta",
    "lat": 38.541318,
    "lng": -28.627453
  },
  {
    "id": "HOUA",
    "name": "Houston",
    "lat": 29.76328,
    "lng": -95.36327
  },
  {
    "id": "HPHV",
    "name": "Haiphong",
    "lat": 20.85,
    "lng": 106.683333
  },
  {
    "id": "HPNA",
    "name": "Westchester County",
    "lat": 41.03899,
    "lng": -73.74763
  },
  {
    "id": "HREA",
    "name": "Harare",
    "lat": -17.863889,
    "lng": 31.029722
  },
  {
    "id": "HRLA",
    "name": "Harlingen",
    "lat": 26.233333,
    "lng": -97.65
  },
  {
    "id": "HSKA",
    "name": "Huesca",
    "lat": 42.134895,
    "lng": -0.411987
  },
  {
    "id": "HSVA",
    "name": "Huntsville",
    "lat": 34.73037,
    "lng": -86.5861
  },
  {
    "id": "HTIA",
    "name": "Hamilton Island",
    "lat": -20.35,
    "lng": 148.966667
  },
  {
    "id": "HTSA",
    "name": "Ashland",
    "lat": 38.47841,
    "lng": -82.63794
  },
  {
    "id": "HTYA",
    "name": "Antakya",
    "lat": 36.2,
    "lng": 36.15
  },
  {
    "id": "HUHP",
    "name": "Huahine",
    "lat": -16.726139,
    "lng": -151.007595
  },
  {
    "id": "HUIV",
    "name": "Hue",
    "lat": 16.466667,
    "lng": 107.6
  },
  {
    "id": "HUMB",
    "name": "Humberside",
    "lat": 53.325952,
    "lng": 0.280151
  },
  {
    "id": "HURG",
    "name": "Hurghada",
    "lat": 27.204564,
    "lng": 33.809052
  },
  {
    "id": "HUXA",
    "name": "Huatulco",
    "lat": 15.85,
    "lng": -96.333333
  },
  {
    "id": "HVBA",
    "name": "Hervey Bay",
    "lat": -25,
    "lng": 153
  },
  {
    "id": "HVNA",
    "name": "New Haven",
    "lat": 41.30815,
    "lng": -72.92816
  },
  {
    "id": "HYGA",
    "name": "Hydaburg",
    "lat": 55.206667,
    "lng": -132.826667
  },
  {
    "id": "HYSA",
    "name": "Hays",
    "lat": 38.846111,
    "lng": -99.274167
  },
  {
    "id": "HZHA",
    "name": "Liping City",
    "lat": 26.23111,
    "lng": 109.13139
  },
  {
    "id": "IAGA",
    "name": "Niagara Falls",
    "lat": 43.1,
    "lng": -78.95
  },
  {
    "id": "IAGR",
    "name": "Agra",
    "lat": 27.158333,
    "lng": 77.962778
  },
  {
    "id": "IAJL",
    "name": "Aizawl",
    "lat": 23.75,
    "lng": 92.75
  },
  {
    "id": "IAMD",
    "name": "Ahmedabad",
    "lat": 23.066389,
    "lng": 72.624167
  },
  {
    "id": "IANA",
    "name": "Kiana",
    "lat": 66.971667,
    "lng": -160.430278
  },
  {
    "id": "IASI",
    "name": "Iasi",
    "lat": 47.1833,
    "lng": 27.6
  },
  {
    "id": "IATQ",
    "name": "Amritsar",
    "lat": 31.706944,
    "lng": 74.797222
  },
  {
    "id": "IBBI",
    "name": "Bhubaneswar",
    "lat": 20.243611,
    "lng": 85.82
  },
  {
    "id": "IBDQ",
    "name": "Vadodara",
    "lat": 22.336111,
    "lng": 73.226111
  },
  {
    "id": "IBHJ",
    "name": "Bhuj",
    "lat": 23.2875,
    "lng": 69.670556
  },
  {
    "id": "IBHO",
    "name": "Bhopal",
    "lat": 23.284722,
    "lng": 77.338611
  },
  {
    "id": "IBHU",
    "name": "Bhavnagar",
    "lat": 21.753611,
    "lng": 72.191111
  },
  {
    "id": "IBIZ",
    "name": "Ibiza",
    "lat": 38.98,
    "lng": 1.43
  },
  {
    "id": "IBLR",
    "name": "Bangalore",
    "lat": 12.949722,
    "lng": 77.668056
  },
  {
    "id": "IBOM",
    "name": "Mumbai",
    "lat": 19.088056,
    "lng": 72.851667
  },
  {
    "id": "IBRA",
    "name": "Omitama",
    "lat": 36.181667,
    "lng": 140.41472
  },
  {
    "id": "ICCJ",
    "name": "Kozhikode",
    "lat": 11.25,
    "lng": 75.76667
  },
  {
    "id": "ICCU",
    "name": "Kolkata",
    "lat": 22.56972,
    "lng": 88.36972
  },
  {
    "id": "ICIF",
    "name": "Cicia",
    "lat": -17.75,
    "lng": -179.333333
  },
  {
    "id": "ICJB",
    "name": "Coimbatore",
    "lat": 11.028889,
    "lng": 77.043056
  },
  {
    "id": "ICOK",
    "name": "Kochi",
    "lat": 9.944444,
    "lng": 76.271944
  },
  {
    "id": "ICTA",
    "name": "Wichita",
    "lat": 37.679243,
    "lng": -97.342791
  },
  {
    "id": "IDAA",
    "name": "Idaho Falls",
    "lat": 43.516111,
    "lng": -112.064722
  },
  {
    "id": "IDED",
    "name": "Dehra Dun",
    "lat": 30.316667,
    "lng": 78.033333
  },
  {
    "id": "IDEL",
    "name": "Delhi",
    "lat": 28.573611,
    "lng": 77.100833
  },
  {
    "id": "IDHM",
    "name": "Dharamsala",
    "lat": 32.3,
    "lng": 76.266667
  },
  {
    "id": "IDIB",
    "name": "Dibrugarh",
    "lat": 27.483333,
    "lng": 94.9
  },
  {
    "id": "IDMU",
    "name": "Dimapur",
    "lat": 25.883889,
    "lng": 93.773611
  },
  {
    "id": "IFNA",
    "name": "Isfahan",
    "lat": 32.75,
    "lng": 51.85
  },
  {
    "id": "IGAR",
    "name": "Igarka",
    "lat": 67.475448,
    "lng": 86.572266
  },
  {
    "id": "IGAU",
    "name": "Guwahati",
    "lat": 26.18617,
    "lng": 91.75095
  },
  {
    "id": "IGOI",
    "name": "Goa",
    "lat": 15.374167,
    "lng": 73.825833
  },
  {
    "id": "IGOP",
    "name": "Gorakhpur",
    "lat": 27,
    "lng": 83.175
  },
  {
    "id": "IGRA",
    "name": "Iguazu",
    "lat": -25.566667,
    "lng": -54.566667
  },
  {
    "id": "IGUA",
    "name": "Iguassu Falls",
    "lat": -25.6,
    "lng": -54.483333
  },
  {
    "id": "IHBX",
    "name": "Hubli",
    "lat": 15.333333,
    "lng": 75.233333
  },
  {
    "id": "IHJR",
    "name": "Khajuraho",
    "lat": 24.819444,
    "lng": 79.919167
  },
  {
    "id": "IHRA",
    "name": "Iran Shahr",
    "lat": 27.21667,
    "lng": 60.71667
  },
  {
    "id": "IHYD",
    "name": "Hyderabad",
    "lat": 17.45,
    "lng": 78.4625
  },
  {
    "id": "IIDR",
    "name": "Indore",
    "lat": 22.722778,
    "lng": 75.806389
  },
  {
    "id": "IISK",
    "name": "Nasik",
    "lat": 19.9625,
    "lng": 73.806944
  },
  {
    "id": "IIXA",
    "name": "Agartala",
    "lat": 23.89,
    "lng": 91.242222
  },
  {
    "id": "IIXB",
    "name": "Bagdogra",
    "lat": 26.683333,
    "lng": 88.333333
  },
  {
    "id": "IIXC",
    "name": "Chandigarh",
    "lat": 30.673333,
    "lng": 76.788333
  },
  {
    "id": "IIXE",
    "name": "Mangalore",
    "lat": 12.960556,
    "lng": 74.890833
  },
  {
    "id": "IIXG",
    "name": "Belgaum",
    "lat": 15.8575,
    "lng": 74.618611
  },
  {
    "id": "IIXJ",
    "name": "Jammu",
    "lat": 32.689722,
    "lng": 74.838056
  },
  {
    "id": "IIXL",
    "name": "Leh",
    "lat": 34.166667,
    "lng": 77.583333
  },
  {
    "id": "IIXM",
    "name": "Madurai",
    "lat": 9.833611,
    "lng": 78.089444
  },
  {
    "id": "IIXR",
    "name": "Ranchi",
    "lat": 23.313611,
    "lng": 85.323333
  },
  {
    "id": "IIXY",
    "name": "Kandla",
    "lat": 23.1125,
    "lng": 70.100278
  },
  {
    "id": "IIXZ",
    "name": "Port Blair",
    "lat": 11.645556,
    "lng": 92.733056
  },
  {
    "id": "IJAI",
    "name": "Jaipur",
    "lat": 26.821667,
    "lng": 75.806111
  },
  {
    "id": "IJDH",
    "name": "Jodhpur",
    "lat": 26.260556,
    "lng": 73.047778
  },
  {
    "id": "IJLR",
    "name": "Jabalpur",
    "lat": 22.666667,
    "lng": 79.925
  },
  {
    "id": "IKAA",
    "name": "Imam Khomeini",
    "lat": 35.69439,
    "lng": 51.42151
  },
  {
    "id": "IKAR",
    "name": "Ikaria",
    "lat": 37.666667,
    "lng": 26.333333
  },
  {
    "id": "IKUU",
    "name": "Kulu",
    "lat": 31.983333,
    "lng": 77.1
  },
  {
    "id": "ILEA",
    "name": "Killeen",
    "lat": 31.106574,
    "lng": -97.702222
  },
  {
    "id": "ILKO",
    "name": "Lucknow",
    "lat": 26.761667,
    "lng": 80.885278
  },
  {
    "id": "ILMA",
    "name": "Wilmington",
    "lat": 34.266944,
    "lng": -77.903889
  },
  {
    "id": "ILTU",
    "name": "Latur",
    "lat": 18.411944,
    "lng": 76.465
  },
  {
    "id": "IMAA",
    "name": "Chennai",
    "lat": 13,
    "lng": 80
  },
  {
    "id": "IMPA",
    "name": "Imperatriz",
    "lat": -5.530556,
    "lng": -47.458333
  },
  {
    "id": "IMYQ",
    "name": "Mysore",
    "lat": 12.3,
    "lng": 76.65
  },
  {
    "id": "INAG",
    "name": "Nagpur",
    "lat": 21.091111,
    "lng": 79.049722
  },
  {
    "id": "INDA",
    "name": "Indianapolis",
    "lat": 39.790942,
    "lng": -86.147685
  },
  {
    "id": "INLA",
    "name": "International Falls",
    "lat": 48.563056,
    "lng": -93.404167
  },
  {
    "id": "INNS",
    "name": "Innsbruck",
    "lat": 47.266667,
    "lng": 11.383333
  },
  {
    "id": "INTB",
    "name": "Winston-Salem",
    "lat": 36.094609,
    "lng": -80.241737
  },
  {
    "id": "INUA",
    "name": "Nauru Island",
    "lat": -0.533333,
    "lng": 166.916667
  },
  {
    "id": "INVE",
    "name": "Inverness",
    "lat": 57.4717,
    "lng": -4.2254
  },
  {
    "id": "IOAN",
    "name": "Ioannina",
    "lat": 39.7,
    "lng": 20.8167
  },
  {
    "id": "IOSA",
    "name": "Ilheus",
    "lat": -14.814722,
    "lng": -39.033611
  },
  {
    "id": "IPAT",
    "name": "Patna",
    "lat": 25.590556,
    "lng": 85.09
  },
  {
    "id": "IPBD",
    "name": "Porbandar",
    "lat": 21.649444,
    "lng": 69.656389
  },
  {
    "id": "IPCA",
    "name": "Easter Island",
    "lat": -27.116667,
    "lng": -109.366667
  },
  {
    "id": "IPGH",
    "name": "Pantnagar",
    "lat": 29.033056,
    "lng": 79.473611
  },
  {
    "id": "IPHM",
    "name": "Ipoh",
    "lat": 4.566944,
    "lng": 101.095833
  },
  {
    "id": "IPLA",
    "name": "Imperial",
    "lat": 32.837222,
    "lng": -115.574722
  },
  {
    "id": "IPNQ",
    "name": "Pune",
    "lat": 18.581944,
    "lng": 73.919444
  },
  {
    "id": "IQQA",
    "name": "Iquique",
    "lat": -20.216667,
    "lng": -70.15
  },
  {
    "id": "IQTA",
    "name": "Iquitos",
    "lat": -3.75,
    "lng": -73.2
  },
  {
    "id": "IRAA",
    "name": "Kirakira",
    "lat": -10.45,
    "lng": 161.916667
  },
  {
    "id": "IRGA",
    "name": "Lockhart River",
    "lat": -12.786273,
    "lng": 143.343172
  },
  {
    "id": "IRIA",
    "name": "Iringa",
    "lat": -7.77,
    "lng": 35.69
  },
  {
    "id": "IRKA",
    "name": "Kirksville",
    "lat": 40.193611,
    "lng": -92.579444
  },
  {
    "id": "IRKU",
    "name": "Irkutsk",
    "lat": 52.312222,
    "lng": 104.295833
  },
  {
    "id": "IRPR",
    "name": "Raipur",
    "lat": 21.180278,
    "lng": 81.738611
  },
  {
    "id": "IRZN",
    "name": "Santa Isabel do Rio Negro",
    "lat": -0.413889,
    "lng": -65.018889
  },
  {
    "id": "ISAA",
    "name": "Mount Isa",
    "lat": -20.663889,
    "lng": 139.488611
  },
  {
    "id": "ISAF",
    "name": "Isafjordur",
    "lat": 66.07549,
    "lng": -23.124
  },
  {
    "id": "ISBA",
    "name": "Islamabad",
    "lat": 33.72148,
    "lng": 73.04329
  },
  {
    "id": "ISHL",
    "name": "Shillong",
    "lat": 25.566667,
    "lng": 91.883333
  },
  {
    "id": "ISLA",
    "name": "Islay",
    "lat": 55.734843,
    "lng": -6.181183
  },
  {
    "id": "ISPA",
    "name": "Islip",
    "lat": 40.756667,
    "lng": -73.198889
  },
  {
    "id": "ISSE",
    "name": "Sholapur",
    "lat": 17.633333,
    "lng": 75.933333
  },
  {
    "id": "ISTA",
    "name": "Istanbul",
    "lat": 41.01224,
    "lng": 28.976018
  },
  {
    "id": "ISTV",
    "name": "Surat",
    "lat": 21.16667,
    "lng": 72.83333
  },
  {
    "id": "ISUA",
    "name": "Sulaymaniyah",
    "lat": 35.553457,
    "lng": 45.451813
  },
  {
    "id": "ISXR",
    "name": "Srinagar",
    "lat": 34.08333,
    "lng": 74.81667
  },
  {
    "id": "ISXV",
    "name": "Salem",
    "lat": 11.65,
    "lng": 78.166667
  },
  {
    "id": "ITAA",
    "name": "Itacoatiara",
    "lat": -3.133333,
    "lng": -58.416667
  },
  {
    "id": "ITBA",
    "name": "Itaituba",
    "lat": -4.283333,
    "lng": -55.983333
  },
  {
    "id": "ITCR",
    "name": "Tuticorin",
    "lat": 8.76667,
    "lng": 78.1
  },
  {
    "id": "ITEZ",
    "name": "Tezpur",
    "lat": 26.710833,
    "lng": 92.796111
  },
  {
    "id": "ITHA",
    "name": "Ithaca",
    "lat": 42.490278,
    "lng": -76.458056
  },
  {
    "id": "ITOA",
    "name": "Hilo",
    "lat": 19.723611,
    "lng": -155.058056
  },
  {
    "id": "ITRV",
    "name": "Thiruvananthapuram",
    "lat": 8.479722,
    "lng": 76.919722
  },
  {
    "id": "ITRZ",
    "name": "Tiruchirapalli",
    "lat": 10.764167,
    "lng": 78.716111
  },
  {
    "id": "IUDR",
    "name": "Udaipur",
    "lat": 24.57117,
    "lng": 73.69183
  },
  {
    "id": "IVAL",
    "name": "Ivalo",
    "lat": 68.6,
    "lng": 27.4167
  },
  {
    "id": "IVAN",
    "name": "Ivano-Frankovsk",
    "lat": 48.916667,
    "lng": 24.716667
  },
  {
    "id": "IVCN",
    "name": "Invercargill",
    "lat": -46.41218,
    "lng": 168.355865
  },
  {
    "id": "IVGA",
    "name": "Vijayawada",
    "lat": 16.526389,
    "lng": 80.798333
  },
  {
    "id": "IVNS",
    "name": "Varanasi",
    "lat": 25.33333,
    "lng": 83
  },
  {
    "id": "IVTZ",
    "name": "Visakhapatnam",
    "lat": 17.716667,
    "lng": 83.216667
  },
  {
    "id": "IZMI",
    "name": "Izmir",
    "lat": 38.422,
    "lng": 27.129
  },
  {
    "id": "JACA",
    "name": "Jackson",
    "lat": 43.47993,
    "lng": -110.76243
  },
  {
    "id": "JAKJ",
    "name": "Asahikawa",
    "lat": 43.766667,
    "lng": 142.366667
  },
  {
    "id": "JANA",
    "name": "Jackson",
    "lat": 32.300483,
    "lng": -90.184364
  },
  {
    "id": "JAOJ",
    "name": "Aomori",
    "lat": 40.8268,
    "lng": 140.74379
  },
  {
    "id": "JASJ",
    "name": "Amami O Shima",
    "lat": 28.3769,
    "lng": 129.49379
  },
  {
    "id": "JAVA",
    "name": "Ilulissat",
    "lat": 69.23306,
    "lng": -51.06639
  },
  {
    "id": "JAXA",
    "name": "Jacksonville",
    "lat": 30.337621,
    "lng": -81.655884
  },
  {
    "id": "JBRA",
    "name": "Jonesboro",
    "lat": 35.83,
    "lng": -90.648333
  },
  {
    "id": "JCKA",
    "name": "Julia Creek",
    "lat": -20.583333,
    "lng": 141.7
  },
  {
    "id": "JDFA",
    "name": "Juiz De Fora",
    "lat": -21.793056,
    "lng": -43.385556
  },
  {
    "id": "JDOA",
    "name": "Juazeiro Do Norte",
    "lat": -7.2,
    "lng": -39.316667
  },
  {
    "id": "JEDA",
    "name": "Jeddah",
    "lat": 21.543333,
    "lng": 39.172778
  },
  {
    "id": "JEGA",
    "name": "Aasiaat",
    "lat": 68.70981,
    "lng": -52.86988
  },
  {
    "id": "JERE",
    "name": "Jerez",
    "lat": 36.686041,
    "lng": -6.137924
  },
  {
    "id": "JERS",
    "name": "Jersey",
    "lat": 49.11,
    "lng": -2.7
  },
  {
    "id": "JERU",
    "name": "Jerusalem",
    "lat": 31.8667,
    "lng": 35.2167
  },
  {
    "id": "JFKS",
    "name": "Fukushima",
    "lat": 37.766667,
    "lng": 140.466667
  },
  {
    "id": "JFRA",
    "name": "Paamiut",
    "lat": 62,
    "lng": -49.66639
  },
  {
    "id": "JFUK",
    "name": "Fukuoka",
    "lat": 33.582222,
    "lng": 130.453333
  },
  {
    "id": "JGAJ",
    "name": "Yamagata",
    "lat": 38.24056,
    "lng": 140.36333
  },
  {
    "id": "JHBM",
    "name": "Johor Bahru",
    "lat": 1.483333,
    "lng": 103.733333
  },
  {
    "id": "JHIJ",
    "name": "Hiroshima",
    "lat": 34.398056,
    "lng": 132.475806
  },
  {
    "id": "JHKD",
    "name": "Hakodate",
    "lat": 41.768889,
    "lng": 140.819722
  },
  {
    "id": "JHMA",
    "name": "Kapalua",
    "lat": 20.996667,
    "lng": -156.653056
  },
  {
    "id": "JHSA",
    "name": "Sisimiut",
    "lat": 66.91667,
    "lng": -53.66639
  },
  {
    "id": "JHSG",
    "name": "Saga",
    "lat": 33.266667,
    "lng": 130.3
  },
  {
    "id": "JIBA",
    "name": "Djibouti",
    "lat": 11.546667,
    "lng": 43.158889
  },
  {
    "id": "JINA",
    "name": "Jinan",
    "lat": 36.666667,
    "lng": 116.983333
  },
  {
    "id": "JISG",
    "name": "Ishigaki",
    "lat": 24.344444,
    "lng": 124.186944
  },
  {
    "id": "JKCZ",
    "name": "Kochi",
    "lat": 33.544564,
    "lng": 133.67145
  },
  {
    "id": "JKIJ",
    "name": "Niigata",
    "lat": 37.916111,
    "lng": 139.036389
  },
  {
    "id": "JKKJ",
    "name": "Kita Kyushu",
    "lat": 33.85331,
    "lng": 130.841331
  },
  {
    "id": "JKLA",
    "name": "Kalymnos",
    "lat": 36.983333,
    "lng": 26.983333
  },