"iata","longitude","latitude","iso","name","continent","type","size","timezone","icao","city","country"
"GKA","145.39293","-6.075244","PG","Goroka","OC","airport","medium","10","AYGA","Goroka","Papua New Guinea"
"MAG","145.78784","-5.210852","PG","Madang","OC","airport","medium","10","AYMD","Madang","Papua New Guinea"
"HGU","144.29738","-5.828767","PG","Mount Hagen","OC","airport","medium","10","AYMH","Mount Hagen","Papua New Guinea"
"LAE","146.72757","-6.562694","PG","Nadzab","OC","airport","medium","10","AYNZ","Nadzab","Papua New Guinea"
"POM","147.21446","-9.444308","PG","Port Moresby Jacksons Intl","OC","airport","large","10","AYPY","Port Moresby","Papua New Guinea"
"WWK","143.66916","-3.580034","PG","Wewak Intl","OC","airport","medium","10","AYWK","Wewak","Papua New Guinea"
"UAK","-45.316666","61.166668","GL","Narsarsuaq","NA","airport","medium","-3","BGBW","Narssarssuaq","Greenland"
"GOH","-51.725","64.181946","GL","Nuuk","NA","airport","medium","-3","BGGH","Godthaab","Greenland"
"SFJ","-50.719723","67.01222","GL","Sondre Stromfjord","NA","airport","medium","-3","BGSF","Sondrestrom","Greenland"
"THU","-68.7","76.53333","GL","Thule Air Base","NA","airport","medium","-4","BGTL","Thule","Greenland"
"AEY","-18.075068","65.654564","IS","Akureyri","EU","airport","medium","0","BIAR","Akureyri","Iceland"
"EGS","-14.402778","65.27778","IS","Egilsstadir","EU","airport","medium","0","BIEG","Egilsstadir","Iceland"
"HFN","-15.266667","64.28333","IS","Hornafjordur","EU","airport","medium","0","BIHN","Hofn","Iceland"
"HZK","-17.427778","65.95528","IS","Husavik","EU","airport","medium","0","BIHU","Husavik","Iceland"
"IFJ","-23.132778","66.05972","IS","Isafjordur","EU","airport","medium","0","BIIS","Isafjordur","Iceland"
"KEF","-22.624283","63.997765","IS","Keflavik International Airport","EU","airport","large","0","BIKF","Keflavik","Iceland"
"PFJ","-19.008333","65.03333","IS","Patreksfjordur","EU","airport","medium","0","BIPA","Patreksfjordur","Iceland"
"SIJ","-18.933332","66.166664","IS","Siglufjordur","EU","airport","medium","0","BISI","Siglufjordur","Iceland"
"VEY","-20.277779","63.426388","IS","Vestmannaeyjar","EU","airport","medium","0","BIVM","Vestmannaeyjar","Iceland"
"YAM","-84.49995","46.485302","CA","Sault Ste Marie","NA","airport","medium","-5","CYAM","Sault Sainte Marie","Canada"
"YAV","-123.3","48.86667","CA","Winnipeg St Andrews","NA","airport","medium","-6","CYAV","Winnipeg","Canada"
"YAW",,,"CA","Shearwater","NA","heliport",null,"-4","CYAW","Halifax","Canada"
"YAY","-55.583332","51.36667","CA","St Anthony","NA","airport","medium","-4","CYAY","St. Anthony","Canada"
"YAZ","-125.77639","49.076942","CA","Tofino","NA","airport","medium","-8","CYAZ","Tofino","Canada"
"YBB","-89.85","68.88333","CA","Kugaaruk","NA","airport","medium","-6","CYBB","Pelly Bay","Canada"
"YBC","-68.26667","49.2","CA","Baie Comeau","NA","airport","medium","-5","CYBC","Baie Comeau","Canada"
"YBG","-70.98861","48.322224","CA","Bagotville","NA","airport","medium","-5","CYBG","Bagotville","Canada"
"YBK","-96.083336","64.3","CA","Baker Lake","NA","airport","medium","-6","CYBK","Baker Lake","Canada"
"YBL","-125.26813","49.951725","CA","Campbell River","NA","airport","medium","-8","CYBL","Campbell River","Canada"
"YBR","-99.94677","49.908688","CA","Brandon Muni","NA","airport","medium","-6","CYBR","Brandon","Canada"
"YCB","-105.13333","69.1","CA","Cambridge Bay","NA","airport","medium","-7","CYCB","Cambridge Bay","Canada"
"YCD","-123.86667","49.05","CA","Nanaimo","NA","airport","medium","-8","CYCD","Nanaimo","Canada"
"YCG","-117.632225","49.295555","CA","Castlegar","NA","airport","medium","-8","CYCG","Castlegar","Canada"
"YCH","-65.44744","47.014008","CA","Miramichi","NA","airport","medium","-4","CYCH","Chatham","Canada"
"YCL","-66.32881","47.99093","CA","Charlo","NA","airport","medium","-4","CYCL","Charlo","Canada"
"YCO","-115.083336","67.833336","CA","Kugluktuk","NA","airport","medium","-7","CYCO","Coppermine","Canada"
"YCY","-68.5","70.416664","CA","Clyde River","NA","airport","medium","-5","CYCY","Clyde River","Canada"
"YZS","-83.36667","64.2","CA","Fairmont Hot Springs","NA","airport","medium","-7","CYCZ","Coral Harbour","Canada"
"YDA","-139.12083","64.041664","CA","Dawson City","NA","airport","medium","-8","CYDA","Dawson","Canada"
"YDB","-139.01666","61.35","CA","Burwash","NA","airport","medium","-8","CYDB","Burwash","Canada"
"YDF","-57.399727","49.21027","CA","Deer Lake","NA","airport","medium","-4","CYDF","Deer Lake","Canada"
"YDN","-100.05","51.1","CA","Dauphin Barker","NA","airport","medium","-6","CYDN","Dauphin","Canada"
"YDQ","-120.183334","55.733334","CA","Dawson Creek","NA","airport","medium","-7","CYDQ","Dawson Creek","Canada"
"YEG","-113.584045","53.307377","CA","Edmonton Intl","NA","airport","large","-7","CYEG","Edmonton","Canada"
"YEK","-94.05","61.11667","CA","Arviat","NA","airport","medium","-6","CYEK","Eskimo Point","Canada"
"YEN","-102.96282","49.207542","CA","Estevan","NA","airport","medium","-6","CYEN","Estevan","Canada"
"YET","-116.46667","53.583332","CA","Edson","NA","airport","medium","-7","CYET","Edson","Canada"
"YEU","-85.933334","80.0","CA","Eureka","NA","airport","small","-6","CYEU","Eureka","Canada"
"YEV","-133.49767","68.30665","CA","Inuvik Mike Zubko","NA","airport","medium","-7","CYEV","Inuvik","Canada"
"YFB","-68.53658","63.75175","CA","Iqaluit","NA","airport","medium","-5","CYFB","Iqaluit","Canada"
"YFC","-66.52978","45.87316","CA","Fredericton","NA","airport","medium","-4","CYFC","Fredericton","Canada"
"YFO","-101.683334","54.683334","CA","Flin Flon","NA","airport","medium","-6","CYFO","Flin Flon","Canada"
"YFR","-113.683334","61.183334","CA","Fort Resolution","NA","airport","medium","-7","CYFR","Fort Resolution","Canada"
"YFS","-121.23333","61.75","CA","Fort Simpson","NA","airport","medium","-7","CYFS","Fort Simpson","Canada"
"YGK","-76.59366","44.219513","CA","Kingston","NA","airport","medium","-5","CYGK","Kingston","Canada"
"YGL","-77.70639","53.629723","CA","La Grande Riviere","NA","airport","medium","-5","CYGL","La Grande Riviere","Canada"
"YGP","-64.48333","48.766666","CA","Gaspe","NA","airport","medium","-5","CYGP","Gaspe","Canada"
"YGQ","-86.93593","49.779892","CA","Geraldton Greenstone Regional","NA","airport","medium","-5","CYGQ","Geraldton","Canada"
"YGR","-61.9","47.36667","CA","Iles De La Madeleine","NA","airport","medium","-4","CYGR","Iles De La Madeleine","Canada"
"YHD","-92.833336","49.783333","CA","Dryden Rgnl","NA","airport","medium","-6","CYHD","Dryden","Canada"
"YHI","-117.71667","70.71667","CA","Ulukhaktok Holman","NA","airport","medium","-7","CYHI","Holman Island","Canada"
"YHK","-95.95","68.63333","CA","Gjoa Haven","NA","airport","medium","-6","CYHK","Gjoa Haven","Canada"
"YHM","-79.92631","43.16138","CA","Hamilton","NA","airport","medium","-5","CYHM","Hamilton","Canada"
"YHU","-73.6","45.5","CA","St Hubert","NA","airport","medium","-5","CYHU","Montreal","Canada"
"YHY","-115.778336","60.845554","CA","Hay River","NA","airport","medium","-7","CYHY","Hay River","Canada"
"YHZ","-63.51425","44.88496","CA","Halifax Intl","NA","airport","large","-4","CYHZ","Halifax","Canada"
"YIB","-91.61667","48.75","CA","Atikokan Muni","NA","airport","medium","-6","CYIB","Atikokan","Canada"
"YIO","-78.0","72.683334","CA","Pond Inlet","NA","airport","medium","-5","CYIO","Pond Inlet","Canada"
"YJN","-73.333336","45.333332","CA","St Jean","NA","airport","medium","-5","CYJN","St. Jean","Canada"
"YJT","-58.55","48.533333","CA","Stephenville","NA","airport","medium","-4","CYJT","Stephenville","Canada"
"YKA","-120.442024","50.70545","CA","Kamloops","NA","airport","medium","-8","CYKA","Kamloops","Canada"
"YKF","-80.385056","43.458977","CA","Waterloo","NA","airport","medium","-5","CYKF","Waterloo","Canada"
"YKL","-64.816666","54.783333","CA","Schefferville","NA","airport","medium","-4","CYKL","Schefferville","Canada"
"YKY","-109.17811","51.517605","CA","Kindersley","NA","airport","medium","-6","CYKY","Kindersley","Canada"
"YKZ","-79.36774","43.86131","CA","Buttonville Muni","NA","airport","medium","-5","CYKZ","Toronto","Canada"
"YLD","-83.352776","47.819443","CA","Chapleau","NA","airport","medium","-5","CYLD","Chapleau","Canada"
"YLJ","-108.666664","54.5","CA","Meadow Lake","NA","airport","medium","-6","CYLJ","Meadow Lake","Canada"
"YLL","-110.072716","53.31297","CA","Lloydminster","NA","airport","medium","-6","CYLL","Lloydminster","Canada"
"YLT","-62.283333","82.51667","CA","Alert","NA","airport","medium","-5","CYLT","Alert","Canada"
"YLW","-119.38139","49.95154","CA","Kelowna","NA","airport","medium","-8","CYLW","Kelowna","Canada"
"YMA","-135.87361","63.61639","CA","Mayo","NA","airport","medium","-8","CYMA","Mayo","Canada"
"YMJ","-105.53333","50.38333","CA","Moose Jaw Air Vice Marshal C M Mcewen","NA","airport","medium","-6","CYMJ","Moose Jaw","Canada"
"YMM","-111.22395","56.65659","CA","Fort Mcmurray","NA","airport","medium","-7","CYMM","Fort Mcmurray","Canada"
"YMO","-80.604164","51.29111","CA","Moosonee","NA","airport","medium","-5","CYMO","Moosonee","Canada"
"YMX","-74.03","45.666668","CA","Montreal Intl Mirabel","NA","airport","medium","-5","CYMX","Montreal","Canada"
"YNA","-61.8","50.183334","CA","Natashquan","NA","airport","medium","-4","CYNA","Natashquan","Canada"
"YND","-75.56283","45.52063","CA","Gatineau","NA","airport","medium","-5","CYND","Gatineau","Canada"
"YNM","-77.8","49.75","CA","Matagami","NA","airport","medium","-5","CYNM","Matagami","Canada"
"YOC","-139.83333","67.583336","CA","Old Crow","NA","airport","medium","-8","CYOC","Old Crow","Canada"
"YOD","-110.25","54.466667","CA","Cold Lake","NA","airport","medium","-7","CYOD","Cold Lake","Canada"
"YOJ","-117.168335","58.618332","CA","High Level","NA","airport","medium","-7","CYOJ","High Level","Canada"
"YOW","-75.672775","45.32083","CA","Ottawa Macdonald Cartier Intl","NA","airport","large","-5","CYOW","Ottawa","Canada"
"YPA","-105.683334","53.216667","CA","Prince Albert Glass Field","NA","airport","medium","-6","CYPA","Prince Albert","Canada"
"YPE","-117.44028","56.22778","CA","Peace River","NA","airport","medium","-7","CYPE","Peace River","Canada"
"YPG","-98.3","49.966667","CA","Southport","NA","airport","medium","-6","CYPG","Portage-la-prairie","Canada"
"YPL","-90.208336","51.208332","CA","Pickle Lake","NA","airport","medium","-6","CYPL","Pickle Lake","Canada"
"YPN","-64.28831","49.836533","CA","Port Menier","NA","airport","medium","-5","CYPN","Port Menier","Canada"
"YPQ","-78.316666","44.3","CA","Peterborough","NA","airport","medium","-5","CYPQ","Peterborough","Canada"
"YPR","-130.44083","54.287224","CA","Prince Rupert","NA","airport","medium","-8","CYPR","Prince Pupert","Canada"
"YPY","-111.11406","58.76799","CA","Fort Chipewyan","NA","airport","medium","-7","CYPY","Fort Chipewyan","Canada"
"YQA","-79.3","44.966667","CA","Muskoka","NA","airport","medium","-5","CYQA","Muskoka","Canada"
"YQB","-71.383385","46.792038","CA","Quebec Jean Lesage Intl","NA","airport","large","-5","CYQB","Quebec","Canada"
"YQF","-113.89333","52.176945","CA","Red Deer Regional","NA","airport","medium","-7","CYQF","Red Deer Industrial","Canada"
"YQG","-82.96389","42.274166","CA","Windsor","NA","airport","medium","-5","CYQG","Windsor","Canada"
"YQH","-128.825","60.12361","CA","Watson Lake","NA","airport","medium","-8","CYQH","Watson Lake","Canada"
"YQK","-94.35833","49.7875","CA","Kenora","NA","airport","medium","-6","CYQK","Kenora","Canada"
"YQL","-112.791664","49.631943","CA","Lethbridge","NA","airport","medium","-7","CYQL","Lethbridge","Canada"
"YQM","-64.68123","46.104774","CA","Greater Moncton Intl","NA","airport","medium","-4","CYQM","Moncton","Canada"
"YQQ","-124.907814","49.705864","CA","Comox","NA","airport","medium","-8","CYQQ","Comox","Canada"
"YQR","-104.65519","50.433327","CA","Regina Intl","NA","airport","medium","-6","CYQR","Regina","Canada"
"YQT","-89.31167","48.37184","CA","Thunder Bay","NA","airport","medium","-5","CYQT","Thunder Bay","Canada"
"YQU","-118.873604","55.177074","CA","Grande Prairie","NA","airport","medium","-7","CYQU","Grande Prairie","Canada"
"YQV","-102.45935","51.264095","CA","Yorkton Muni","NA","airport","medium","-6","CYQV","Yorkton","Canada"
"YQW","-108.25","52.766666","CA","North Battleford","NA","airport","medium","-6","CYQW","North Battleford","Canada"
"YQX","-54.56333","48.946667","CA","Gander Intl","NA","airport","medium","-4","CYQX","Gander","Canada"
"YQY","-60.05","46.166668","CA","Sydney","NA","airport","medium","-4","CYQY","Sydney","Canada"
"YQZ","-122.50972","53.02667","CA","Quesnel","NA","airport","medium","-8","CYQZ","Quesnel","Canada"
"YRB","-94.96667","74.71667","CA","Resolute Bay","NA","airport","medium","-6","CYRB","Resolute","Canada"
"YRI","-69.53333","47.833332","CA","Riviere Du Loup","NA","airport","medium","-5","CYRI","Riviere Du Loup","Canada"
"YRJ","-72.26733","48.522343","CA","Roberval","NA","airport","medium","-5","CYRJ","Roberval","Canada"
"YRT","-92.10019","62.80998","CA","Rankin Inlet","NA","airport","medium","-6","CYRT","Rankin Inlet","Canada"
"YSB","-80.79592","46.62296","CA","Sudbury","NA","airport","medium","-5","CYSB","Sudbury","Canada"
"YSC","-71.9","45.416668","CA","Sherbrooke","NA","airport","medium","-5","CYSC","Sherbrooke","Canada"
"YSJ","-65.8902","45.32948","CA","Saint John","NA","airport","medium","-4","CYSJ","St. John","Canada"
"YSM","-111.96667","60.016666","CA","Fort Smith","NA","airport","medium","-7","CYSM","Fort Smith","Canada"
"YSR",,,"CA","Nanisivik","NA","closed",null,"-5","CYSR","Nanisivik","Canada"
"YSU","-57.983334","49.0","CA","Summerside","NA","airport","medium","-4","CYSU","Summerside","Canada"
"YSY","-125.24104","71.99145","CA","Sachs Harbour","NA","airport","medium","-7","CYSY","Sachs Harbour","Canada"
"YTE","-76.53333","64.23333","CA","Cape Dorset","NA","airport","medium","-5","CYTE","Cape Dorset","Canada"
"YTH","-97.8605","55.79753","CA","Thompson","NA","airport","medium","-6","CYTH","Thompson","Canada"
"YTR","-77.583336","44.1","CA","Trenton","NA","airport","medium","-5","CYTR","Trenton","Canada"
"YTS","-81.37164","48.566372","CA","Timmins","NA","airport","medium","-5","CYTS","Timmins","Canada"
"YTZ","-79.39585","43.632023","CA","City Centre","NA","airport","medium","-5","CYTZ","Toronto","Canada"
"YUB","-133.025","69.436386","CA","Tuktoyaktuk","NA","airport","medium","-7","CYUB","Tuktoyaktuk","Canada"
"YUL","-73.74991","45.457714","CA","Pierre Elliott Trudeau Intl","NA","airport","large","-5","CYUL","Montreal","Canada"
"YUT","-86.25","66.53333","CA","Repulse Bay","NA","airport","medium","-6","CYUT","Repulse Bay","Canada"
"YUX","-81.25","68.78333","CA","Hall Beach","NA","airport","medium","-5","CYUX","Hall Beach","Canada"
"YUY","-78.83056","48.205555","CA","Rouyn Noranda","NA","airport","medium","-5","CYUY","Rouyn","Canada"
"YVC","-105.26066","55.15126","CA","La Ronge","NA","airport","medium","-6","CYVC","La Ronge","Canada"
"YVM","-63.833332","67.583336","CA","Qikiqtarjuaq","NA","airport","medium","-5","CYVM","Broughton Island","Canada"
"YVO","-77.78858","48.052605","CA","Val D Or","NA","airport","medium","-5","CYVO","Val D'or","Canada"
"YVP","-68.41798","58.10024","CA","Kuujjuaq","NA","airport","medium","-5","CYVP","Quujjuaq","Canada"
"YVQ","-126.79337","65.277855","CA","Norman Wells","NA","airport","medium","-7","CYVQ","Norman Wells","Canada"
"YVR","-123.17919","49.1947","CA","Vancouver Intl","NA","airport","large","-8","CYVR","Vancouver","Canada"
"YVT","-108.46667","55.86667","CA","Buffalo Narrows","NA","airport","small","-6","CYVT","Buffalo Narrows","Canada"
"YVV","-81.166664","44.666668","CA","Wiarton","NA","airport","medium","-5","CYVV","Wiarton","Canada"
"YWA","-77.28333","45.9","CA","Petawawa","NA","airport","medium","-5","CYWA","Petawawa","Canada"
"YWG","-97.23333","49.9","CA","Winnipeg Intl","NA","airport","large","-6","CYWG","Winnipeg","Canada"
"YWK","-66.874","52.926315","CA","Wabush","NA","airport","medium","-4","CYWK","Wabush","Canada"
"YWL","-122.04444","52.184723","CA","Williams Lake","NA","airport","medium","-8","CYWL","Williams Lake","Canada"
"YWY","-123.438614","63.210556","CA","Wrigley","NA","airport","medium","-7","CYWY","Wrigley","Canada"
"YXC","-115.787025","49.61437","CA","Canadian Rockies Intl","NA","airport","medium","-7","CYXC","Cranbrook","Canada"
"YXD","-113.51667","53.566666","CA","Edmonton City Centre","NA","airport","medium","-7","CYXD","Edmonton","Canada"
"YXE","-106.69037","52.169704","CA","Saskatoon J G Diefenbaker Intl","NA","airport","medium","-6","CYXE","Saskatoon","Canada"
"YXH","-110.72083","50.015835","CA","Medicine Hat","NA","airport","medium","-7","CYXH","Medicine Hat","Canada"
"YXJ","-120.73437","56.247883","CA","Fort St John","NA","airport","medium","-8","CYXJ","Fort Saint John","Canada"
"YXL","-91.903","50.115208","CA","Sioux Lookout","NA","airport","medium","-6","CYXL","Sioux Lookout","Canada"
"YXP","-65.73333","66.13333","CA","Pangnirtung","NA","airport","medium","-5","CYXP","Pangnirtung","Canada"
"YXR","-79.851944","47.697224","CA","Timiskaming Rgnl","NA","airport","medium","-5","CYXR","Earlton","Canada"
"YXS","-122.67396","53.88381","CA","Prince George","NA","airport","medium","-8","CYXS","Prince George","Canada"
"YXT","-128.57445","54.465557","CA","Terrace","NA","airport","medium","-8","CYXT","Terrace","Canada"
"YXU","-81.14965","43.02802","CA","London","NA","airport","large","-5","CYXU","London","Canada"
"YXX","-122.361946","49.025555","CA","Abbotsford","NA","airport","medium","-8","CYXX","Abbotsford","Canada"
"YXY","-135.06667","60.716667","CA","Whitehorse Intl","NA","airport","medium","-8","CYXY","Whitehorse","Canada"
"YYB","-79.42725","46.356823","CA","North Bay","NA","airport","medium","-5","CYYB","North Bay","Canada"
"YYC","-114.01055","51.131393","CA","Calgary Intl","NA","airport","large","-7","CYYC","Calgary","Canada"
"YYD","-127.180275","54.825558","CA","Smithers","NA","airport","medium","-8","CYYD","Smithers","Canada"
"YYE","-122.583336","58.833332","CA","Fort Nelson","NA","airport","medium","-8","CYYE","Fort Nelson","Canada"
"YYF","-119.6","49.46472","CA","Penticton","NA","airport","medium","-8","CYYF","Penticton","Canada"
"YYG","-63.131737","46.285896","CA","Charlottetown","NA","airport","medium","-4","CYYG","Charlottetown","Canada"
"YYH","-93.51667","69.53333","CA","Taloyoak","NA","airport","medium","-6","CYYH","Spence Bay","Canada"
"YYJ","-123.43096","48.640266","CA","Victoria Intl","NA","airport","large","-8","CYYJ","Victoria","Canada"
"YYL","-101.066666","56.86667","CA","Lynn Lake","NA","airport","medium","-6","CYYL","Lynn Lake","Canada"
"YYN","-107.833336","50.283333","CA","Swift Current","NA","airport","medium","-6","CYYN","Swift Current","Canada"
"YYQ","-94.07449","58.74819","CA","Churchill","NA","airport","medium","-6","CYYQ","Churchill","Canada"
"YYR","-60.4124","53.313534","CA","Goose Bay","NA","airport","medium","-4","CYYR","Goose Bay","Canada"
"YYT","-52.74334","47.61282","CA","St Johns Intl","NA","airport","medium","-3.5","CYYT","St. John's","Canada"
"YYU","-82.47083","49.4125","CA","Kapuskasing","NA","airport","medium","-5","CYYU","Kapuskasing","Canada"
"YYW","-88.91173","50.29431","CA","Armstrong","NA","airport","medium","-5","CYYW","Armstrong","Canada"
"YYY","-68.2","48.6","CA","Mont Joli","NA","airport","medium","-5","CYYY","Mont Joli","Canada"
"YYZ","-79.61146","43.681583","CA","Lester B Pearson Intl","NA","airport","large","-5","CYYZ","Toronto","Canada"
"YZD","-79.46555","43.74278","CA","Downsview","NA","airport","medium","-5","CYZD","Toronto","Canada"
"YZE","-82.56778","45.885277","CA","Gore Bay Manitoulin","NA","airport","medium","-5","CYZE","Gore Bay","Canada"
"YZF","-114.4375","62.470867","CA","Yellowknife","NA","airport","medium","-7","CYZF","Yellowknife","Canada"
"YZH","-114.78333","55.3","CA","Slave Lake","NA","airport","medium","-7","CYZH","Slave Lake","Canada"
"YZP","-131.81277","53.254444","CA","Sandspit","NA","airport","medium","-8","CYZP","Sandspit","Canada"
"YZR","-82.31111","42.997223","CA","Chris Hadfield","NA","airport","medium","-5","CYZR","Sarnia","Canada"
"YZT","-127.36389","50.680557","CA","Port Hardy","NA","airport","medium","-8","CYZT","Port Hardy","Canada"
"YZU","-115.78333","54.15","CA","Whitecourt","NA","airport","medium","-7","CYZU","Whitecourt","Canada"
"YZV","-66.26404","50.21751","CA","Sept Iles","NA","airport","medium","-5","CYZV","Sept-iles","Canada"
"YZW","-132.71666","60.166668","CA","Teslin","NA","airport","medium","-8","CYZW","Teslin","Canada"
"YZX","-118.666664","49.166668","CA","Greenwood","NA","airport","medium","-4","CYZX","Greenwood","Canada"
"ZFA","-133.36667","63.216667","CA","Faro","NA","airport","medium","-8","CZFA","Faro","Canada"
"ZFM","-134.95277","67.477776","CA","Fort Mcpherson","NA","airport","medium","-7","CZFM","Fort Mcpherson","Canada"
"BJA","5.083333","36.75","DZ","Soummam","AF","airport","medium","1","DAAE","Bejaja","Algeria"
"ALG","3.21167","36.70058","DZ","Houari Boumediene","AF","airport","large","1","DAAG","Algier","Algeria"
"DJG","9.488889","24.465279","DZ","Tiska","AF","airport","medium","1","DAAJ","Djanet","Algeria"
"QFD",,,"DZ","Boufarik","AF","airport","medium","1","DAAK","Boufarik","Algeria"
"VVZ","8.55","26.533333","DZ","Illizi Takhamalt","AF","airport","medium","1","DAAP","Illizi","Algeria"
"TMR","5.459167","22.814722","DZ","Tamanrasset","AF","airport","medium","1","DAAT","Tamanrasset","Algeria"
"GJL","5.883333","36.8","DZ","Jijel","AF","airport","medium","1","DAAV","Jijel","Algeria"
"AAE","7.811857","36.821392","DZ","Annaba","AF","airport","medium","1","DABB","Annaba","Algeria"
"CZL","6.618425","36.286476","DZ","Mohamed Boudiaf Intl","AF","airport","medium","1","DABC","Constantine","Algeria"
"TEE","8.124067","35.428593","DZ","Cheikh Larbi Tebessi","AF","airport","medium","1","DABS","Tebessa","Algeria"
"HRM","3.2","33.166668","DZ","Hassi R Mel","AF","airport","medium","1","DAFH","Tilrempt","Algeria"
"TID","1.46946","35.343273","DZ","Bou Chekif","AF","airport","medium","1","DAOB","Tiaret","Algeria"
"TIN","-8.163246","27.701162","DZ","Tindouf","AF","airport","medium","1","DAOF","Tindouf","Algeria"
"QAS",,,"DZ","Ech Cheliff","AF","airport","medium","1","DAOI","Ech-cheliff","Algeria"
"TAF","-0.610556","35.627777","DZ","Tafaraoui","AF","airport","medium","1","DAOL","Oran","Algeria"
"TLM","-1.45","35.016666","DZ","Zenata","AF","airport","medium","1","DAON","Tlemcen","Algeria"
"ORN","-0.606108","35.620018","DZ","Es Senia","AF","airport","medium","1","DAOO","Oran","Algeria"
"MUW","0.147669","35.208534","DZ","Ghriss","AF","airport","medium","1","DAOV","Ghriss","Algeria"
"AZR","-0.283333","27.883333","DZ","Touat Cheikh Sidi Mohamed Belkebir","AF","airport","medium","1","DAUA","Adrar","Algeria"
"BSK","5.738056","34.79333","DZ","Biskra","AF","airport","medium","1","DAUB","Biskra","Algeria"
"ELG","2.864722","30.5675","DZ","El Golea","AF","airport","medium","1","DAUE","El Golea","Algeria"
"GHA","3.800556","32.38222","DZ","Noumerat","AF","airport","medium","1","DAUG","Ghardaia","Algeria"
"HME","6.145436","31.675303","DZ","Oued Irara","AF","airport","medium","1","DAUH","Hassi Messaoud","Algeria"
"INZ","2.516667","27.25","DZ","In Salah","AF","airport","medium","1","DAUI","In Salah","Algeria"
"TGR","6.089239","33.066948","DZ","Sidi Mahdi","AF","airport","medium","1","DAUK","Touggourt","Algeria"
"LOO","2.934811","33.76102","DZ","Laghouat","AF","airport","medium","1","DAUL","Laghouat","Algeria"
"TMX","0.284086","29.24174","DZ","Timimoun","AF","airport","medium","1","DAUT","Timimoun","Algeria"
"OGX","5.4","31.916668","DZ","Ouargla","AF","airport","medium","1","DAUU","Ouargla","Algeria"
"IAM","9.638056","28.051111","DZ","In Amenas","AF","airport","medium","1","DAUZ","Zarzaitine","Algeria"
"COO","2.385271","6.353097","BJ","Cadjehoun","AF","airport","medium","1","DBBB","Cotonou","Benin"
"OUA","-1.514283","12.355019","BF","Ouagadougou","AF","airport","medium","0","DFFD","Ouagadougou","Burkina Faso"
"BOY","-4.324444","11.163611","BF","Bobo Dioulasso","AF","airport","medium","0","DFOO","Bobo-dioulasso","Burkina Faso"
"ACC","-0.171769","5.60737","GH","Kotoka Intl","AF","airport","large","0","DGAA","Accra","Ghana"
"TML","-0.876603","9.409979","GH","Tamale","AF","airport","medium","0","DGLE","Tamale","Ghana"
"NYI","-2.329254","7.360586","GH","Sunyani","AF","airport","medium","0","DGSN","Sunyani","Ghana"
"TKD","-1.773912","34.892727","GH","Takoradi","AF","airport","medium","0","DGTK","Takoradi","Ghana"
"ABJ","-3.933015","5.254879","CI","Abidjan Felix Houphouet Boigny Intl","AF","airport","medium","0","DIAP","Abidjan","Cote d'Ivoire"
"BYK","-5.069167","7.739444","CI","Bouake","AF","airport","medium","0","DIBK","Bouake","Cote d'Ivoire"
"DJO","-6.466667","6.866944","CI","Daloa","AF","airport","medium","0","DIDL","Daloa","Cote d'Ivoire"
"HGO","-5.616667","9.413889","CI","Korhogo","AF","airport","medium","0","DIKO","Korhogo","Cote d'Ivoire"
"MJC","-7.528333","7.381667","CI","Man","AF","airport","medium","0","DIMN","Man","Cote d'Ivoire"
"SPY","-6.626944","4.730278","CI","San Pedro","AF","airport","medium","0","DISP","San Pedro","Cote d'Ivoire"
"ASK","-5.283333","6.816667","CI","Yamoussoukro","AF","airport","medium","0","DIYO","Yamoussoukro","Cote d'Ivoire"
"ABV","7.270447","9.004614","NG","Nnamdi Azikiwe Intl","AF","airport","large","1","DNAA","Abuja","Nigeria"
"AKR","5.083333","7.25","NG","Akure","AF","airport","medium","1","DNAK","Akure","Nigeria"
"BNI","5.603863","6.316943","NG","Benin","AF","airport","medium","1","DNBE","Benin","Nigeria"
"CBQ","8.347415","4.96889","NG","Calabar","AF","airport","medium","1","DNCA","Calabar","Nigeria"
"ENU","7.56772","6.472048","NG","Enugu","AF","airport","medium","1","DNEN","Enugu","Nigeria"
"QUS",,,"NG","Gusau","AF","airport","medium","1","DNGU","Gusau","Nigeria"
"IBA","3.976361","7.360181","NG","Ibadan","AF","airport","medium","1","DNIB","Ibadan","Nigeria"
"ILR","4.533333","8.5","NG","Ilorin","AF","airport","medium","1","DNIL","Ilorin","Nigeria"
"JOS","8.893056","9.868056","NG","Yakubu Gowon","AF","airport","medium","1","DNJO","Jos","Nigeria"
"KAD","7.440278","10.595833","NG","Kaduna","AF","airport","medium","1","DNKA","Kaduna","Nigeria"
"KAN","8.522271","12.045549","NG","Mallam Aminu Intl","AF","airport","medium","1","DNKN","Kano","Nigeria"
"MIU","13.082928","11.855487","NG","Maiduguri","AF","airport","medium","1","DNMA","Maiduguri","Nigeria"
"MDI","8.533333","7.75","NG","Makurdi","AF","airport","medium","1","DNMK","Makurdi","Nigeria"
"LOS","3.321178","6.577871","NG","Murtala Muhammed","AF","airport","large","1","DNMM","Lagos","Nigeria"
"MXJ","6.533333","9.616667","NG","Minna New","AF","airport","medium","1","DNMN","Minna","Nigeria"
"PHC","6.9499","5.006506","NG","Port Harcourt Intl","AF","airport","medium","1","DNPO","Port Hartcourt","Nigeria"
"SKO","5.242222","13.006389","NG","Sadiq Abubakar Iii Intl","AF","airport","medium","1","DNSO","Sokoto","Nigeria"
"YOL","12.428114","9.266729","NG","Yola","AF","airport","medium","1","DNYO","Yola","Nigeria"
"ZAR","7.666667","11.0","NG","Zaria","AF","airport","medium","1","DNZA","Zaria","Nigeria"
"MFQ","7.125278","13.5025","NE","Maradi","AF","airport","medium","1","DRRM","Maradi","Niger"
"NIM","2.177158","13.476534","NE","Diori Hamani","AF","airport","medium","1","DRRN","Niamey","Niger"
"THZ","5.263889","14.872778","NE","Tahoua","AF","airport","medium","1","DRRT","Tahoua","Niger"
"AJY","7.993056","16.964167","NE","Manu Dayak","AF","airport","medium","1","DRZA","Agadez","Niger"
"ZND","8.983056","13.779444","NE","Zinder","AF","airport","medium","1","DRZR","Zinder","Niger"
"MIR","10.753155","35.76108","TN","Habib Bourguiba Intl","AF","airport","medium","0","DTMB","Monastir","Tunisia"
"TUN","10.21709","36.847622","TN","Carthage","AF","airport","large","0","DTTA","Tunis","Tunisia"
"GAF","8.816667","34.416668","TN","Gafsa","AF","airport","medium","0","DTTF","Gafsa","Tunisia"
"GAE","9.919377","33.73569","TN","Gabes","AF","airport","medium","0","DTTG","Gabes","Tunisia"
"DJE","10.775145","33.87118","TN","Zarzis","AF","airport","medium","0","DTTJ","Djerba","Tunisia"
"EBM","9.266667","31.716667","TN","El Borma","AF","airport","medium","0","DTTR","El Borma","Tunisia"
"SFA","10.683333","34.716667","TN","Thyna","AF","airport","medium","0","DTTX","Sfax","Tunisia"
"TOE","8.133333","33.916668","TN","Nefta","AF","airport","medium","0","DTTZ","Tozeur","Tunisia"
"LRL","1.133333","9.833333","TG","Niamtougou International","AF","airport","medium","1","DXNG","Niatougou","Togo"
"LFW","1.250347","6.167103","TG","Gnassingbe Eyadema Intl","AF","airport","medium","1","DXXX","Lome","Togo"
"ANR","4.450672","51.18916","BE","Deurne","EU","airport","medium","1","EBAW","Antwerp","Belgium"
"BRU","4.483602","50.89717","BE","Brussels Natl","EU","airport","large","1","EBBR","Brussels","Belgium"
"CRL","4.451703","50.456696","BE","Brussels South","EU","airport","medium","1","EBCI","Charleroi","Belgium"
"LGG","5.460149","50.643333","BE","Liege","EU","airport","large","1","EBLG","Liege","Belgium"
"OST","2.863611","51.199722","BE","Oostende","EU","airport","medium","1","EBOS","Ostend","Belgium"
"BBJ","6.516667","49.966667","DE","Bautzen","EU","airport","small","1","EDAB","Bautzen","Germany"
"AOC","12.45","50.983334","DE","Altenburg Nobitz","EU","airport","medium","1","EDAC","Altenburg","Germany"
"BBH","12.711667","54.33972","DE","Barth","EU","airport","small","1","EDBH","Barth","Germany"
"SXF","13.521388","52.370277","DE","Schonefeld","EU","airport","large","1","EDDB","Berlin","Germany"
"DRS","13.766082","51.124332","DE","Dresden","EU","airport","large","1","EDDC","Dresden","Germany"
"ERF","10.961163","50.974915","DE","Erfurt","EU","airport","medium","1","EDDE","Erfurt","Germany"
"FRA","8.570773","50.050735","DE","Frankfurt Main","EU","airport","large","1","EDDF","Frankfurt","Germany"
"FMO","7.694928","52.130054","DE","Munster Osnabruck","EU","airport","large","1","EDDG","Munster","Germany"
"HAM","10.006414","53.63128","DE","Hamburg","EU","airport","large","1","EDDH","Hamburg","Germany"
"THF",,,"DE","Tempelhof","EU","closed",null,"1","EDDI","Berlin","Germany"
"CGN","7.122224","50.878365","DE","Koln Bonn","EU","airport","large","1","EDDK","Cologne","Germany"
"DUS","6.76558","51.278328","DE","Dusseldorf","EU","airport","large","1","EDDL","Duesseldorf","Germany"
"MUC","11.790143","48.353004","DE","Franz Josef Strauss","EU","airport","large","1","EDDM","Munich","Germany"
"NUE","11.077062","49.494167","DE","Nurnberg","EU","airport","large","1","EDDN","Nuernberg","Germany"
"LEJ","12.221202","51.42026","DE","Leipzig Halle","EU","airport","large","1","EDDP","Leipzig","Germany"
"SCN","7.112705","49.22009","DE","Saarbrucken","EU","airport","medium","1","EDDR","Saarbruecken","Germany"
"STR","9.193624","48.69073","DE","Stuttgart","EU","airport","large","1","EDDS","Stuttgart","Germany"
"TXL","13.291722","52.553944","DE","Tegel","EU","airport","large","1","EDDT","Berlin","Germany"
"HAJ","9.694766","52.459255","DE","Hannover","EU","airport","large","1","EDDV","Hannover","Germany"
"BRE","8.785352","53.05297","DE","Neuenland","EU","airport","large","1","EDDW","Bremen","Germany"
"HHN","7.264167","49.948334","DE","Frankfurt Hahn","EU","airport","medium","1","EDFH","Hahn","Germany"
"MHG","8.521081","49.476578","DE","Mannheim City","EU","airport","medium","1","EDFM","Mannheim","Germany"
"XFW","9.83738","53.53596","DE","Hamburg Finkenwerder","EU","airport","medium","1","EDHI","Hamburg","Germany"
"KEL","10.143333","54.380833","DE","Kiel Holtenau","EU","airport","medium","1","EDHK","Kiel","Germany"
"LBC","10.701162","53.80527","DE","Lubeck Blankensee","EU","airport","medium","1","EDHL","Luebeck","Germany"
"ESS","6.941667","51.40389","DE","Essen Mulheim","EU","airport","small","1","EDLE","Essen","Germany"
"MGL","6.544444","51.35278","DE","Monchengladbach","EU","airport","medium","1","EDLN","Moenchengladbach","Germany"
"PAD","8.619832","51.610332","DE","Paderborn Lippstadt","EU","airport","medium","1","EDLP","Paderborn","Germany"
"DTM","7.613139","51.514828","DE","Dortmund","EU","airport","large","1","EDLW","Dortmund","Germany"
"AGB","10.931667","48.425278","DE","Augsburg","EU","airport","medium","1","EDMA","Augsburg","Germany"
"OBF","11.283333","48.083332","DE","Oberpfaffenhofen","EU","airport","medium","1","EDMO","Oberpfaffenhofen","Germany"
"FDH","9.523482","47.672775","DE","Friedrichshafen","EU","airport","medium","1","EDNY","Friedrichshafen","Germany"
"SZW","11.790721","53.42529","DE","Schwerin Parchim","EU","airport","medium","1","EDOP","Parchim","Germany"
"ZSN",,,"CA","Stendal Borstel","NA","airport","medium","1","EDOV","Stendal","Germany"
"BYU","11.64","49.985558","DE","Bayreuth","EU","airport","medium","1","EDQD","Bayreuth","Germany"
"HOQ","11.862222","50.289165","DE","Hof Plauen","EU","airport","medium","1","EDQM","Hof","Germany"
"ZQL",,,"DE","Donaueschingen Villingen","EU","airport","medium","1","EDTD","Donaueschingen","Germany"
"BWE","10.533333","52.266666","DE","Braunschweig Wolfsburg","EU","airport","medium","1","EDVE","Braunschweig","Germany"
"KSF","9.376578","51.40568","DE","Kassel Calden","EU","airport","medium","1","EDVK","Kassel","Germany"
"BRV","8.916667","53.75","DE","Bremerhaven","EU","airport","small","1","EDWB","Bremerhaven","Germany"
"EME","7.2","53.36667","DE","Emden","EU","airport","small","1","EDWE","Emden","Germany"
"WVN","8.116667","53.533333","DE","Wilhelmshaven Mariensiel","EU","airport","small","1","EDWI","Wilhelmshaven","Germany"
"BMK","6.7","53.6","DE","Borkum","EU","airport","small","1","EDWR","Borkum","Germany"
"NRD","7.166667","53.833332","DE","Norderney","EU","airport","small","1","EDWY","Norderney","Germany"
"FLF","9.383333","54.77222","DE","Flensburg Schaferhaus","EU","airport","small","1","EDXF","Flensburg","Germany"
"GWT","8.343056","54.91528","DE","Westerland Sylt","EU","airport","medium","1","EDXW","Westerland","Germany"
"KDL","22.8","58.983334","EE","Kardla","EU","airport","medium","2","EEKA","Kardla","Estonia"
"URE","22.5","58.216667","EE","Kuressaare","EU","airport","medium","2","EEKE","Kuressaare","Estonia"
"EPU","24.472778","58.418888","EE","Parnu","EU","airport","medium","2","EEPU","Parnu","Estonia"
"TLL","24.798702","59.416622","EE","Tallinn","EU","airport","large","2","EETN","Tallinn-ulemiste International","Estonia"
"TAY","26.733334","58.333332","EE","Tartu","EU","airport","medium","2","EETU","Tartu","Estonia"
"ENF","23.42208","68.36018","FI","Enontekio","EU","airport","medium","2","EFET","Enontekio","Finland"
"KEV","24.75","61.583332","FI","Halli","EU","airport","medium","2","EFHA","Halli","Finland"
"HEM","25.05","60.25","FI","Helsinki Malmi","EU","airport","medium","2","EFHF","Helsinki","Finland"
"HEL","24.96645","60.31795","FI","Helsinki Vantaa","EU","airport","large","2","EFHK","Helsinki","Finland"
"HYV","24.884443","60.654167","FI","Hyvinkaa","EU","airport","medium","2","EFHV","Hyvinkaa","Finland"
"IVL","27.415556","68.611115","FI","Ivalo","EU","airport","medium","2","EFIV","Ivalo","Finland"
"JOE","29.61354","62.656788","FI","Joensuu","EU","airport","medium","2","EFJO","Joensuu","Finland"
"JYV","25.68143","62.40362","FI","Jyvaskyla","EU","airport","medium","2","EFJY","Jyvaskyla","Finland"
"KAU","23.083332","63.1","FI","Kauhava","EU","airport","medium","2","EFKA","Kauhava","Finland"
"KEM","24.57677","65.78006","FI","Kemi Tornio","EU","airport","medium","1","EFKE","Kemi","Finland"
"KAJ","27.688889","64.27778","FI","Kajaani","EU","airport","medium","2","EFKI","Kajaani","Finland"
"KOK","23.133068","63.718838","FI","Kruunupyy","EU","airport","medium","2","EFKK","Kruunupyy","Finland"
"KAO","29.233889","65.99028","FI","Kuusamo","EU","airport","medium","2","EFKS","Kuusamo","Finland"
"KTT","24.859028","67.695946","FI","Kittila","EU","airport","medium","2","EFKT","Kittila","Finland"
"KUO","27.788696","63.008907","FI","Kuopio","EU","airport","medium","2","EFKU","Kuopio","Finland"
"LPP","28.156668","61.046112","FI","Lappeenranta","EU","airport","medium","2","EFLP","Lappeenranta","Finland"
"MHQ","19.896667","60.123333","FI","Mariehamn","EU","airport","medium","2","EFMA","Mariehamn","Finland"
"MIK","27.213057","61.683887","FI","Mikkeli","EU","airport","medium","2","EFMI","Mikkeli","Finland"
"OUL","25.375425","64.93012","FI","Oulu","EU","airport","medium","2","EFOU","Oulu","Finland"
"POR","21.791382","61.46866","FI","Pori","EU","airport","medium","2","EFPO","Pori","Finland"
"RVN","25.829609","66.559044","FI","Rovaniemi","EU","airport","medium","2","EFRO","Rovaniemi","Finland"
"SVL","28.95","61.95","FI","Savonlinna","EU","airport","medium","2","EFSA","Savonlinna","Finland"
"SOT","26.616667","67.38333","FI","Sodankyla","EU","airport","medium","2","EFSO","Sodankyla","Finland"
"TMP","23.617563","61.42045","FI","Tampere Pirkkala","EU","airport","medium","2","EFTP","Tampere","Finland"
"TKU","22.28098","60.512794","FI","Turku","EU","airport","medium","2","EFTU","Turku","Finland"
"VAA","21.760122","63.04355","FI","Vaasa","EU","airport","medium","2","EFVA","Vaasa","Finland"
"VRK","27.933332","62.3","FI","Varkaus","EU","airport","medium","2","EFVR","Varkaus","Finland"
"BFS","-6.217616","54.662395","GB","Belfast Intl","EU","airport","large","0","EGAA","Belfast","United Kingdom"
"ENK","-7.633333","54.35","GB","St Angelo","EU","airport","medium","0","EGAB","Enniskillen","United Kingdom"
"BHD","-5.870215","54.61452","GB","Belfast City","EU","airport","large","0","EGAC","Belfast","United Kingdom"
"LDY","-7.156924","55.040985","GB","City of Derry","EU","airport","medium","0","EGAE","Londonderry","United Kingdom"
"BHX","-1.733256","52.45252","GB","Birmingham","EU","airport","large","0","EGBB","Birmingham","United Kingdom"
"CVT","-1.478611","52.369167","GB","Coventry","EU","airport","medium","0","EGBE","Coventry","United Kingdom"
"GLO","-2.233333","51.88333","GB","Gloucestershire","EU","airport","medium","0","EGBJ","Golouchestershire","United Kingdom"
"MAN","-2.273354","53.362907","GB","Manchester","EU","airport","large","0","EGCC","Manchester","United Kingdom"
"NQY","-4.997922","50.43745","GB","St Mawgan","EU","airport","medium","0","EGDG","Newquai","United Kingdom"
"LYE","-1.966667","51.516666","GB","Lyneham","EU","airport","medium","0","EGDL","Lyneham","United Kingdom"
"YEO","-2.55","51.016666","GB","Yeovilton","EU","airport","medium","0","EGDY","Yeovilton","United Kingdom"
"CWL","-3.339075","51.39877","GB","Cardiff","EU","airport","large","0","EGFF","Cardiff","United Kingdom"
"SWS","-3.95","51.63333","GB","Swansea","EU","airport","medium","0","EGFH","Swansea","United Kingdom"
"BRS","-2.710659","51.386757","GB","Bristol","EU","airport","large","0","EGGD","Bristol","United Kingdom"
"LPL","-2.854905","53.337616","GB","Liverpool","EU","airport","large","0","EGGP","Liverpool","United Kingdom"
"LTN","-0.376232","51.87977","GB","Luton","EU","airport","large","0","EGGW","London","United Kingdom"
"PLH","-4.110009","50.422337","GB","Plymouth","EU","airport","medium","0","EGHD","Plymouth","United Kingdom"
"BOH","-1.832476","50.77827","GB","Bournemouth","EU","airport","large","0","EGHH","Bournemouth","United Kingdom"
"SOU","-1.361318","50.950726","GB","Southampton","EU","airport","large","0","EGHI","Southampton","United Kingdom"
"QLA","-1.157375","51.21111","GB","Lasham","EU","airport","medium","0","EGHL","Lasham","United Kingdom"
"ACI","-2.215369","49.709347","GG","Alderney","EU","airport","medium","0","EGJA","Alderney","Guernsey"
"GCI","-2.595044","49.432755","GG","Guernsey","EU","airport","medium","0","EGJB","Guernsey","Guernsey"
"JER","-2.194344","49.205296","JE","Jersey","EU","airport","medium","0","EGJJ","Jersey","Jersey"
"ESH","-0.3","50.833332","GB","Shoreham","EU","airport","medium","0","EGKA","Shoreham By Sea","United Kingdom"
"BQH","0.033333","51.333332","GB","Biggin Hill","EU","airport","medium","0","EGKB","Biggin Hill","United Kingdom"
"LGW","-0.161863","51.156807","GB","Gatwick","EU","airport","large","0","EGKK","London","United Kingdom"
"LCY","0.05","51.5","GB","City","EU","airport","large","0","EGLC","London","United Kingdom"
"FAB","-0.766667","51.283333","GB","Farnborough","EU","airport","medium","0","EGLF","Farnborough","United Kingdom"
"BBS","-0.85","51.333332","GB","Blackbushe","EU","airport","medium","0","EGLK","Blackbushe","United Kingdom"
"LHR","-0.453566","51.469604","GB","Heathrow","EU","airport","large","0","EGLL","London","United Kingdom"
"SEN","0.701389","51.572777","GB","Southend","EU","airport","medium","0","EGMC","Southend","United Kingdom"
"LYX","0.938414","50.955334","GB","Lydd","EU","airport","medium","0","EGMD","Lydd","United Kingdom"
"MSE","1.35","51.35","GB","Manston","EU","airport","medium","0","EGMH","Manston","United Kingdom"
"CAX","-2.809444","54.93667","GB","Carlisle","EU","airport","medium","0","EGNC","Carlisle","United Kingdom"
"BLK","-3.041985","53.778385","GB","Blackpool","EU","airport","medium","0","EGNH","Blackpool","United Kingdom"
"HUY","-0.34851","53.583378","GB","Humberside","EU","airport","medium","0","EGNJ","Humberside","United Kingdom"
"BWF","-3.233333","54.11667","GB","Walney Island","EU","airport","medium","0","EGNL","Barrow Island","United Kingdom"
"LBA","-1.659985","53.86934","GB","Leeds Bradford","EU","airport","large","0","EGNM","Leeds","United Kingdom"
"CEG","-2.970718","53.178604","GB","Hawarden","EU","airport","medium","0","EGNR","Hawarden","United Kingdom"
"IOM","-4.63473","54.08677","IM","Isle Of Man","EU","airport","medium","0","EGNS","Isle Of Man","Isle of Man"
"NCL","-1.710629","55.037064","GB","Newcastle","EU","airport","large","0","EGNT","Newcastle","United Kingdom"
"MME","-1.434013","54.512226","GB","Durham Tees Valley Airport","EU","airport","medium","0","EGNV","Teesside","United Kingdom"
"EMA","-1.330595","52.82587","GB","Nottingham East Midlands","EU","airport","large","0","EGNX","East Midlands","United Kingdom"
"KOI","-2.900556","58.958057","GB","Kirkwall","EU","airport","medium","0","EGPA","Kirkwall","United Kingdom"
"LSI","-1.287111","59.877888","GB","Sumburgh","EU","airport","medium","0","EGPB","Sumburgh","United Kingdom"
"WIC","-3.086667","58.456944","GB","Wick","EU","airport","medium","0","EGPC","Wick","United Kingdom"
"ABZ","-2.204186","57.200253","GB","Dyce","EU","airport","large","0","EGPD","Aberdeen","United Kingdom"
"INV","-4.063738","57.539345","GB","Inverness","EU","airport","medium","0","EGPE","Inverness","United Kingdom"
"GLA","-4.431782","55.864212","GB","Glasgow","EU","airport","large","0","EGPF","Glasgow","United Kingdom"
"EDI","-3.364177","55.948143","GB","Edinburgh","EU","airport","large","0","EGPH","Edinburgh","United Kingdom"
"ILY","-6.254167","55.681946","GB","Islay","EU","airport","medium","0","EGPI","Islay","United Kingdom"
"PIK","-4.611286","55.50843","GB","Prestwick","EU","airport","medium","0","EGPK","Prestwick","United Kingdom"
"BEB","-7.376028","57.473415","GB","Benbecula","EU","airport","medium","0","EGPL","Benbecula","United Kingdom"
"DND","-3.014531","56.45409","GB","Dundee","EU","airport","medium","0","EGPN","Dundee","United Kingdom"
"SYY","-6.321995","58.213627","GB","Stornoway","EU","airport","medium","0","EGPO","Stornoway","United Kingdom"
"TRE","-6.871389","56.500557","GB","Tiree","EU","airport","medium","0","EGPU","Tiree","United Kingdom"
"ADX","-2.866667","56.36667","GB","Leuchars","EU","airport","medium","0","EGQL","Leuchars","United Kingdom"
"LMO","-3.333333","57.716667","GB","Lossiemouth","EU","airport","medium","0","EGQS","Lossiemouth","United Kingdom"
"CBG","0.177738","52.208042","GB","Cambridge","EU","airport","medium","0","EGSC","Cambridge","United Kingdom"
"NWI","1.276782","52.669533","GB","Norwich","EU","airport","medium","0","EGSH","Norwich","United Kingdom"
"STN","0.262703","51.889267","GB","Stansted","EU","airport","large","0","EGSS","London","United Kingdom"
"EXT","-3.410968","50.73111","GB","Exeter","EU","airport","large","0","EGTE","Exeter","United Kingdom"
"FZO","-2.583333","51.516666","GB","Bristol Filton","EU","airport","medium","0","EGTG","Bristol","United Kingdom"
"OXF","-1.32","51.836945","GB","Kidlington","EU","airport","medium","0","EGTK","Oxford","United Kingdom"
"MHZ","0.483333","52.36667","GB","Mildenhall","EU","airport","large","0","EGUN","Mildenhall","United Kingdom"
"FFD","-1.783333","51.733334","GB","Fairford","EU","airport","large","0","EGVA","Fairford","United Kingdom"
"BZZ","-1.587093","51.75","GB","Brize Norton","EU","airport","large","0","EGVN","Brize Norton","United Kingdom"
"ODH","-0.95","51.25","GB","Odiham","EU","airport","medium","0","EGVO","Odiham","United Kingdom"
"NHT","-0.366667","51.533333","GB","Northolt","EU","airport","medium","0","EGWU","Northolt","United Kingdom"
"QCY",,,"GB","Coningsby","EU","airport","medium","0","EGXC","Coningsby","United Kingdom"
"BEQ","0.766667","52.35","GB","Honington","EU","airport","medium","0","EGXH","Honington","United Kingdom"
"WTN","-0.516667","53.166668","GB","Waddington","EU","airport","medium","0","EGXW","Waddington","United Kingdom"
"MPN","-58.45","-51.816666","FK","Mount Pleasant","SA","airport","medium","-4","EGYP","Mount Pleasant","Falkland Islands"
"AMS","4.763385","52.30907","NL","Schiphol","EU","airport","large","1","EHAM","Amsterdam","Netherlands"
"MST","5.768827","50.91562","NL","Maastricht","EU","airport","large","1","EHBK","Maastricht","Netherlands"
"EIN","5.391795","51.457954","NL","Eindhoven","EU","airport","large","1","EHEH","Eindhoven","Netherlands"
"GRQ","6.575556","53.120277","NL","Eelde","EU","airport","medium","1","EHGG","Groningen","Netherlands"
"DHR","4.75","52.95","NL","De Kooy","EU","airport","medium","1","EHKD","De Kooy","Netherlands"
"LWR","5.8","53.25","NL","Leeuwarden","EU","airport","medium","1","EHLW","Leeuwarden","Netherlands"
"RTM","4.433606","51.948948","NL","Rotterdam","EU","airport","medium","1","EHRD","Rotterdam","Netherlands"
"UTC",,,"NL","Soesterberg","EU","closed",null,"1","EHSB","Soesterberg","Netherlands"
"ENS","6.878333","52.271667","NL","Twenthe","EU","airport","medium","1","EHTW","Enschede","Netherlands"
"LID",,,"NL","Valkenburg","EU","closed",null,"1","EHVB","Valkenburg","Netherlands"
"WOE","4.335","51.435833","NL","Woensdrecht","EU","airport","medium","1","EHWO","Woensdrecht","Netherlands"
"ORK","-8.48914","51.846645","IE","Cork","EU","airport","large","0","EICK","Cork","Ireland"
"GWY","-9.033333","53.283333","IE","Galway","EU","airport","medium","0","EICM","Galway","Ireland"
"DUB","-6.24357","53.42728","IE","Dublin","EU","airport","large","0","EIDW","Dublin","Ireland"
"NOC","-8.810468","53.914","IE","Ireland West Knock","EU","airport","medium","0","EIKN","Connaught","Ireland"
"KIR","-9.535666","52.181477","IE","Kerry","EU","airport","medium","0","EIKY","Kerry","Ireland"
"SNN","-8.92039","52.69248","IE","Shannon","EU","airport","large","0","EINN","Shannon","Ireland"
"SXL","-8.466667","54.283333","IE","Sligo","EU","airport","medium","0","EISG","Sligo","Ireland"
"WAT","-7.080082","52.188866","IE","Waterford","EU","airport","medium","0","EIWF","Waterford","Ireland"
"AAR","10.626351","56.30823","DK","Aarhus","EU","airport","medium","1","EKAH","Aarhus","Denmark"
"BLL","9.147874","55.747383","DK","Billund","EU","airport","large","1","EKBI","Billund","Denmark"
"CPH","12.647601","55.62905","DK","Kastrup","EU","airport","large","1","EKCH","Copenhagen","Denmark"
"EBJ","8.549062","55.52143","DK","Esbjerg","EU","airport","medium","1","EKEB","Esbjerg","Denmark"
"KRP","9.116667","56.3","DK","Karup","EU","airport","medium","1","EKKA","Karup","Denmark"
"ODE","10.328611","55.47639","DK","Odense","EU","airport","medium","1","EKOD","Odense","Denmark"
"RKE","12.133333","55.583332","DK","Roskilde","EU","airport","medium","1","EKRK","Copenhagen","Denmark"
"RNN","14.757778","55.065556","DK","Bornholm Ronne","EU","airport","medium","1","EKRN","Ronne","Denmark"
"SGD","9.790798","54.96476","DK","Sonderborg","EU","airport","medium","1","EKSB","Soenderborg","Denmark"
"SKS","9.264722","55.221943","DK","Skrydstrup","EU","airport","medium","1","EKSP","Skrydstrup","Denmark"
"TED","8.703333","57.072224","DK","Thisted","EU","airport","medium","1","EKTS","Thisted","Denmark"
"FAE","-7.266667","62.066666","FO","Vagar","EU","airport","medium","0","EKVG","Vagar","Faroe Islands"
"STA","8.355","55.990276","DK","Stauning","EU","airport","medium","1","EKVJ","Stauning","Denmark"
"AAL","9.872241","57.08655","DK","Aalborg","EU","airport","large","1","EKYT","Aalborg","Denmark"
"LUX","6.209539","49.63111","LU","Luxembourg","EU","airport","large","1","ELLX","Luxemburg","Luxembourg"
"AES","6.116605","62.559643","NO","Vigra","EU","airport","medium","1","ENAL","Alesund","Norway"
"ANX","16.133326","69.30492","NO","Andenes","EU","airport","medium","1","ENAN","Andoya","Norway"
"ALF","23.355808","69.977165","NO","Alta","EU","airport","medium","1","ENAT","Alta","Norway"
"BNN","12.215772","65.4617","NO","Bronnoy","EU","airport","medium","1","ENBN","Bronnoysund","Norway"
"BOO","14.367839","67.27262","NO","Bodo","EU","airport","large","1","ENBO","Bodo","Norway"
"BGO","5.228169","60.289062","NO","Flesland","EU","airport","large","1","ENBR","Bergen","Norway"
"BJF","29.666668","70.6","NO","Batsfjord","EU","airport","medium","1","ENBS","Batsfjord","Norway"
"KRS","8.073732","58.20255","NO","Kjevik","EU","airport","medium","1","ENCN","Kristiansand","Norway"
"BDU","18.54","69.056114","NO","Bardufoss","EU","airport","medium","1","ENDU","Bardufoss","Norway"
"EVE","16.679722","68.496666","NO","Evenes","EU","airport","medium","1","ENEV","Harstad/Narvik","Norway"
"VDB","9.288056","61.015556","NO","Leirin","EU","airport","medium","1","ENFG","Fagernes","Norway"
"FRO","5.024577","61.58643","NO","Floro","EU","airport","medium","1","ENFL","Floro","Norway"
"OSL","11.100411","60.19419","NO","Gardermoen","EU","airport","large","1","ENGM","Oslo","Norway"
"HAU","5.215903","59.344765","NO","Karmoy","EU","airport","medium","1","ENHD","Haugesund","Norway"
"HAA","22.15","70.46667","NO","Hasvik","EU","airport","small","1","ENHK","Hasvik","Norway"
"KSU","7.844444","63.114723","NO","Kvernberget","EU","airport","medium","1","ENKB","Kristiansund","Norway"
"KKN","29.891184","69.7235","NO","Hoybuktmoen","EU","airport","medium","1","ENKR","Kirkenes","Norway"
"FAN","6.625556","58.101665","NO","Lista","EU","airport","small","1","ENLI","Farsund","Norway"
"MOL","7.262118","62.747303","NO","Aro","EU","airport","medium","1","ENML","Molde","Norway"
"MJF","13.218328","65.78439","NO","Kjaerstad","EU","airport","medium","1","ENMS","Mosjoen","Norway"
"LKL","24.973612","70.06778","NO","Banak","EU","airport","medium","1","ENNA","Lakselv","Norway"
"NTB","9.215656","59.56487","NO","Notodden","EU","airport","medium","1","ENNO","Notodden","Norway"
"OLA","9.616667","63.7","NO","Orland","EU","airport","medium","1","ENOL","Orland","Norway"
"RRS","11.345556","62.579166","NO","Roros","EU","airport","medium","1","ENRO","Roros","Norway"
"RYG","10.800161","59.37903","NO","Moss","EU","airport","medium","1","ENRY","Rygge","Norway"
"LYR","15.8","78.208885","NO","Longyear","EU","airport","medium","1","ENSB","Svalbard","Norway"
"SKE","9.5625","59.182777","NO","Geiteryggen","EU","airport","medium","1","ENSN","Skien","Norway"
"SRP","5.416667","59.833332","NO","Sorstokken","EU","airport","medium","1","ENSO","Stord","Norway"
"SSJ","12.476518","65.959946","NO","Stokka","EU","airport","medium","1","ENST","Sandnessjoen","Norway"
"TOS","18.907343","69.67983","NO","Langnes","EU","airport","large","1","ENTC","Tromso","Norway"
"TRF","10.251807","59.178085","NO","Torp","EU","airport","medium","1","ENTO","Sandefjord","Norway"
"TRD","10.917863","63.454285","NO","Vaernes","EU","airport","large","1","ENVA","Trondheim","Norway"
"SVG","5.629197","58.88215","NO","Sola","EU","airport","large","1","ENZV","Stavanger","Norway"
"GDN","18.468655","54.380978","PL","Lech Walesa","EU","airport","large","1","EPGD","Gdansk","Poland"
"KRK","19.793743","50.075493","PL","Balice","EU","airport","large","1","EPKK","Krakow","Poland"
"KTW","19.07403","50.470833","PL","Pyrzowice","EU","airport","medium","1","EPKT","Katowice","Poland"
"POZ","16.828844","52.414326","PL","Lawica","EU","airport","medium","1","EPPO","Poznan","Poland"
"RZE","22.03133","50.11525","PL","Jasionka","EU","airport","medium","1","EPRZ","Rzeszow","Poland"
"SZZ","14.894611","53.593525","PL","Goleniow","EU","airport","medium","1","EPSC","Szczecin","Poland"
"OSP",,,"PL","Redzikowo","EU","closed",null,"1","EPSK","Slupsk","Poland"
"WAW","20.97329","52.170906","PL","Okecie","EU","airport","large","1","EPWA","Warsaw","Poland"
"WRO","16.899403","51.10482","PL","Strachowice","EU","airport","medium","1","EPWR","Wroclaw","Poland"
"IEG","15.516667","51.933334","PL","Babimost","EU","airport","medium","1","EPZG","Zielona Gora","Poland"
"RNB","15.261111","56.25833","SE","Ronneby","EU","airport","medium","1","ESDF","Ronneby","Sweden"
"GOT","12.294878","57.66664","SE","Landvetter","EU","airport","large","1","ESGG","Gothenborg","Sweden"
"JKG","14.070497","57.7501","SE","Jonkoping","EU","airport","medium","1","ESGJ","Joenkoeping","Sweden"
"LDK","13.166667","58.5","SE","Lidkoping","EU","airport","medium","1","ESGL","Lidkoping","Sweden"
"GSE","11.864513","57.77775","SE","Save","EU","airport","medium","1","ESGP","Gothenborg","Sweden"
"KVB","13.966667","58.45","SE","Skovde","EU","airport","medium","1","ESGR","Skovde","Sweden"
"THN","12.3","58.266666","SE","Trollhattan Vanersborg","EU","airport","medium","1","ESGT","Trollhattan","Sweden"
"KSK","14.55","59.316666","SE","Karlskoga","EU","airport","medium","1","ESKK","Karlskoga","Sweden"
"MXX","14.504529","60.95812","SE","Mora","EU","airport","medium","1","ESKM","Mora","Sweden"
"NYO","16.922867","58.78425","SE","Skavsta","EU","airport","medium","1","ESKN","Stockholm","Sweden"
"KID","14.088889","55.919445","SE","Kristianstad","EU","airport","medium","1","ESMK","Kristianstad","Sweden"
"OSK","16.433332","57.266666","SE","Oskarshamn","EU","airport","medium","1","ESMO","Oskarshamn","Sweden"
"KLR","16.287222","56.685","SE","Kalmar","EU","airport","medium","1","ESMQ","Kalkmar","Sweden"
"MMX","13.363727","55.538757","SE","Sturup","EU","airport","large","1","ESMS","Malmoe","Sweden"
"HAD","12.815005","56.680935","SE","Halmstad","EU","airport","medium","1","ESMT","Halmstad","Sweden"
"VXO","14.732046","56.925095","SE","Kronoberg","EU","airport","medium","1","ESMX","Vaxjo","Sweden"
"EVG","14.35","62.033333","SE","Sveg","EU","airport","medium","1","ESND","Sveg","Sweden"
"GEV","20.816668","67.134445","SE","Gallivare","EU","airport","medium","1","ESNG","Gallivare","Sweden"
"HUV",,,"SE","Hudiksvall","EU","closed",null,"1","ESNH","Hudiksvall","Sweden"
"KRF","17.772778","63.049442","SE","Kramfors Solleftea","EU","airport","medium","1","ESNK","Kramfors","Sweden"
"LYC","18.70967","64.55071","SE","Lycksele","EU","airport","medium","1","ESNL","Lycksele","Sweden"
"SDL","17.438147","62.52165","SE","Sundsvall Harnosand","EU","airport","medium","1","ESNN","Sundsvall","Sweden"
"OER","18.992073","63.412582","SE","Ornskoldsvik","EU","airport","medium","1","ESNO","Ornskoldsvik","Sweden"
"KRN","20.345833","67.82222","SE","Kiruna","EU","airport","medium","1","ESNQ","Kiruna","Sweden"
"SFT","21.068548","64.62251","SE","Skelleftea","EU","airport","medium","1","ESNS","Skelleftea","Sweden"
"UME","20.28954","63.79333","SE","Umea","EU","airport","medium","1","ESNU","Umea","Sweden"
"VHM","16.65","64.61667","SE","Vilhelmina","EU","airport","medium","1","ESNV","Vilhelmina","Sweden"
"AJR","19.285557","65.59139","SE","Arvidsjaur","EU","airport","medium","1","ESNX","Arvidsjaur","Sweden"
"ORB","15.047543","59.225758","SE","Orebro","EU","airport","medium","1","ESOE","Orebro","Sweden"
"VST","16.630556","59.58917","SE","Vasteras","EU","airport","medium","1","ESOW","Vasteras","Sweden"
"LLA","22.123587","65.54939","SE","Kallax","EU","airport","large","1","ESPA","Lulea","Sweden"
"ARN","17.930365","59.64982","SE","Arlanda","EU","airport","large","1","ESSA","Stockholm","Sweden"
"BMA","17.94608","59.35566","SE","Bromma","EU","airport","medium","1","ESSB","Stockholm","Sweden"
"BLE","15.50826","60.42973","SE","Borlange","EU","airport","medium","1","ESSD","Borlange","Sweden"
"HLF","15.827778","57.52639","SE","Hultsfred","EU","airport","medium","1","ESSF","Hultsfred","Sweden"
"GVX","16.954721","60.593887","SE","Gavle","EU","airport","medium","1","ESSK","Gavle","Sweden"
"LPI","15.656944","58.406944","SE","Saab","EU","airport","medium","1","ESSL","Linkoeping","Sweden"
"NRK","16.232393","58.583298","SE","Kungsangen","EU","airport","medium","1","ESSP","Norrkoeping","Sweden"
"VBY","18.338154","57.660446","SE","Visby","EU","airport","medium","1","ESSV","Visby","Sweden"
"SPM","6.835917","50.06547","DE","Spangdahlem Ab","EU","airport","medium","1","ETAD","Spangdahlem","Germany"
"RMS","7.599187","49.439938","DE","Ramstein Ab","EU","airport","large","1","ETAR","Ramstein","Germany"
"ZCN",,,"DE","Celle","EU","airport","medium","1","ETHC","Celle","Germany"
"ZNF",,,"DE","Hanau Aaf","EU","airport","small","1","ETID","Hanau","Germany"
"GKE","6.133333","50.966667","DE","Geilenkirchen","EU","airport","medium","1","ETNG","Geilenkirchen","Germany"
"RLG","12.266667","53.92","DE","Laage","EU","airport","medium","1","ETNL","Laage","Germany"
"FEL","11.266667","48.2","DE","Furstenfeldbruck","EU","airport","medium","1","ETSF","Fuerstenfeldbruck","Germany"
"GUT","8.383333","51.9","DE","Gutersloh","EU","airport","medium","1","ETUO","Guetersloh","Germany"
"ALJ","16.536388","-28.567223","ZA","Alexander Bay","AF","airport","medium","2","FAAB","Alexander Bay","South Africa"
"AGZ","18.85","-29.05","ZA","Aggeneys","AF","airport","medium","2","FAAG","Aggeneys","South Africa"
"BIY","27.283333","-35.88333","ZA","Bhisho","AF","airport","medium","2","FABE","Bisho","South Africa"
"BFN","26.297516","-29.095854","ZA","Bloemfontein Intl","AF","airport","medium","2","FABL","Bloemfontein","South Africa"
"CPT","18.596489","-33.968906","ZA","Cape Town Intl","AF","airport","large","2","FACT","Cape Town","South Africa"
"DUR","31.116388","-29.614445","ZA","Durban Intl","AF","airport","large","2","FADN","Durban","South Africa"
"ELS","27.82892","-33.038437","ZA","East London","AF","airport","medium","2","FAEL","East London","South Africa"
"GCJ","28.143793","-25.987297","ZA","Grand Central","AF","airport","medium","2","FAGC","Johannesburg","South Africa"
"GRJ","22.382235","-34.00148","ZA","George","AF","airport","large","2","FAGG","George","South Africa"
"HDS","30.95","-24.35","ZA","Hoedspruit Afb","AF","airport","small","2","FAHS","Hoedspruit","South Africa"
"JNB","28.231314","-26.132664","ZA","Johannesburg Intl","AF","airport","large","2","FAJS","Johannesburg","South Africa"
"KIM","24.76639","-28.805834","ZA","Kimberley","AF","airport","medium","2","FAKM","Kimberley","South Africa"
"KLZ","17.066668","-29.683332","ZA","Kleinsee","AF","airport","medium","2","FAKZ","Kleinsee","South Africa"
"HLA","27.926432","-25.937843","ZA","Lanseria","AF","airport","medium","2","FALA","Johannesburg","South Africa"
"LAY","29.75","-28.566668","ZA","Ladysmith","AF","airport","medium","2","FALY","Ladysmith","South Africa"
"MGH","30.25","-30.916668","ZA","Margate","AF","airport","medium","2","FAMG","Margate","South Africa"
"MEZ","29.833332","-22.366667","ZA","Messina","AF","airport","medium","2","FAMS","Musina","South Africa"
"NCS","29.99","-27.774166","ZA","Newcastle","AF","airport","medium","2","FANC","Newcastle","South Africa"
"PLZ","25.611422","-33.98371","ZA","Port Elizabeth Intl","AF","airport","medium","2","FAPE","Port Elizabeth","South Africa"
"PHW","31.15611","-23.93361","ZA","Phalaborwa","AF","airport","medium","2","FAPH","Phalaborwa","South Africa"
"PTG","29.966667","-23.916668","ZA","Polokwane International","AF","airport","medium","2","FAPI","Polokwane","South Africa"
"PZB","30.396738","-29.643047","ZA","Pietermaritzburg","AF","airport","medium","2","FAPM","Pietermaritzburg","South Africa"
"NTY","27.170698","-25.335514","ZA","Pilanesberg Intl","AF","airport","small","2","FAPN","Pilanesberg","South Africa"
"UTW","26.866667","-31.866667","ZA","Queenstown","AF","airport","medium","2","FAQT","Queenstown","South Africa"
"RCB","32.093056","-28.740557","ZA","Richards Bay","AF","airport","medium","2","FARB","Richard's Bay","South Africa"
"SBU","17.939444","-29.68861","ZA","Springbok","AF","airport","medium","2","FASB","Springbok","South Africa"
"SIS","22.983334","-27.916668","ZA","Sishen","AF","airport","medium","2","FASS","Sishen","South Africa"
"SZK","31.586111","-24.9625","ZA","Skukuza","AF","airport","medium","2","FASZ","Skukuza","South Africa"
"LTA","30.15","-23.833332","ZA","Tzaneen","AF","airport","medium","2","FATZ","Tzaneen","South Africa"
"ULD","31.433332","-28.283333","ZA","Prince Mangosuthu Buthelezi","AF","airport","medium","2","FAUL","Ulundi","South Africa"
"UTN","21.253332","-28.400557","ZA","Upington","AF","airport","medium","2","FAUP","Upington","South Africa"
"UTT","28.783333","-31.583332","ZA","Mthatha","AF","airport","medium","2","FAUT","Umtata","South Africa"
"VRU","24.75","-26.916668","ZA","Vryburg","AF","airport","medium","2","FAVB","Vryburg","South Africa"
"VIR","31.066668","-29.766666","ZA","Virginia","AF","airport","medium","2","FAVG","Durban","South Africa"
"PRY","28.220833","-25.654444","ZA","Wonderboom","AF","airport","medium","2","FAWB","Pretoria","South Africa"
"WEL","26.75","-28.0","ZA","Welkom","AF","airport","medium","2","FAWM","Welkom","South Africa"
"FRW","27.4825","-21.16","BW","Francistown","AF","airport","medium","2","FBFT","Francistown","Botswana"
"JWA","24.666668","-24.6","BW","Jwaneng","AF","airport","medium","2","FBJW","Jwaneng","Botswana"
"BBK","25.15","-17.816668","BW","Kasane","AF","airport","medium","2","FBKE","Kasane","Botswana"
"MUB","23.430555","-19.970833","BW","Maun","AF","airport","medium","2","FBMN","Maun","Botswana"
"GBE","25.92451","-24.557981","BW","Sir Seretse Khama Intl","AF","airport","medium","2","FBSK","Gaberone","Botswana"
"PKW","27.816668","-22.05","BW","Selebi Phikwe","AF","airport","medium","2","FBSP","Selebi-phikwe","Botswana"
"BZV","15.251139","-4.258899","CG","Maya Maya","AF","airport","medium","1","FCBB","Brazzaville","Congo (Brazzaville)"
"FTX","16.008333","-0.983333","CG","Owando","AF","airport","medium","1","FCOO","Owando","Congo (Kinshasa)"
"OUE","16.04861","1.616667","CG","Ouesso","AF","airport","medium","1","FCOU","Ouesso","Congo (Kinshasa)"
"PNR","11.882377","-4.809799","CG","Pointe Noire","AF","airport","medium","1","FCPP","Pointe-noire","Congo (Brazzaville)"
"MTS","31.314133","-26.52033","SZ","Matsapha","AF","airport","medium","2","FDMS","Manzini","Swaziland"
"BGF","18.520279","4.396111","CF","Bangui M Poko","AF","airport","medium","1","FEFF","Bangui","Central African Republic"
"BBT","15.788056","4.219167","CF","Berberati","AF","airport","medium","1","FEFT","Berberati","Central African Republic"
"BSG","9.802222","1.906667","GQ","Bata","AF","airport","medium","1","FGBT","Bata","Equatorial Guinea"
"SSG","8.716096","3.757791","GQ","Malabo","AF","airport","medium","1","FGSL","Malabo","Equatorial Guinea"
"MRU","57.67663","-20.431997","MU","Sir Seewoosagur Ramgoolam Intl","AF","airport","medium","5","FIMP","Plaisance","Mauritius"
"RRG","63.35","-19.75","MU","Plaine Corail","AF","airport","medium","4","FIMR","Rodriguez Island","Mauritius"
"TKC","9.333333","4.116667","CM","Tiko","AF","airport","medium","1","FKKC","Tiko","Cameroon"
"DLA","9.717018","4.01346","CM","Douala","AF","airport","medium","1","FKKD","Douala","Cameroon"
"MVR","14.256389","10.452222","CM","Salak","AF","airport","medium","1","FKKL","Maroua","Cameroon"
"FOM","10.833333","5.75","CM","Foumban Nkounja","AF","airport","medium","1","FKKM","Foumban","Cameroon"
"NGE","13.561389","7.356389","CM","Ngaoundere","AF","airport","medium","1","FKKN","N'gaoundere","Cameroon"
"GOU","13.375556","9.336111","CM","Garoua","AF","airport","medium","1","FKKR","Garoua","Cameroon"
"BFX","10.4","5.483333","CM","Bafoussam","AF","airport","medium","1","FKKU","Bafoussam","Cameroon"
"BPC","10.15","5.916667","CM","Bamenda","AF","airport","medium","1","FKKV","Bamenda","Cameroon"
"YAO","11.523611","3.833611","CM","Yaounde Ville","AF","airport","medium","1","FKKY","Yaounde","Cameroon"
"LVI","25.822222","-17.820557","ZM","Livingstone","AF","airport","medium","2","FLLI","Livingstone","Zambia"
"LUN","28.445747","-15.325017","ZM","Lusaka Intl","AF","airport","medium","2","FLLS","Lusaka","Zambia"
"MFU","31.933332","-13.266667","ZM","Mfuwe","AF","airport","medium","2","FLMF","Mfuwe","Zambia"
"NLA","28.665024","-12.993449","ZM","Ndola","AF","airport","medium","2","FLND","Ndola","Zambia"
"KIW","28.230556","-12.839444","ZM","Southdowns","AF","airport","medium","2","FLSO","Southdowns","Zambia"
"HAH","43.27492","-11.537275","KM","Prince Said Ibrahim","AF","airport","medium","3","FMCH","Moroni","Comoros"
"NWA","43.767155","-12.298664","KM","Bandaressalam","AF","airport","medium","3","FMCI","Moheli","Comoros"
"AJN","44.430473","-12.131109","KM","Ouani","AF","airport","medium","3","FMCV","Anjouan","Comoros"
"DZA","45.2821","-12.804901","YT","Dzaoudzi Pamandzi","AF","airport","medium","3","FMCZ","Dzaoudzi","Mayotte"
"RUN","55.511875","-20.892","RE","St Denis Gillot","AF","airport","medium","5","FMEE","St.-denis","Reunion"
"ZSE","55.42688","-21.320944","RE","St Pierre Pierrefonds","AF","airport","medium","5","FMEP","St.-pierre","Reunion"
"TNR","47.47503","-18.799631","MG","Ivato","AF","airport","medium","3","FMMI","Antananarivo","Madagascar"
"ZVA","45.466667","-19.5","MG","Miandrivazo","AF","airport","medium","3","FMMN","Miandrivazo","Madagascar"
"SMS","49.816666","-17.083332","MG","Sainte Marie","AF","airport","medium","3","FMMS","Sainte Marie","Madagascar"
"TMM","49.392223","-18.11","MG","Toamasina","AF","airport","medium","3","FMMT","Toamasina","Madagascar"
"MOQ","44.318333","-20.283611","MG","Morondava","AF","airport","medium","3","FMMV","Morondava","Madagascar"
"DIE","49.2925","-12.346111","MG","Arrachart","AF","airport","medium","3","FMNA","Antsiranana","Madagascar"
"WMR","49.774967","-16.164106","MG","Avaratra","AF","airport","medium","3","FMNC","Mananara","Madagascar"
"ZWA","49.61667","-14.65","MG","Andapa","AF","airport","medium","3","FMND","Andapa","Madagascar"
"AMB","48.983334","-13.183333","MG","Ambilobe","AF","airport","small","3","FMNE","Ambilobe","Madagascar"
"ANM","50.316666","-15.0","MG","Antsirabato","AF","airport","medium","3","FMNH","Antalaha","Madagascar"
"HVA","47.766666","-14.633333","MG","Analalava","AF","airport","medium","3","FMNL","Analalava","Madagascar"
"MJN","46.353058","-15.665833","MG","Philibert Tsiranana","AF","airport","medium","3","FMNM","Mahajanga","Madagascar"
"NOS","48.31389","-13.311111","MG","Fascene","AF","airport","medium","3","FMNN","Nosy-be","Madagascar"
"BPY","44.483334","-16.75","MG","Besalampy","AF","airport","medium","3","FMNQ","Besalampy","Madagascar"
"WMN","49.683334","-15.433333","MG","Maroantsetra","AF","airport","medium","3","FMNR","Maroantsetra","Madagascar"
"SVB","50.175","-14.276944","MG","Sambava","AF","airport","medium","3","FMNS","Sambava","Madagascar"
"VOH","50.0","-13.366667","MG","Vohimarina","AF","airport","medium","3","FMNV","Vohemar","Madagascar"
"WAI","47.95","-14.916667","MG","Ambalabe","AF","airport","medium","3","FMNW","Antsohihy","Madagascar"
"FTU","46.955555","-25.038055","MG","Tolagnaro","AF","airport","medium","3","FMSD","Tolagnaro","Madagascar"
"WFI","47.083332","-21.466667","MG","Fianarantsoa","AF","airport","medium","3","FMSF","Fianarantsoa","Madagascar"
"RVA","47.819443","-22.801945","MG","Farafangana","AF","airport","small","3","FMSG","Farafangana","Madagascar"
"WVK","48.016666","-22.116667","MG","Manakara","AF","airport","medium","3","FMSK","Manakara","Madagascar"
"MNJ","48.36667","-21.2","MG","Mananjary","AF","airport","medium","3","FMSM","Mananjary","Madagascar"
"MXM","43.37574","-21.751705","MG","Morombe","AF","airport","medium","3","FMSR","Morombe","Madagascar"
"TLE","43.724167","-23.389723","MG","Toliara","AF","airport","medium","3","FMST","Toliara","Madagascar"
"SSY","14.244167","-6.273889","AO","Mbanza Congo","AF","airport","medium","1","FNBC","M'banza-congo","Angola"
"BUG","13.40194","-12.606427","AO","Benguela","AF","airport","medium","1","FNBG","Benguela","Angola"
"CAB","12.2","-5.583333","AO","Cabinda","AF","airport","medium","1","FNCA","Cabinda","Angola"
"CPX","-65.30368","18.31255","PR","Culebra Airport","NA","airport","small","-4","TJCP","Culebra Island","Puerto Rico"
"NOV","15.757222","-12.805556","AO","Huambo","AF","airport","medium","1","FNHU","Huambo","Angola"
"SVP","16.956667","-12.404167","AO","Kuito","AF","airport","medium","1","FNKU","Kuito","Angola"
"LAD","13.234862","-8.847951","AO","Luanda 4 De Fevereiro","AF","airport","medium","1","FNLU","Luanda","Angola"
"MEG","16.333332","-9.533333","AO","Malanje","AF","airport","medium","1","FNMA","Malanje","Angola"
"SPP","17.725555","-14.6375","AO","Menongue","AF","airport","medium","1","FNME","Menongue","Angola"
"GXG","15.45","-7.783333","AO","Negage","AF","airport","medium","1","FNNG","Negage","Angola"
"PBN","13.75","-10.7","AO","Porto Amboim","AF","airport","medium","1","FNPA","Porto Amboim","Angola"
"VHC","20.55","-9.75","AO","Saurimo","AF","airport","medium","1","FNSA","Saurimo","Angola"
"SZA","12.375155","-6.140637","AO","Soyo","AF","airport","medium","1","FNSO","Soyo","Angola"
"SDD","13.576667","-14.924444","AO","Lubango","AF","airport","medium","1","FNUB","Lubango","Angola"
"LUO","20.166668","-11.5","AO","Luena","AF","airport","medium","1","FNUE","Luena","Angola"
"UGO","15.15","-7.816667","AO","Uige","AF","airport","medium","1","FNUG","Uige","Angola"
"XGN","14.972222","-16.75","AO","Xangongo","AF","airport","medium","1","FNXA","Xangongo","Angola"
"OYE","11.583333","1.566667","GA","Oyem","AF","airport","medium","1","FOGO","Oyem","Gabon"
"OKN","14.008333","-1.0","GA","Okondja","AF","airport","medium","1","FOGQ","Okondja","Gabon"
"LBQ","10.239444","-0.714722","GA","Lambarene","AF","airport","medium","1","FOGR","Lambarene","Gabon"
"BMM","11.490833","2.075833","GA","Bitam","AF","airport","medium","1","FOOB","Bitam","Gabon"
"POG","8.753584","-0.719964","GA","Port Gentil","AF","airport","medium","1","FOOG","Port Gentil","Gabon"
"OMB","9.266667","-1.6","GA","Omboue Hopital","AF","airport","medium","1","FOOH","Omboue Hospial","Gabon"
"MKU","12.861111","0.559167","GA","Makokou","AF","airport","medium","1","FOOK","Makokou","Gabon"
"LBV","9.409852","0.456963","GA","Leon M Ba","AF","airport","medium","1","FOOL","Libreville","Gabon"
"MVB","13.433333","-1.65","GA","Mvengue","AF","airport","medium","1","FOON","Franceville","Gabon"
"PCP","7.416667","1.666667","ST","Principe","AF","airport","medium","0","FPPR","Principe","Sao Tome and Principe"
"TMS","6.725","0.378333","ST","Sao Tome Intl","AF","airport","medium","0","FPST","Sao Tome","Sao Tome and Principe"
"BEW","34.90192","-19.798805","MZ","Beira","AF","airport","medium","2","FQBR","Beira","Mozambique"
"INH","35.408333","-23.874443","MZ","Inhambane","AF","airport","medium","2","FQIN","Inhambane","Mozambique"
"VXC","35.25","-13.283333","MZ","Lichinga","AF","airport","medium","2","FQLC","Lichinga","Mozambique"
"MPM","32.57429","-25.924389","MZ","Maputo","AF","airport","medium","2","FQMA","Maputo","Mozambique"
"MZB","40.356075","-11.360261","MZ","Mocimboa Da Praia","AF","airport","medium","2","FQMP","Mocimboa Da Praia","Mozambique"
"MNC","40.70861","-14.48","MZ","Nacala","AF","airport","small","2","FQNC","Nacala","Mozambique"
"APL","39.287224","-15.101667","MZ","Nampula","AF","airport","medium","2","FQNP","Nampula","Mozambique"
"POL","40.5225","-12.988333","MZ","Pemba","AF","airport","medium","2","FQPB","Pemba","Mozambique"
"UEL","36.865555","-17.847221","MZ","Quelimane","AF","airport","medium","2","FQQL","Quelimane","Mozambique"
"TET","33.63889","-16.103333","MZ","Tete Chingodzi","AF","airport","medium","2","FQTT","Tete","Mozambique"
"VNX","35.283333","-22.016666","MZ","Vilankulo","AF","airport","medium","2","FQVL","Vilankulu","Mozambique"
"DES","53.683334","-5.683333","SC","Desroches","AF","airport","small","4","FSDR","Desroches","Seychelles"
"SEZ","55.51128","-4.671275","SC","Seychelles Intl","AF","airport","medium","4","FSIA","Mahe","Seychelles"
"PRI","55.692314","-4.323883","SC","Praslin","AF","airport","medium","4","FSPP","Praslin","Seychelles"
"AEH","20.850834","13.851389","TD","Abeche","AF","airport","medium","1","FTTC","Abeche","Chad"
"MQQ","16.073334","8.625","TD","Moundou","AF","airport","medium","1","FTTD","Moundou","Chad"
"NDJ","15.034215","12.129056","TD","Ndjamena Hassan Djamous","AF","airport","medium","1","FTTJ","N'djamena","Chad"
"FYT","19.116667","17.916668","TD","Faya Largeau","AF","airport","medium","1","FTTY","Faya-largeau","Chad"
"BUQ","28.622616","-20.014933","ZW","J M Nkomo Intl","AF","airport","medium","2","FVBU","Bulawayo","Zimbabwe"
"BFO","31.579166","-21.009167","ZW","Buffalo Range","AF","airport","medium","2","FVCZ","Chiredzi","Zimbabwe"
"VFA","25.840279","-18.093056","ZW","Victoria Falls Intl","AF","airport","medium","2","FVFA","Victoria Falls","Zimbabwe"
"HRE","31.099249","-17.91863","ZW","Harare Intl","AF","airport","medium","2","FVHA","Harare","Zimbabwe"
"KAB","28.885279","-16.518333","ZW","Kariba Intl","AF","airport","medium","2","FVKB","Kariba","Zimbabwe"
"MVZ","30.860556","-20.054167","ZW","Masvingo Intl","AF","airport","medium","2","FVMV","Masvingo","Zimbabwe"
"GWE","29.86111","-19.435833","ZW","Gweru Thornhill","AF","airport","medium","2","FVTL","Gwert","Zimbabwe"
"BLZ","34.970833","-15.674722","MW","Chileka Intl","AF","airport","medium","2","FWCL","Blantyre","Malawi"
"KGJ","33.892223","-9.957778","MW","Karonga","AF","airport","medium","2","FWKA","Karonga","Malawi"
"LLW","33.780197","-13.780039","MW","Kamuzu Intl","AF","airport","medium","2","FWKI","Lilongwe","Malawi"
"ZZU","34.01278","-11.442778","MW","Mzuzu","AF","airport","medium","2","FWUU","Mzuzu","Malawi"
"MSU","27.505556","-29.30139","LS","Moshoeshoe I Intl","AF","airport","medium","2","FXMM","Maseru","Lesotho"
"FIH","15.447338","-4.389588","CD","Ndjili Intl","AF","airport","medium","1","FZAA","Kinshasa","Congo (Kinshasa)"
"NLO","15.326389","-4.325","CD","Ndolo","AF","airport","medium","1","FZAB","Kinshasa","Congo (Kinshasa)"
"MNB","12.352778","-5.926944","CD","Muanda","AF","airport","small","1","FZAG","Muanda","Congo (Kinshasa)"
"FDU","17.383333","-3.305556","CD","Bandundu","AF","airport","medium","1","FZBO","Bandoundu","Congo (Kinshasa)"
"KKW","18.780277","-5.036111","CD","Kikwit","AF","airport","medium","1","FZCA","Kikwit","Congo (Kinshasa)"
"MDK","18.28861","0.0225","CD","Mbandaka","AF","airport","medium","1","FZEA","Mbandaka","Congo (Kinshasa)"
"BDT","22.45","4.083333","CD","Gbadolite","AF","airport","medium","1","FZFD","Gbadolite","Congo (Kinshasa)"
"GMA","19.77111","3.235278","CD","Gemena","AF","airport","medium","1","FZFK","Gemena","Congo (Kinshasa)"
"LIQ","21.496668","2.170556","CD","Lisala","AF","airport","medium","1","FZGA","Lisala","Congo (Kinshasa)"
"FKI","25.338057","0.481667","CD","Kisangani Simisini","AF","airport","medium","2","FZIA","Kisangani","Congo (Kinshasa)"
"IRP","27.588333","2.8275","CD","Matari","AF","airport","medium","2","FZJH","Isiro","Congo (Kinshasa)"
"BUX","30.220833","1.565833","CD","Bunia","AF","airport","medium","2","FZKA","Bunia","Congo (Kinshasa)"
"BKY","28.808804","-2.308978","CD","Bukavu Kavumu","AF","airport","medium","2","FZMA","Bukavu/kavumu","Congo (Kinshasa)"
"GOM","29.23835","-1.669921","CD","Goma","AF","airport","medium","2","FZNA","Goma","Congo (Kinshasa)"
"KND","25.915277","-2.919167","CD","Kindu","AF","airport","medium","2","FZOA","Kindu","Congo (Kinshasa)"
"FBM","27.529167","-11.590833","CD","Lubumbashi Intl","AF","airport","medium","2","FZQA","Lubumashi","Congo (Kinshasa)"
"KWZ","25.506945","-10.766667","CD","Kolwezi","AF","airport","medium","2","FZQM","Kolwezi","Congo (Kinshasa)"
"FMI","29.25","-5.875556","CD","Kalemie","AF","airport","medium","2","FZRF","Kalemie","Congo (Kinshasa)"
"KMN","25.25","-8.641111","CD","Kamina Base","AF","airport","medium","2","FZSA","Kamina Base","Congo (Kinshasa)"
"KGA","22.469168","-5.922","CD","Kananga","AF","airport","medium","2","FZUA","Kananga","Congo (Kinshasa)"
"MJM","23.633333","-6.15","CD","Mbuji Mayi","AF","airport","medium","2","FZWA","Mbuji-mayi","Congo (Kinshasa)"
"BKO","-7.947951","12.540926","ML","Senou","AF","airport","medium","0","GABS","Bamako","Mali"
"GAQ","-0.001389","16.248611","ML","Gao","AF","airport","medium","0","GAGO","Gao","Mali"
"KYS","-11.439444","14.431944","ML","Kayes Dag Dag","AF","airport","medium","0","GAKY","Kayes","Mali"
"MZI","-4.085","14.508333","ML","Ambodedjo","AF","airport","medium","0","GAMB","Mopti","Mali"
"TOM","-3.005278","16.732222","ML","Tombouctou","AF","airport","medium","0","GATB","Tombouctou","Mali"
"BJL","-16.6522","13.34406","GM","Banjul Intl","AF","airport","medium","0","GBYD","Banjul","Gambia"
"FUE","-13.869893","28.450605","ES","Fuerteventura","EU","airport","medium","0","GCFV","Fuerteventura","Spain"
"VDE","-17.884937","27.813969","ES","Hierro","EU","airport","medium","0","GCHI","Hierro","Spain"
"SPC","-17.755556","28.626389","ES","La Palma","EU","airport","medium","0","GCLA","Santa Cruz De La Palma","Spain"
"LPA","-15.389351","27.938944","ES","Gran Canaria","EU","airport","large","0","GCLP","Gran Canaria","Spain"
"ACE","-13.609059","28.950668","ES","Lanzarote","EU","airport","medium","0","GCRR","Las Palmas","Spain"
"TFS","-16.5725","28.044443","ES","Tenerife Sur","EU","airport","large","0","GCTS","Tenerife","Spain"
"TFN","-16.345982","28.488056","ES","Tenerife Norte","EU","airport","large","0","GCXO","Tenerife","Spain"
"MLN","-2.957473","35.277077","ES","Melilla","EU","airport","medium","0","GEML","Melilla","Spain"
"FNA","-13.196944","8.6175","SL","Freetown Lungi","AF","airport","medium","0","GFLL","Freetown","Sierra Leone"
"MLW","-10.758333","6.289444","LR","Monrovia Spriggs Payne","AF","airport","medium","0","GLMR","Monrovia","Liberia"
"ROB","-10.358889","6.239722","LR","Monrovia Roberts Intl","AF","airport","medium","0","GLRB","Monrovia","Liberia"
"AGA","-9.4131","30.325","MA","Inezgane","AF","airport","medium","0","GMAA","Agadir","Morocco"
"TTA","-11.083333","28.45","MA","Plage Blanche","AF","airport","medium","0","GMAT","Tan Tan","Morocco"
"FEZ","-4.982138","33.93079","MA","Saiss","AF","airport","medium","0","GMFF","Fes","Morocco"
"ERH","-4.4","31.95","MA","Moulay Ali Cherif","AF","airport","medium","0","GMFK","Er-rachidia","Morocco"
"MEK","-5.533333","33.88333","MA","Bassatine","AF","airport","medium","0","GMFM","Meknes","Morocco"
"OUD","-1.933333","34.783333","MA","Angads","AF","airport","medium","1","GMFO","Oujda","Morocco"
"RBA","-6.748619","34.036137","MA","Sale","AF","airport","medium","0","GMME","Rabat","Morocco"
"CMN","-7.586667","33.36667","MA","Mohammed V Intl","AF","airport","large","0","GMMN","Casablanca","Morocco"
"RAK","-8.026902","31.601875","MA","Menara","AF","airport","medium","0","GMMX","Marrakech","Morocco"
"NNA","-6.666667","34.266666","MA","Kenitra","AF","airport","medium","0","GMMY","Kentira","Morocco"
"OZZ","-6.916667","30.916668","MA","Ouarzazate","AF","airport","medium","0","GMMZ","Ouarzazate","Morocco"
"AHU","-3.836944","35.17972","MA","Cherif El Idrissi","AF","airport","medium","0","GMTA","Al Hociema","Morocco"
"TTU","-5.316667","35.583332","MA","Saniat Rmel","AF","airport","medium","0","GMTN","Tetouan","Morocco"
"TNG","-5.912898","35.726288","MA","Ibn Batouta","AF","airport","medium","0","GMTT","Tanger","Morocco"
"ZIG","-16.275833","12.556111","SN","Ziguinchor","AF","airport","medium","0","GOGG","Ziguinchor","Senegal"
"CSK","-16.744122","12.392154","SN","Cap Skiring","AF","airport","medium","0","GOGS","Cap Skiring","Senegal"
"KLC","-16.5","14.083333","SN","Kaolack","AF","airport","medium","0","GOOK","Kaolack","Senegal"
"DKR","-17.490194","14.744975","SN","Leopold Sedar Senghor Intl","AF","airport","large","0","GOOY","Dakar","Senegal"
"XLS","-16.460278","16.050278","SN","Saint Louis","AF","airport","medium","0","GOSS","St. Louis","Senegal"
"BXE","-12.467778","14.841667","SN","Bakel","AF","airport","medium","0","GOTB","Bakel","Senegal"
"KGG","-12.217222","12.570833","SN","Kedougou","AF","airport","medium","0","GOTK","Kedougou","Senegal"
"TUD","-13.658333","13.736111","SN","Tambacounda","AF","airport","medium","0","GOTT","Tambacounda","Senegal"
"TIY","-11.416667","18.566668","MR","Tidjikja","AF","airport","small","0","GQND","Tidjikja","Mauritania"
"KFA","-11.405278","16.588888","MR","Kiffa","AF","airport","small","0","GQNF","Kiffa","Mauritania"
"EMN","-7.283333","16.6","MR","Nema","AF","airport","small","0","GQNI","Nema","Mauritania"
"KED","-13.507778","16.161388","MR","Kaedi","AF","airport","small","0","GQNK","Kaedi","Mauritania"
"NKC","-15.952041","18.098148","MR","Nouakchott","AF","airport","medium","0","GQNN","Nouakschott","Mauritania"
"SEY","-12.206111","15.182222","MR","Selibady","AF","airport","small","0","GQNS","Selibabi","Mauritania"
"ATR","-13.046389","20.499443","MR","Atar","AF","airport","medium","0","GQPA","Atar","Mauritania"
"NDB","-17.028334","20.934168","MR","Nouadhibou","AF","airport","medium","0","GQPP","Nouadhibou","Mauritania"
"FIG","-13.566667","10.35","GN","Fria","AF","airport","medium","0","GUFA","Fira","Guinea"
"FAA","-10.75","10.033333","GN","Faranah","AF","airport","medium","0","GUFH","Faranah","Guinea"
"LEK","-12.297222","11.333333","GN","Labe","AF","airport","medium","0","GULB","Labe","Guinea"
"SID","-22.943613","16.734695","CV","Amilcar Cabral Intl","AF","airport","medium","-1","GVAC","Amilcar Cabral","Cape Verde"
"BVC","-22.833332","16.083332","CV","Rabil","AF","airport","medium","-1","GVBA","Boa Vista","Cape Verde"
"MMO","-23.166668","15.25","CV","Maio","AF","airport","medium","-1","GVMA","Maio","Cape Verde"
"SNE","-24.28861","16.586945","CV","Preguica","AF","airport","medium","-1","GVSN","Sao Nocolau Island","Cape Verde"
"VXE","-25.057571","16.835613","CV","Sao Pedro","AF","airport","medium","-1","GVSV","Sao Vicente Island","Cape Verde"
"ADD","38.7959","8.983759","ET","Bole Intl","AF","airport","medium","3","HAAB","Addis Ababa","Ethiopia"
"AMH","37.576942","6.036111","ET","Arba Minch","AF","airport","medium","3","HAAM","Arba Minch","Ethiopia"
"AXU","38.716667","14.120833","ET","Axum","AF","airport","medium","3","HAAX","Axum","Ethiopia"
"BJR","37.32324","11.603292","ET","Bahir Dar","AF","airport","medium","3","HABD","Bahar Dar","Ethiopia"
"DIR","41.857994","9.61338","ET","Dire Dawa Intl","AF","airport","medium","3","HADR","Dire Dawa","Ethiopia"
"GMB","34.583332","8.283333","ET","Gambella","AF","airport","medium","3","HAGM","Gambella","Ethiopia"
"GDQ","37.445557","12.514444","ET","Gondar","AF","airport","medium","3","HAGN","Gondar","Ethiopia"
"JIM","36.82111","7.654444","ET","Jimma","AF","airport","medium","3","HAJM","Jimma","Ethiopia"
"LLI","39.066666","12.016667","ET","Lalibella","AF","airport","small","3","HALL","Lalibella","Ethiopia"
"MQX","39.52639","13.468333","ET","Makale","AF","airport","medium","3","HAMK","Makale","Ethiopia"
"ASO","34.536667","10.047222","ET","Asosa","AF","airport","medium","3","HASO","Asosa","Ethiopia"
"BJM","29.366667","-3.383333","BI","Bujumbura Intl","AF","airport","medium","2","HBBA","Bujumbura","Burundi"
"HGA","44.091667","9.515833","SO","Egal Intl","AF","airport","medium","3","HCMH","Hargeisa","Somalia"
"BBO","45.00639","10.419444","SO","Berbera","AF","airport","medium","3","HCMI","Berbera","Somalia"
"KMU","42.461792","-0.377185","SO","Kisimayu","AF","airport","medium","3","HCMK","Kismayu","Somalia"
"ALY","29.953058","31.192545","EG","Alexandria Intl","AF","airport","medium","2","HEAX","Alexandria","Egypt"
"ABS","31.609774","22.367567","EG","Abu Simbel","AF","airport","medium","2","HEBL","Abu Simbel","Egypt"
"CAI","31.40647","30.120106","EG","Cairo Intl","AF","airport","large","2","HECA","Cairo","Egypt"
"HRG","33.8055","27.189156","EG","Hurghada Intl","AF","airport","large","2","HEGN","Hurghada","Egypt"
"LXR","32.699684","25.67492","EG","Luxor Intl","AF","airport","medium","2","HELX","Luxor","Egypt"
"MUH","27.25","31.35","EG","Mersa Matruh","AF","airport","medium","2","HEMM","Mersa-matruh","Egypt"
"PSD","32.3","31.266666","EG","Port Said","AF","airport","medium","2","HEPS","Port Said","Egypt"
"SKV","34.0625","28.685278","EG","St Catherine Intl","AS","airport","medium","2","HESC","St. Catherine","Egypt"
"ASW","32.824818","23.968021","EG","Aswan Intl","AF","airport","medium","2","HESN","Aswan","Egypt"
"ELT","33.63333","28.216667","EG","El Tor","AS","airport","small","2","HETR","El-tor","Egypt"
"EDL","35.2236","0.4054","KE","Eldoret Intl","AF","airport","medium","3","HKEL","Eldoret","Kenya"
"KIS","34.7375","-0.084946","KE","Kisumu","AF","airport","medium","3","HKKI","Kisumu","Kenya"
"KTL","34.959248","0.974111","KE","Kitale","AF","airport","medium","3","HKKT","Kitale","Kenya"
"LOK","35.6","3.15","KE","Lodwar","AF","airport","medium","3","HKLO","Lodwar","Kenya"
"LAU","40.911667","-2.25","KE","Lamu Manda","AF","airport","medium","3","HKLU","Lamu","Kenya"
"MBA","39.60325","-4.0327","KE","Mombasa Moi Intl","AF","airport","large","3","HKMO","Mombasa","Kenya"
"WIL","36.813248","-1.318018","KE","Nairobi Wilson","AF","airport","medium","3","HKNW","Nairobi","Kenya"
"WJR","40.6","1.766667","KE","Wajir","AF","airport","medium","3","HKWJ","Wajir","Kenya"
"GHT","10.166667","24.966667","LY","Ghat","AF","airport","medium","1","HLGT","Ghat","Libya"
"AKF","23.333332","24.2","LY","Kufra","AF","airport","medium","1","HLKF","Kufra","Libya"
"BEN","20.26489","32.085423","LY","Benina","AF","airport","medium","1","HLLB","Benghazi","Libya"
"SEB","14.4625","27.016666","LY","Sebha","AF","airport","medium","1","HLLS","Sebha","Libya"
"TIP","13.144279","32.66989","LY","Tripoli Intl","AF","airport","large","1","HLLT","Tripoli","Libya"
"LTD","9.509722","30.129168","LY","Ghadames East","AF","airport","medium","1","HLTD","Ghadames","Libya"
"GYI","29.25","-1.683333","RW","Gisenyi","AF","airport","medium","2","HRYG","Gisenyi","Rwanda"
"KGL","30.135014","-1.963042","RW","Kigali Intl","AF","airport","medium","2","HRYR","Kigali","Rwanda"
"KME","28.916668","-2.466667","RW","Kamembe","AF","airport","medium","2","HRZA","Kamembe","Rwanda"
"DOG","30.45","19.183332","SD","Dongola","AF","airport","medium","2","HSDN","Dongola","Sudan"
"ELF","25.316668","13.616667","SD","El Fashir","AF","airport","medium","2","HSFS","El Fasher","Sudan"
"KSL","36.34222","15.390278","SD","Kassala","AF","airport","medium","2","HSKA","Kassala","Sudan"
"EBD","30.234167","13.159722","SD","El Obeid","AF","airport","medium","2","HSOB","El Obeid","Sudan"
"JUB","31.601692","4.866198","SS","Juba","AF","airport","medium","2","HSSJ","Juba","South Sudan"
"MAK","31.644444","9.555556","SS","Malakal","AF","airport","medium","2","HSSM","Malakal","Sudan"
"KRT","32.549698","15.592217","SD","Khartoum","AF","airport","large","2","HSSS","Khartoum","Sudan"
"ARK","36.683334","-3.366667","TZ","Arusha","AF","airport","medium","3","HTAR","Arusha","Tanzania"
"DAR","39.20211","-6.873533","TZ","Mwalimu Julius K Nyerere Intl","AF","airport","medium","3","HTDA","Dar Es Salaam","Tanzania"
"DOD","35.75028","-6.166667","TZ","Dodoma","AF","airport","medium","3","HTDO","Dodoma","Tanzania"
"IRI","35.75028","-7.670556","TZ","Iringa","AF","airport","medium","3","HTIR","Iringa","Tanzania"
"JRO","37.065342","-3.424123","TZ","Kilimanjaro Intl","AF","airport","medium","3","HTKJ","Kilimanjaro","Tanzania"
"LKY","35.82021","-3.375889","TZ","Lake Manyara","AF","airport","medium","3","HTLM","Lake Manyara","Tanzania"
"MYW","40.19361","-10.338889","TZ","Mtwara","AF","airport","medium","2","HTMT","Mtwara","Tanzania"
"MWZ","32.923225","-2.441221","TZ","Mwanza","AF","airport","medium","3","HTMW","Mwanza","Tanzania"
"PMA","39.81262","-5.258731","TZ","Pemba","AF","airport","medium","3","HTPE","Pemba","Tanzania"
"TGT","39.07028","-5.089444","TZ","Tanga","AF","airport","medium","3","HTTG","Tanga","Tanzania"
"ZNZ","39.221184","-6.218466","TZ","Zanzibar","AF","airport","medium","3","HTZA","Zanzibar","Tanzania"
"EBB","32.443184","0.045111","UG","Entebbe Intl","AF","airport","medium","3","HUEN","Entebbe","Uganda"
"SRT","33.61667","1.7","UG","Soroti","AF","airport","medium","3","HUSO","Soroti","Uganda"
"TIA","19.71328","41.419132","AL","Tirana Rinas","EU","airport","large","1","LATI","Tirana","Albania"
"BOJ","27.515545","42.56745","BG","Burgas","EU","airport","large","2","LBBG","Bourgas","Bulgaria"
"GOZ","25.666668","43.11667","BG","Gorna Oryahovitsa","EU","airport","medium","2","LBGO","Gorna Orechovica","Bulgaria"
"PDV","24.716667","42.3","BG","Plovdiv","EU","airport","large","2","LBPD","Plovdiv","Bulgaria"
"SOF","23.41443","42.688343","BG","Sofia","EU","airport","large","2","LBSF","Sofia","Bulgaria"
"VAR","27.829096","43.23726","BG","Varna","EU","airport","large","2","LBWN","Varna","Bulgaria"
"LCA","33.62599","34.880867","CY","Larnaca","AS","airport","large","2","LCLK","Larnaca","Cyprus"
"PFO","32.489105","34.71155","CY","Pafos Intl","AS","airport","large","2","LCPH","Paphos","Cyprus"
"AKT","32.983334","34.583332","CY","Akrotiri","AS","airport","medium","2","LCRA","Akrotiri","Cyprus"
"DBV","18.260616","42.56072","HR","Dubrovnik","EU","airport","medium","1","LDDU","Dubrovnik","Croatia"
"OSI","18.683332","45.55","HR","Osijek","EU","airport","medium","1","LDOS","Osijek","Croatia"
"PUY","13.923611","44.891666","HR","Pula","EU","airport","medium","1","LDPL","Pula","Croatia"
"RJK","14.568333","45.21583","HR","Rijeka","EU","airport","medium","1","LDRI","Rijeka","Croatia"
"SPU","16.29946","43.536526","HR","Split","EU","airport","medium","1","LDSP","Split","Croatia"
"ZAG","16.06152","45.733242","HR","Zagreb","EU","airport","large","1","LDZA","Zagreb","Croatia"
"ZAD","15.356667","44.09778","HR","Zadar","EU","airport","medium","1","LDZD","Zadar","Croatia"
"ALC","-0.557381","38.287098","ES","Alicante","EU","airport","large","1","LEAL","Alicante","Spain"
"LEI","-2.371873","36.847984","ES","Almeria","EU","airport","medium","1","LEAM","Almeria","Spain"
"OVD","-6.032094","43.55891","ES","Asturias","EU","airport","medium","1","LEAS","Aviles","Spain"
"ODB","-4.847222","37.84111","ES","Cordoba","EU","airport","medium","1","LEBA","Cordoba","Spain"
"BIO","-2.905808","43.305534","ES","Bilbao","EU","airport","medium","1","LEBB","Bilbao","Spain"
"BCN","2.07593","41.30303","ES","Barcelona","EU","airport","large","1","LEBL","Barcelona","Spain"
"BJZ","-6.82","38.891666","ES","Talavera La Real","EU","airport","medium","1","LEBZ","Badajoz","Spain"
"LCG","-8.381923","43.30236","ES","A Coruna","EU","airport","medium","1","LECO","La Coruna","Spain"
"GRO","2.766383","41.89804","ES","Girona","EU","airport","medium","1","LEGE","Gerona","Spain"
"GRX","-3.776954","37.184727","ES","Granada","EU","airport","medium","1","LEGR","Granada","Spain"
"IBZ","1.367803","38.876595","ES","Ibiza","EU","airport","medium","1","LEIB","Ibiza","Spain"
"XRY","-6.064535","36.750614","ES","Jerez","EU","airport","medium","1","LEJR","Jerez","Spain"
"MJV","-0.81904","37.77521","ES","Murcia San Javier","EU","airport","medium","1","LELC","Murcia","Spain"
"PKH","23.147223","37.301388","GR","Alexion","EU","airport","small","2","LGHL","Porto Heli","Greece"
"MAD","-3.570209","40.46515","ES","Barajas","EU","airport","large","1","LEMD","Madrid","Spain"
"AGP","-4.489616","36.675182","ES","Malaga","EU","airport","large","1","LEMG","Malaga","Spain"
"MAH","4.226256","39.864746","ES","Menorca","EU","airport","medium","1","LEMH","Menorca","Spain"
"OZP","-5.759444","37.24917","ES","Moron Ab","EU","airport","medium","1","LEMO","Sevilla","Spain"
"PNA","-1.639347","42.767498","ES","Pamplona","EU","airport","medium","1","LEPP","Pamplona","Spain"
"REU","1.153319","41.146103","ES","Reus","EU","airport","medium","1","LERS","Reus","Spain"
"SLM","-5.501944","40.951942","ES","Salamanca","EU","airport","medium","1","LESA","Salamanca","Spain"
"EAS","-1.793538","43.3564","ES","San Sebastian","EU","airport","medium","1","LESO","San Sebastian","Spain"
"SCQ","-8.420327","42.897316","ES","Santiago","EU","airport","large","1","LEST","Santiago","Spain"
"LEU","1.466667","42.416668","ES","Seo De Urgel","EU","airport","small","1","LESU","Seo De Urgel","Spain"
"TOJ","-3.546667","40.455555","ES","Torrejon","EU","airport","medium","1","LETO","Madrid","Spain"
"VLC","-0.473475","39.49179","ES","Valencia","EU","airport","medium","1","LEVC","Valencia","Spain"
"VLL","-4.844626","41.70581","ES","Valladolid","EU","airport","medium","1","LEVD","Valladolid","Spain"
"VIT","-2.5","42.833332","ES","Vitoria","EU","airport","medium","1","LEVT","Vitoria","Spain"
"VGO","-8.634025","42.224552","ES","Vigo","EU","airport","medium","1","LEVX","Vigo","Spain"
"SDR","-3.824453","43.423084","ES","Santander","EU","airport","medium","1","LEXJ","Santander","Spain"
"ZAZ","-1.007466","41.66386","ES","Zaragoza Ab","EU","airport","medium","1","LEZG","Zaragoza","Spain"
"SVQ","-5.900136","37.423477","ES","Sevilla","EU","airport","medium","1","LEZL","Sevilla","Spain"
"CQF","1.933333","50.95","FR","Calais Dunkerque","EU","airport","medium","1","LFAC","Calais","France"
"LTQ","1.627071","50.514774","FR","Le Touquet Paris Plage","EU","airport","medium","1","LFAT","Le Tourquet","France"
"AGF","0.598611","44.17361","FR","La Garenne","EU","airport","medium","1","LFBA","Agen","France"
"BOD","-0.70217","44.83102","FR","Merignac","EU","airport","large","1","LFBD","Bordeaux","France"
"EGC","0.483333","44.85","FR","Roumaniere","EU","airport","medium","1","LFBE","Bergerac","France"
"CNG","-0.333333","45.683334","FR","Chateaubernard","EU","airport","medium","1","LFBG","Cognac","France"
"PIS","0.306389","46.58611","FR","Biard","EU","airport","medium","1","LFBI","Poitiers","France"
"LIG","1.176245","45.86218","FR","Bellegarde","EU","airport","medium","1","LFBL","Limoges","France"
"NIT","-0.45","46.316666","FR","Souche","EU","airport","medium","1","LFBN","Niort","France"
"TLS","1.374321","43.63007","FR","Blagnac","EU","airport","large","1","LFBO","Toulouse","France"
"PUF","-0.413573","43.382347","FR","Pau Pyrenees","EU","airport","medium","1","LFBP","Pau","France"
"LDE","0.003368","43.18651","FR","Lourdes","EU","airport","medium","1","LFBT","Tarbes","France"
"ANG","0.216667","45.733334","FR","Brie Champniers","EU","airport","medium","1","LFBU","Angouleme","France"
"BVE","1.533333","45.166668","FR","La Roche","EU","airport","large","1","LFBV","Brive","France"
"PGX","0.716667","45.183334","FR","Bassillac","EU","airport","medium","1","LFBX","Perigueux","France"
"BIQ","-1.531242","43.472416","FR","Anglet","EU","airport","medium","1","LFBZ","Biarritz-bayonne","France"
"XAC",,,"FR","La Teste De Buch","EU","airport","medium","1","LFCH","Arcachon","France"
"LBI","2.15","43.933334","FR","Le Sequestre","EU","airport","medium","1","LFCI","Albi","France"
"DCM","2.284167","43.555832","FR","Mazamet","EU","airport","medium","1","LFCK","Castres","France"
"RDZ","2.483866","44.410595","FR","Marcillac","EU","airport","medium","1","LFCR","Rodez","France"
"RYN","-1.016667","45.61667","FR","Medis","EU","airport","medium","1","LFCY","Royan","France"
"RCO","-0.980556","45.890556","FR","St Agnant","EU","airport","medium","1","LFDN","Rochefort","France"
"CMR","7.366667","48.083332","FR","Houssen","EU","airport","medium","1","LFGA","Colmar","France"
"DLE","5.428719","47.038254","FR","Tavaux","EU","airport","medium","1","LFGJ","Dole","France"
"OBS","4.7","44.666668","FR","Ardeche Meridionale","EU","airport","medium","1","LFHO","Aubenas-vals-lanas","France"
"LPY","3.766667","45.083332","FR","Loudes","EU","airport","medium","1","LFHP","Le Puy","France"
"ETZ","6.243003","48.98165","FR","Metz Nancy Lorraine","EU","airport","medium","1","LFJL","Metz","France"
"BIA","9.480124","42.547615","FR","Poretta","EU","airport","medium","1","LFKB","Bastia","France"
"CLY","8.791667","42.52778","FR","Saint Catherine","EU","airport","medium","1","LFKC","Calvi","France"
"FSC","9.098223","41.498634","FR","Sud Corse","EU","airport","medium","1","LFKF","Figari","France"
"AJA","8.794013","41.91987","FR","Campo Dell Oro","EU","airport","medium","1","LFKJ","Ajaccio","France"
"SOZ","9.383333","41.88333","FR","Solenzara","EU","airport","medium","1","LFKS","Solenzara","France"
"AUF","3.5","47.85","FR","Branches","EU","airport","medium","1","LFLA","Auxerre","France"
"CMF","5.88437","45.637993","FR","Aix Les Bains","EU","airport","medium","1","LFLB","Chambery","France"
"CFE","3.163893","45.78032","FR","Auvergne","EU","airport","medium","1","LFLC","Clermont-Ferrand","France"
"BOU","2.416667","47.15","FR","Bourges","EU","airport","medium","1","LFLD","Bourges","France"
"QNJ",,,"FR","Annemasse","EU","airport","medium","1","LFLI","Annemasse","France"
"LYS","5.080334","45.721424","FR","Saint Exupery","EU","airport","medium","1","LFLL","Lyon","France"
"QNX",,,"FR","Charnay","EU","airport","medium","1","LFLM","Macon","France"
"RNE","4.000833","46.053333","FR","Renaison","EU","airport","medium","1","LFLO","Roanne","France"
"NCY","6.100833","45.930557","FR","Meythet","EU","airport","medium","1","LFLP","Annecy","France"
"GNB","5.332019","45.359833","FR","Saint Geoirs","EU","airport","medium","1","LFLS","Grenoble","France"
"MCU","2.6","46.35","FR","Domerat","EU","airport","medium","1","LFLT","Montlucon","France"
"VAF","4.970278","44.920277","FR","Chabeuil","EU","airport","medium","1","LFLU","Valence","France"
"VHY","3.409722","46.165558","FR","Charmeil","EU","airport","medium","1","LFLV","Vichy","France"
"AUR","2.418056","44.8975","FR","Aurillac","EU","airport","medium","1","LFLW","Aurillac","France"
"CHR","1.728128","46.861954","FR","Deols","EU","airport","medium","1","LFLX","Chateauroux","France"
"LYN","4.943333","45.73083","FR","Bron","EU","airport","medium","1","LFLY","Lyon","France"
"CEQ","6.954167","43.54639","FR","Mandelieu","EU","airport","medium","1","LFMD","Cannes","France"
"EBU","4.296944","45.54139","FR","Boutheon","EU","airport","medium","1","LFMH","St-Etienne","France"
"CCF","2.316667","43.216667","FR","Salvaza","EU","airport","medium","1","LFMK","Carcassonne","France"
"MRS","5.222137","43.44178","FR","Provence","EU","airport","large","1","LFML","Marseille","France"
"NCE","7.205232","43.66049","FR","Cote D\\\\'Azur","EU","airport","large","1","LFMN","Nice","France"
"PGF","2.868183","42.741016","FR","Rivesaltes","EU","airport","medium","1","LFMP","Perpignan","France"
"CTT","5.783333","43.25","FR","Le Castellet","EU","airport","medium","1","LFMQ","Le Castellet","France"
"MPL","3.959174","43.57843","FR","Mediterranee","EU","airport","medium","1","LFMT","Montpellier","France"
"BZR","3.354444","43.324165","FR","Vias","EU","airport","medium","1","LFMU","Beziers","France"
"AVN","4.9","43.9","FR","Caumont","EU","airport","medium","1","LFMV","Avignon","France"
"MEN","3.533333","44.5","FR","Brenoux","EU","airport","medium","1","LFNB","Mende","France"
"BVA","2.110815","49.459488","FR","Tille","EU","airport","medium","1","LFOB","Beauvais","France"
"LEH","0.088611","49.53889","FR","Octeville","EU","airport","medium","1","LFOH","Le Havre","France"
"ORE","1.9","47.916668","FR","Bricy","EU","airport","medium","1","LFOJ","Orleans","France"
"XCR","4.201111","48.767776","FR","Vatry","EU","airport","medium","1","LFOK","Chalons","France"
"URO","1.1875","49.38861","FR","Vallee De Seine","EU","airport","medium","1","LFOP","Rouen","France"
"TUF","0.726584","47.432236","FR","Val De Loire","EU","airport","large","1","LFOT","Tours","France"
"CET","-0.866667","47.066666","FR","Le Pontreau","EU","airport","medium","1","LFOU","Cholet","France"
"LVA","-0.766667","48.066666","FR","Entrammes","EU","airport","medium","1","LFOV","Laval","France"
"LBG","2.4425","48.971943","FR","Le Bourget","EU","airport","medium","1","LFPB","Paris","France"
"CSF","2.483333","49.25","FR","Creil","EU","airport","medium","1","LFPC","Creil","France"
"CDG","2.567023","49.003197","FR","Charles De Gaulle","EU","airport","large","1","LFPG","Paris","France"
"TNF","2.113056","48.75083","FR","Toussus Le Noble","EU","airport","medium","1","LFPN","Toussous-le-noble","France"
"ORY","2.3597","48.728283","FR","Orly","EU","airport","large","1","LFPO","Paris","France"
"POX","2.1","49.05","FR","Cormeilles En Vexin","EU","airport","medium","1","LFPT","Pontoise","France"
"QYR",,,"FR","Barberey","EU","airport","medium","1","LFQB","Troyes","France"
"NVS","3.15","47.0","FR","Fourchambault","EU","airport","medium","1","LFQG","Nevers","France"
"LIL","3.106067","50.57205","FR","Lesquin","EU","airport","medium","1","LFQQ","Lille","France"
"BES","-4.415827","48.445374","FR","Guipavas","EU","airport","medium","1","LFRB","Brest","France"
